名称,省份,真实城市,市县区,区号,电话,区域,地址,大分类,小分类,经度,纬度
陨石山自然保护区,辽宁,沈阳,沈阳,024,,浑南区,李相镇至姚千户镇,景点,自然风光,123.612121,41.646631
棋盘山水库,辽宁,沈阳,沈阳,024,86898138,浑南区,103省道,景点,现代建筑,123.671288,41.951065
将军公园,辽宁,沈阳,沈阳,024,,北陵,北陵大街,景点,公园/广场,123.432915,41.834457
护国法轮寺,辽宁,沈阳,沈阳,024,,北陵,北塔街27号,景点,宗教,123.451363,41.830269
辽宁美术馆,辽宁,沈阳,沈阳,024,23848981,南湖公园/三好街,彩塔街38号工业展览馆,景点,美术馆,123.432838,41.773949
鲁迅美术学院-美术馆,辽宁,沈阳,沈阳,024,23930124,南湖公园/三好街,彩塔街27号,景点,美术馆,123.43206,41.776787
长安寺,辽宁,沈阳,沈阳,024,24847440,中街/故宫,朝阳街长安寺巷6号,景点,宗教,123.461632,41.803265
百鸟公园,辽宁,沈阳,沈阳,024,,北行/辽大,崇山中路66号辽宁大学对面,景点,公园/广场,123.402397,41.82967
般若寺,辽宁,沈阳,沈阳,024,24812434,五爱市场,大南街般若寺巷8号,景点,宗教,123.459312,41.782444
慈恩寺,辽宁,沈阳,沈阳,024,24130182,五爱市场,大南街慈恩寺巷12号,景点,宗教,123.460541,41.783482
太平寺,辽宁,沈阳,沈阳,024,,西塔/北市场,皇寺路178巷2号,景点,宗教,123.426277,41.807926
中共满洲省委旧址,辽宁,沈阳,沈阳,024,22724485,北站/市府,皇寺路福安巷3号,景点,革命旧址,123.424789,41.807899
青年公园,辽宁,沈阳,沈阳,024,23892220,奉天街沿线,风雨坛街道青年大街111号（近文艺路）,景点,公园/广场,123.439804,41.781384
建设公园,辽宁,沈阳,沈阳,024,,重工街沿线,肇工北街与阔业路交叉口东北150米,景点,公园/广场,123.33757,41.806183
沈阳国家森林公园,辽宁,沈阳,沈阳,024,89778333,沈北新区,马刚街道老寺沟,景点,森林公园,123.723366,42.021481
辉山风景区,辽宁,沈阳,沈阳,024,88750531,浑南区,满堂街道辉山风景区内（东站）,景点,自然风光,123.654318,41.926968
体育公园,辽宁,沈阳,沈阳,024,,太原街,南3马路61号,景点,公园/广场,123.402771,41.783401
中山公园,辽宁,沈阳,沈阳,024,23456010,太原街,南三马路与和平南大街交叉口,景点,公园/广场,123.406219,41.785511
沈水湾公园,辽宁,沈阳,沈阳,024,,浑南新区,沈水湾街道沈水路589号,景点,公园/广场,123.423317,41.749535
长青公园,辽宁,沈阳,沈阳,024,24214361,长青街,泉园二路85号,景点,公园/广场,123.479088,41.772305
八一公园,辽宁,沈阳,沈阳,024,22829632,西塔/北市场,三纬路18号,景点,公园/广场,123.424568,41.802353
仙女湖公园,辽宁,沈阳,沈阳,024,,重工街沿线,沈辽西路与卫工南街交汇处,景点,公园/广场,123.336967,41.778168
辉山水库,辽宁,沈阳,沈阳,024,,大东区,沈铁公路,景点,现代建筑,123.515617,41.86161
无垢净光舍利塔,辽宁,沈阳,沈阳,024,,塔湾,塔湾街15巷45号,景点,历史建筑,123.380493,41.835125
克俭公园,辽宁,沈阳,沈阳,024,,皇姑区,阿里山路8号,景点,公园/广场,123.404953,41.809799
万柳塘公园,辽宁,沈阳,沈阳,024,24144259,文艺路/文化路,万莲街道先农坛路17巷,景点,公园/广场,123.46479,41.780502
南塔公园,辽宁,沈阳,沈阳,024,,文艺路/文化路,南塔街道文萃路（近文萃苑）,景点,公园/广场,123.4533,41.765816
朱尔水库,辽宁,沈阳,沈阳,024,,大东区,文官街道先进街与文东街交叉口东北50米,景点,自然景观,123.492057,41.889797
龙王庙公园,辽宁,沈阳,沈阳,024,,南湖公园/三好街,文体西路,景点,公园/广场,123.40435,41.76371
鲁迅儿童公园,辽宁,沈阳,沈阳,024,23892744,南湖公园/三好街,文艺路2号方形广场,景点,公园/广场,123.423439,41.776505
南运河,辽宁,沈阳,沈阳,024,,小河沿,文艺路,景点,更多景点/周边游,123.478355,41.791672
科普公园,辽宁,沈阳,沈阳,024,,五里河,五里河街道五爱街52号（近文体东路）,景点,公园/广场,123.439972,41.761814
鲁迅公园,辽宁,沈阳,沈阳,024,,南市/马路湾,西滨河路6号,景点,公园/广场,123.421463,41.779182
大东公园,辽宁,沈阳,沈阳,024,,黎明广场,小河沿路,景点,公园/广场,123.496292,41.795624
清真南寺,辽宁,沈阳,沈阳,024,22726760,奉天街沿线,朱剪炉街道南清真路23号(近,景点,宗教,123.439438,41.802509
黎明公园,辽宁,沈阳,沈阳,024,,黎明广场,东塔街道珠林路63号,景点,公园/广场,123.505768,41.811352
兴华公园,辽宁,沈阳,沈阳,024,,铁西广场,兴华南街,景点,公园/广场,123.364044,41.787895
铁西劳动公园,辽宁,沈阳,沈阳,024,,重工街沿线,肇工街南12号,景点,公园/广场,123.338051,41.78611
康辉国际旅行社,辽宁,沈阳,沈阳,024,22815566,南市/马路湾,和平北大街69号,景点,旅行社,123.415924,41.793182
沈阳抗美援朝烈士陵园,辽宁,沈阳,沈阳,024,86622109,陵东,金山路50号,景点,烈士陵园,123.452152,41.855663
西塔,辽宁,沈阳,沈阳,024,,西塔/北市场,西塔街,景点,历史建筑,123.408661,41.805103
蓬瀛圣境,辽宁,沈阳,沈阳,024,,五里河,南塔街,景点,宗教,123.451439,41.765842
大佛寺,辽宁,沈阳,沈阳,024,24804423,五爱市场,大南街三段慈恩寺巷14号,景点,宗教,123.459717,41.784561
中山广场,辽宁,沈阳,沈阳,024,,太原街,中山路552号,景点,公园/广场,123.410561,41.796967
东塔园,辽宁,沈阳,沈阳,024,,黎明广场,东塔街道东塔街2号,景点,更多景点/周边游,123.507355,41.797024
市府广场,辽宁,沈阳,沈阳,024,186****8889,北站/市府,北站街道青年大街1号,景点,广场,123.43409,41.804718
和平广场,辽宁,沈阳,沈阳,024,25225895,南市/马路湾,和平大街和平广场,景点,广场,123.404305,41.778446
罗士圈生态公园,辽宁,沈阳,沈阳,024,,砂山,浑河湾街道玉屏二路钓鱼台七号南门对面,景点,公园/广场,123.387619,41.757496
长白岛森林公园,辽宁,沈阳,沈阳,024,,长白岛,长白街道南堤西路附近,景点,森林公园,123.387527,41.751514
辽宁大学-会议中心,辽宁,沈阳,沈阳,024,86864254,北行/辽大,崇山中路66号辽宁大学,景点,景点/周边游,123.403801,41.832527
沈阳国际旅行社,辽宁,沈阳,沈阳,024,159****8869,中街/故宫,中街路115号兴隆大家庭旅游超市,景点,旅行社,123.455275,41.800435
阳春园,辽宁,沈阳,沈阳,024,186****4346,砂山,砂阳路27号省妇婴医院附近,景点,公园/广场,123.395454,41.767097
皇寺庙会,辽宁,沈阳,沈阳,024,22531709,北站/市府,北市场街道皇寺路206号（近皇寺庙门前）,景点,宗教,123.422585,41.807808
卫工明渠,辽宁,沈阳,沈阳,024,,保工街,卫工北街与北二西路交口卫工明渠,景点,更多景点/周边游,123.343369,41.79015
大东区文化馆,辽宁,沈阳,沈阳,024,,东中街,大什字街103号,景点,展览馆,123.468545,41.800337
吉祥街景观夜市,辽宁,沈阳,沈阳,024,,大东广场,洮昌街与联合路交叉口南20米,景点,夜市,123.470886,41.823109
彩电塔夜市,辽宁,沈阳,沈阳,024,,南湖公园/三好街,彩塔街夜市,景点,夜市,123.43309,41.785179
枫露公园,辽宁,沈阳,沈阳,024,,大东广场,联合路枫露公园,景点,公园/广场,123.466911,41.819881
古陨石山森林公园,辽宁,沈阳,沈阳,024,24232184,浑南区,李相镇滑石台村,景点,森林公园,123.64469,41.61498
南运河带状公园,辽宁,沈阳,沈阳,024,22821999,奉天街沿线,风雨坛街道西滨河路28号,景点,公园/广场,123.431053,41.782272
绿岛森林公园,辽宁,沈阳,沈阳,024,,苏家屯区,梧桐街1号,景点,森林公园,123.54009,41.62674
康乐公园,辽宁,沈阳,沈阳,024,,铁西广场,南六东路52号,景点,公园/广场,123.372734,41.791473
砂山公园,辽宁,沈阳,沈阳,024,23371426,砂山,南京南街182号,景点,公园/广场,123.389275,41.7705
金山公园,辽宁,沈阳,沈阳,024,,苏家屯客运站,桂花街,景点,公园/广场,123.333755,41.676941
龙泉山森林公园,辽宁,沈阳,沈阳,024,,浑南区,沈祝线旁,景点,森林公园,123.712662,41.678112
烈士塔公园,辽宁,沈阳,辽中区,024,,北一路,东环街267号,景点,公园/广场,122.742744,41.516106
怒江公园,辽宁,沈阳,沈阳,024,62610889,怒江北街,南十二西路1号,景点,公园/广场,123.392067,41.840405
苏家屯劳动公园,辽宁,沈阳,沈阳,024,89814247,苏家屯区政府,青松路4号,景点,公园/广场,123.348358,41.669937
黄海公园,辽宁,沈阳,沈阳,024,25301020,于洪广场,洪湖南街,景点,公园/广场,123.312187,41.788021
碧塘公园,辽宁,沈阳,沈阳,024,,北行/辽大,长江街15号,景点,公园/广场,123.41555,41.820358
带状公园,辽宁,沈阳,辽中区,024,,辽中区其他,北环路与商业街交汇处,景点,公园/广场,122.736824,41.519173
沈阳国际建材展示馆,辽宁,沈阳,沈阳,024,,东中街,小河沿路城建东逸花园,景点,展览馆,123.482626,41.790176
四方蓝天国际旅行社,辽宁,沈阳,沈阳,024,23256930,太原街,中华路121号甲,景点,旅行社,123.409873,41.787835
金运之旅,辽宁,沈阳,沈阳,024,86221419,北陵,黄河大街78号乐购超市1楼西北侧,景点,旅行社,123.41978,41.83501
中国青年旅行社,辽宁,沈阳,辽中区,024,,辽中区其他,商业街与电业巷交叉路口西侧,景点,旅行社,122.731651,41.504731
康辉国际旅行社,辽宁,沈阳,沈阳,024,,东中街,大东路旁,景点,旅行社,123.471666,41.796816
中国旅行社,辽宁,沈阳,沈阳,024,23999255,浑南新区,青年大街28号,景点,旅行社,123.43355,41.76861
好运旅行社,辽宁,沈阳,新民市,024,85715799,新民市中心城区,辽河大街135号新民迎宾馆1楼,景点,旅行社,122.828037,41.992627
友好旅行社,辽宁,沈阳,沈阳,024,22871919,太原街,民族南街66号温州城A5（近交通银行）,景点,旅行社,123.396231,41.791274
沈阳客运天天旅行社,辽宁,沈阳,沈阳,024,138****0997;138****5717,太原街,南京南街1甲号（1412）欧亚联营14F,景点,旅行社,123.405209,41.788929
汇点国际旅行社,辽宁,沈阳,沈阳,024,,南市/马路湾,十一纬路82号皇城酒店公寓,景点,旅行社,123.421455,41.790059
国奥旅行社,辽宁,沈阳,沈阳,024,,苏家屯区政府,迎春街135号9门,景点,旅行社,123.342604,41.659304
海外国际旅行社,辽宁,沈阳,沈阳,024,23261701,北站/市府,北京街21号许兄弟大厦,景点,旅行社,123.453644,41.814964
沈阳东方旅行社,辽宁,沈阳,沈阳,024,84825266,长青街,文化东路52号,景点,旅行社,123.471759,41.769169
安运旅行社,辽宁,沈阳,沈阳,024,25937110,滑翔小区,沈辽东路75号,景点,旅行社,123.362579,41.780699
中国旅行社,辽宁,沈阳,沈阳,024,22818612,太原街,太原街街道中山路97甲升龙大厦5楼B507室,景点,旅行社,123.409452,41.796213
国际商务旅行社,辽宁,沈阳,沈阳,024,,北站/市府,北京街21号许兄弟大厦817室,景点,旅行社,123.43137,41.81002
美好时光旅行社,辽宁,沈阳,沈阳,024,23240651,太原街,中华路121甲SOHO新天地1917室,景点,旅行社,123.410016,41.787726
中国旅行社,辽宁,沈阳,沈阳,024,22844133;159****0123,西塔/北市场,南京北街109号和泰运恒国际大厦A座1305室,景点,旅行社,123.412339,41.798579
中国旅行社,辽宁,沈阳,沈阳,024,86852694,南市/马路湾,和平北大街94号星光大厦11层1101室,景点,旅行社,123.415095,41.793025
神州旅行社,辽宁,沈阳,沈阳,024,158****5858,北行/辽大,岐山中路1号东机大厦903室,景点,旅行社,123.427567,41.823326
长白山旅行社,辽宁,沈阳,沈阳,024,83959868,南湖公园/三好街,南湖街道三好街136号新世界丰盛商务大厦11楼,景点,旅行社,123.423104,41.758204
华远旅行社,辽宁,沈阳,沈阳,024,23229699,太原街,南京南街52号鸿源大厦,景点,旅行社,123.401677,41.785617
佳信旅行社,辽宁,沈阳,沈阳,024,,长青街,长青街35号万泉商务大厦1层,景点,旅行社,123.474575,41.781414
中国旅行社,辽宁,沈阳,沈阳,024,89101066,苏家屯区政府,枫杨路78号房产大厦(枫杨路)1楼左侧,景点,旅行社,123.345466,41.661356
青年国际旅行社,辽宁,沈阳,沈阳,024,,北站/市府,北站路112号瑞心东方酒店1136室,景点,旅行社,123.440485,41.818635
中国国旅,辽宁,沈阳,沈阳,024,22595707;22595717,南市/马路湾,南三经街71号,景点,旅行社,123.427556,41.783716
中国旅行社,辽宁,沈阳,沈阳,024,83251245;137****1425,南市/马路湾,十四纬路17号,景点,旅行社,123.426517,41.783057
中国旅行社总社,辽宁,沈阳,沈阳,024,31223325,北行/辽大,歧山中路50号,景点,旅行社,123.414177,41.823057
园林国际旅行社,辽宁,沈阳,沈阳,024,62467158,五爱市场,热闹路60号甲,景点,旅行社,123.450216,41.788266
沈阳书画院,辽宁,沈阳,沈阳,024,22515763,西塔/北市场,总站路115号,景点,美术馆,123.428139,41.809998
沈阳科学宫,辽宁,沈阳,沈阳,024,23978049;23978016,五里河,青年大街201号科学宫,景点,科技馆,123.436166,41.761686
辽宁工业展览馆,辽宁,沈阳,沈阳,024,83939308,南湖公园/三好街,彩塔街38号工业展览馆2楼东楼,景点,展览馆,123.43367,41.773258
辽宁省农业展览馆,辽宁,沈阳,沈阳,024,31025015,东陵路/沈阳农业大学,马官桥街道东陵路78号,景点,博物馆,123.550407,41.822971
沈阳当代美术馆,辽宁,沈阳,沈阳,024,24857023,中街/故宫,沈阳路135号,景点,美术馆,123.454292,41.797474
舍利塔滩地公园,辽宁,沈阳,沈阳,024,,塔湾,舍利塔街道塔湾街,景点,公园/广场,123.38002,41.834026
大法寺,辽宁,沈阳,沈阳,024,81748923,大东广场,边墙路112号,景点,宗教,123.4617,41.817685
护国延寿寺,辽宁,沈阳,沈阳,024,22821999,西塔/北市场,北市场街道敦化一路55-2号西南80米,景点,宗教,123.408722,41.805084
沈阳城市规划展示馆,辽宁,沈阳,沈阳,024,31378969,浑南新区,五爱街156号,景点,陈列馆,123.441071,41.75972
春秋航空旅游网,辽宁,沈阳,沈阳,024,95524,,www.China-sss.com,景点,旅行社,0.0001,0.0001
兴隆堡温泉,辽宁,沈阳,新民市,024,,新民市其他,兴隆堡镇,景点,温泉,123.070679,41.91164
大东广场,辽宁,沈阳,沈阳,024,,大东广场,大北关街36-1号,景点,广场,123.463852,41.81871
重型文化广场,辽宁,沈阳,沈阳,024,,北一路万达,兴华北街与北一中路交叉口西南100米,景点,广场,123.383133,41.812916
辽沈晚报文化广场,辽宁,沈阳,沈阳,024,,吉祥市场,市政府,景点,广场,123.469429,41.824177
中街步行街,辽宁,沈阳,沈阳,024,31655128,中街/故宫,津桥街道东中街,景点,步行街,123.465088,41.801422
夏芳园,辽宁,沈阳,沈阳,024,,小河沿,万泉街,景点,公园/广场,123.468315,41.790119
辛巴达欢乐城堡,辽宁,沈阳,沈阳,024,31982223,东中街,滂江街22号龙之梦购物中心8层,景点,主题乐园,123.48674,41.807285
沈阳建筑大学商业街,辽宁,沈阳,沈阳,024,,浑南新区,浑南东路9号沈阳建筑大学内,景点,观光街区,123.517083,41.745133
沈阳建筑大学建筑博物馆,辽宁,沈阳,沈阳,024,,浑南新区,五三街道浑南东路9号,景点,博物馆,123.513412,41.746056
保利・双河城公园,辽宁,沈阳,沈阳,024,,东陵路/沈阳农业大学,东陵街道东陵西路29号新宁街,景点,公园/广场,123.540573,41.809296
凯撒旅游沈阳分站,辽宁,沈阳,沈阳,024,31379689,文艺路/文化路,青年大街288号华润大厦11楼1105-1106室,景点,旅行社,123.43483,41.777031
营城子大街基督教堂,辽宁,沈阳,沈阳,024,,浑南区,营城子大街,景点,宗教,123.633147,41.714757
中国旅行社,辽宁,沈阳,沈阳,024,86083856,北行/辽大,长江街62号,景点,旅行社,123.412271,41.824631
客运天天旅行社,辽宁,沈阳,沈阳,024,130****9629,北站/市府,北站路77号光达大厦C座15楼8号,景点,旅行社,123.437087,41.815567
旅游观光巴士,辽宁,沈阳,沈阳,024,66890630,北陵,新乐街道黄河南大街105号辽宁大厦（近南风大剧院）,景点,城市观光,123.423462,41.83918
爱琴谷,辽宁,沈阳,沈阳,024,,沈北新区,马刚街道铁营子村收藏搜周边发送到手机,景点,自然风光,123.694036,42.003386
名流旅行社,辽宁,沈阳,沈阳,024,66774405;88618711,东中街,万泉街道珠林路90号13门,景点,旅行社,123.48391,41.80931
纵横国际旅行社,辽宁,沈阳,沈阳,024,130****0222,南市/马路湾,十一纬路云集东巷32号皇城经纬公寓B座4楼,景点,旅行社,123.42054,41.788525
虎跃旅行社,辽宁,沈阳,沈阳,024,62435888,中街/故宫,广宜街2号4门,景点,旅行社,123.446966,41.805486
爱新觉罗皇家博物院,辽宁,沈阳,法库县,024,138****3619,法库县其他,大孤家子镇半拉山村（大孤家子镇）,景点,博物馆,123.30822,42.333073
1905文化创意园,辽宁,沈阳,沈阳,024,62781520;4000241905,北二路,兴华北街1905-8号门,景点,创意园区,123.382446,41.81245
彩丰山庄,辽宁,沈阳,沈阳,024,131****5603,浑南区,高望线,景点,更多景点/周边游,123.727516,41.913216
金运之旅,辽宁,沈阳,沈阳,024,96677,长白岛,长白西路,景点,旅行社,123.391171,41.746221
青年国际旅行社,辽宁,沈阳,沈阳,024,,铁西广场,兴华南街5号鲁尔大厦17层,景点,旅行社,123.37044,41.792702
吉祥寺,辽宁,沈阳,法库县,024,,大卖场,兴法路33号,景点,宗教,123.416168,42.507374
国际商务旅行社,辽宁,沈阳,沈阳,024,,南市/马路湾,十一纬路12号银基发展中心20层2003室,景点,旅行社,123.41511,41.788581
小东路群众艺术馆,辽宁,沈阳,沈阳,024,88721248,东中街,小东路234号,景点,美术馆,123.476471,41.80545
皇寺广场,辽宁,沈阳,沈阳,024,,西塔/北市场,南京北街,景点,宗教,123.426216,41.807323
沈阳北国旅行社,辽宁,沈阳,沈阳,024,62422515,北站/市府,惠工广场,景点,旅行社,123.440134,41.813636
九洲假日国际旅行社,辽宁,沈阳,沈阳,024,86083199;86083788,奉天街沿线,奉天街346号格林自由城B座1611室,景点,旅行社,123.442024,41.808292
方家栏基督教会,辽宁,沈阳,沈阳,024,,长青街,方兴路6-2号3门,景点,宗教,123.497716,41.777036
周恩来少年读书旧址区,辽宁,沈阳,沈阳,024,62437085,中街/故宫,万泉街道大东路育才巷10号,景点,古代遗迹,123.466042,41.794872
中山路欧风街,辽宁,沈阳,沈阳,024,,太原街,南市场街道广州街与桂林街交叉口东100米,景点,步行街,123.411705,41.797028
青华国旅,辽宁,沈阳,沈阳,024,23783139;130****8100,浑南新区,新隆街2甲-2号君汇中心,景点,旅行社,123.456362,41.720472
金运之旅,辽宁,沈阳,沈阳,024,96677,文艺路/文化路,文化路家乐福2楼,景点,旅行社,123.437119,41.770676
虎石台公园,辽宁,沈阳,沈阳,024,,虎石台,虎石台镇,景点,公园/广场,123.515022,41.942184
长寿园,辽宁,沈阳,新民市,024,,新民市其他,304国道,景点,更多景点/周边游,122.961746,42.009716
三道岗子乡基督教活动点,辽宁,沈阳,新民市,024,,新民市其他,郭三线基督教堂（郭三线）附近,景点,宗教,123.122322,42.079269
好运旅行社,辽宁,沈阳,新民市,024,87515799,新民市中心城区,南市西路5号网点东6号,景点,旅行社,122.827751,41.989871
新开河公园,辽宁,沈阳,新民市,024,,新民市其他,东郊路与102国道交叉口南150米,景点,公园/广场,122.851112,42.003754
沈阳市新民城区基督教堂,辽宁,沈阳,新民市,024,,新民市其他,102国道,景点,宗教,122.823571,42.009873
农业百科园,辽宁,沈阳,新民市,024,,新民市其他,姜张线（沈阳三农博览园对面）,景点,科技馆,122.782654,42.137547
三圣寺,辽宁,沈阳,新民市,024,,新民市其他,姜张线,景点,宗教,122.784988,42.139297
新民基督教堂,辽宁,沈阳,新民市,024,,新民市其他,郭三线与彭双线交叉路口往东北约250米,景点,宗教,123.121642,42.078932
海佛林,辽宁,沈阳,新民市,024,,新民市中心城区,中兴西路92-3号,景点,景点/周边游,122.824242,41.99313
三圣苑,辽宁,沈阳,新民市,024,,新民市其他,姜张线,景点,更多景点/周边游,122.783073,42.139912
湖滨公园,辽宁,沈阳,新民市,024,,新民市中心城区,南环东路,景点,公园/广场,122.840378,41.993633
辽滨塔,辽宁,沈阳,新民市,024,,新民市其他,辽滨村,景点,历史建筑,123.066185,42.136784
战友旅行社,辽宁,沈阳,新民市,024,,新民市其他,102国道附近,景点,旅行社,123.1491,41.7887
新联旅行社有限责任公司,辽宁,沈阳,新民市,024,,新民市其他,铁北西路,景点,旅行社,122.81581,42.00718
辽河东基督教福音堂,辽宁,沈阳,新民市,024,,新民市其他,304国道,景点,宗教,123.016708,41.960537
新民市烈士陵园,辽宁,沈阳,新民市,024,87853627,新民市其他,工人大路,景点,烈士陵园,122.841339,42.014534
潢南河带状公园,辽宁,沈阳,新民市,024,,新民市其他,中兴东路,景点,公园/广场,122.8517,42.002064
沈阳乐游国际旅行社有限公司,辽宁,沈阳,沈阳,024,,太原街,南京北街109号和泰运恒国际A座1811室,景点,旅行社,123.412519,41.798732
海华国际旅行社,辽宁,沈阳,沈阳,024,23415171;23492135,和平区,迎春北街,景点,旅行社,123.352522,41.701345
锡伯族家庙,辽宁,沈阳,沈阳,024,,西塔/北市场,皇寺路178号,景点,宗教,123.426689,41.807827
辽宁总站,辽宁,沈阳,沈阳,024,,西塔/北市场,总站路100号,景点,人文古迹,123.426773,41.810913
沈阳旅行服务段,辽宁,沈阳,沈阳,024,,南市/马路湾,新兴街15号,景点,旅行社,123.405617,41.777197
中国国旅（辽宁）国际旅行社,辽宁,沈阳,沈阳,024,62106069,太原街,南京南街34号沈铁职工文化活动中心2楼221室,景点,旅行社,123.402502,41.78709
光大国际旅行社,辽宁,沈阳,沈阳,024,23853777,太原街,南京南街34号沈铁文化活动楼203,景点,旅行社,123.402698,41.78716
东洋拓殖株式会社奉天支店旧址,辽宁,沈阳,沈阳,024,,太原街,中山路101甲,景点,古代遗迹,123.411827,41.796745
奉天警察署旧址,辽宁,沈阳,沈阳,024,,太原街,中山路106号,景点,古代遗迹,123.409813,41.797848
铁道国际旅行社,辽宁,沈阳,沈阳,024,23929981;23929979,南湖公园/三好街,文化路19号金科大厦1层,景点,旅行社,123.426397,41.771177
平安座旧址,辽宁,沈阳,沈阳,024,,太原街,民主路72号,景点,古代遗迹,123.398911,41.788071
清风海岸旅行社,辽宁,沈阳,沈阳,024,,西塔/北市场,市府大路55号年华国际大厦0725号,景点,旅行社,123.415067,41.804091
城建林,辽宁,沈阳,沈阳,024,,南湖公园/三好街,文体西路137号,景点,自然风光,123.39951,41.763688
宝中旅游,辽宁,沈阳,沈阳,024,,南市/马路湾,南四经街,景点,旅行社,123.424422,41.781981
领事馆绿地,辽宁,沈阳,沈阳,024,,南市/马路湾,十三纬路46号,景点,公园/广场,123.425491,41.784836
龙游旅行社有限公司,辽宁,沈阳,沈阳,024,,西塔/北市场,哈尔滨路58号房联大厦822号,景点,旅行社,123.425113,41.812273
康辉国际旅行社,辽宁,沈阳,沈阳,024,151****6281,于洪新城,南六中路111号,景点,旅行社,123.331233,41.742283
海外国际旅行社有限公司,辽宁,沈阳,沈阳,024,,西塔/北市场,市府大路200号新世纪商务大厦19层,景点,旅行社,123.424342,41.805522
宇航旅行社,辽宁,沈阳,沈阳,024,,西塔/北市场,总站路119号兴华商务会馆5-C,景点,旅行社,123.428414,41.809857
天马旅行社,辽宁,沈阳,沈阳,024,31503883,西塔/北市场,市府大路168号华姿国际大厦D座15层,景点,旅行社,123.421263,41.805103
森林湖,辽宁,沈阳,沈阳,024,,苏家屯区,驼峰街,景点,森林公园,123.372375,41.698074
刘少奇同志秘密居住地,辽宁,沈阳,沈阳,024,22724486,西塔/北市场,皇寺路和平北大街路口附近,景点,更多景点/周边游,123.424706,41.807949
宝中旅游,辽宁,沈阳,沈阳,024,,南市/马路湾,十一纬路云集东巷23号楼,景点,旅行社,123.421216,41.788716
车向忱旧居,辽宁,沈阳,沈阳,024,,太原街,太原街商圈南三马路27号,景点,名人故居,123.399002,41.786343
中国旅行社,辽宁,沈阳,沈阳,024,31326278;133****6168,西塔/北市场,北市场街道市府大路55号年华国际大厦102室,景点,旅行社,123.415214,41.803907
宝中旅游,辽宁,沈阳,沈阳,024,,文艺路/文化路,文化路,景点,旅行社,123.443142,41.770804
居士林,辽宁,沈阳,沈阳,024,24142553,五爱市场,富教巷16-2号,景点,自然景观,123.460067,41.781725
赵琛创意,辽宁,沈阳,沈阳,024,,奉天街沿线,大西路148号,景点,博物馆,123.442845,41.795595
老年旅行社,辽宁,沈阳,沈阳,024,22895992;22893579,南市/马路湾,北三经街51号,景点,旅行社,123.425006,41.796006
东三省官银号旧址,辽宁,沈阳,沈阳,024,81352539,中街/故宫,朝阳街21号,景点,古代遗迹,123.460976,41.802887
皂角园,辽宁,沈阳,沈阳,024,,文艺路/文化路,滨河街道文艺路54号,景点,公园/广场,123.447639,41.775276
清盛京城德盛门瓮城遗址,辽宁,沈阳,沈阳,024,,五爱市场,大南街1号,景点,古代遗迹,123.460365,41.792709
沈阳市园林植物标本公园,辽宁,沈阳,沈阳,024,,五里河,南塔街道南塔西街与科普路交叉口西北150米,景点,植物园,123.443871,41.759876
华亿国际旅行社有限公司,辽宁,沈阳,沈阳,024,22518336,北站/市府,北站路77号光达大厦C座1125室,景点,旅行社,123.437134,41.815584
泰达旅行社,辽宁,沈阳,沈阳,024,,长青街,文富路30号,景点,旅行社,123.467883,41.770987
捷旅假期,辽宁,沈阳,沈阳,024,,北站/市府,北站路77号光达大厦C座1单元18层,景点,旅行社,123.437129,41.815579
沈阳中意国际旅行社,辽宁,沈阳,沈阳,024,31663033,北站/市府,北站路112号瑞心东方酒店1-2层,景点,旅行社,123.440486,41.818606
中国国际旅行社,辽宁,沈阳,沈阳,024,88506060;88522199,北站/市府,广宜街,景点,旅行社,123.449396,41.806964
世纪会堂,辽宁,沈阳,沈阳,024,,东陵路/沈阳农业大学,东陵路120号,景点,景点/周边游,123.565681,41.82304
基督教宁官朝鲜族礼拜堂,辽宁,沈阳,沈阳,024,,铁西区,沈辽路,景点,宗教,123.278282,41.754353
嘉华旅行社,辽宁,沈阳,沈阳,024,22852307,太原街,南5马路1-2号A座815号,景点,旅行社,123.390616,41.785946
向工街基督教堂,辽宁,沈阳,沈阳,024,,荷兰村,向工街,景点,宗教,123.364891,41.838921
金运之旅,辽宁,沈阳,沈阳,024,,张士开发区,沈阳经济技术开发区奉达大厦银座,景点,旅行社,123.296092,41.767856
界园,辽宁,沈阳,沈阳,024,,铁西区,四环路与开发二十二号路交叉口东北150米,景点,公园/广场,123.213834,41.709971
佳胜展览展示,辽宁,沈阳,沈阳,024,25442778,兴顺夜市,景星南街90号中城大厦2306,景点,展览馆,123.355804,41.790104
康辉国际旅行社,辽宁,沈阳,沈阳,024,62588886,于洪新城,南六中路111号,景点,旅行社,123.331233,41.742317
世纪庄园,辽宁,沈阳,沈阳,024,,铁西区,潘乌公路北50米,景点,动植物园,123.053564,41.693954
远大湿地公园,辽宁,沈阳,沈阳,024,,铁西区,开发大路,景点,公园/广场,123.217581,41.76137
慈航寺,辽宁,沈阳,沈阳,024,,铁西区,东八路,景点,宗教,123.097534,41.630428
铁西规划展示馆,辽宁,沈阳,沈阳,024,,重工街沿线,重工北街64号,景点,陈列馆,123.32946,41.814896
辽宁国际商务旅行社,辽宁,沈阳,沈阳,024,,北二路,北一东路51-3号3门,景点,旅行社,123.391586,41.810243
辽宁国际商务旅行社,辽宁,沈阳,沈阳,024,31221534,铁西广场,铁西广场第1商城A座801室,景点,旅行社,123.367761,41.785148
康辉旅游,辽宁,沈阳,沈阳,024,,铁西广场,兴华街道兴华南街31号5门附近,景点,旅行社,123.369692,41.793602
熙湖,辽宁,沈阳,沈阳,024,,财富广场,昆明湖街道中央大街与南十三号路交叉口西北100米,景点,自然风光,123.243118,41.750198
铁西基督教堂,辽宁,沈阳,沈阳,024,,财富广场,曹后公路,景点,景点/周边游,123.263351,41.742855
福安庙,辽宁,沈阳,沈阳,024,,铁西区,冶金一街,景点,宗教,123.041862,41.67828
腾飞公园,辽宁,沈阳,沈阳,024,,滑翔小区,腾飞二街,景点,公园/广场,123.358734,41.772919
细河U谷,辽宁,沈阳,沈阳,024,,铁西区,四环路与细河悠谷交叉口东100米,景点,公园/广场,123.219261,41.69886
中国旅行社,辽宁,沈阳,沈阳,024,31970334;186****1207,大东广场,滂江街22号龙之梦购物中心B2层红厅,景点,旅行社,123.487839,41.807999
黎明游园,辽宁,沈阳,沈阳,024,,黎明广场,东塔街与东宁街交叉口西南100米,景点,公园/广场,123.507812,41.801403
辽宁光大国际旅行社,辽宁,沈阳,沈阳,024,88728810,东中街,津桥路金香山312室,景点,旅行社,123.465088,41.805262
杨宇霆公馆,辽宁,沈阳,沈阳,024,88847289,东中街,魁星楼路6号,景点,人文古迹,123.465973,41.792709
大东基督教,辽宁,沈阳,沈阳,024,,大东广场,万泉街道东顺城街三自巷8号,景点,宗教,123.46574,41.798571
沈海园,辽宁,沈阳,沈阳,024,,东站,东站西货场对面,景点,公园/广场,123.482094,41.814728
怡林园,辽宁,沈阳,沈阳,024,,大东区,东望北街西100米,景点,公园/广场,123.524454,41.847714
中国旅行社,辽宁,沈阳,沈阳,024,24345212;183****1666,大东广场,津桥路31甲1-03二室,景点,旅行社,123.474678,41.804508
赵尔巽公馆旧址,辽宁,沈阳,沈阳,024,155****8266,小河沿,万泉街1号,景点,古代遗迹,123.470251,41.790041
海外旅游总公司,辽宁,沈阳,沈阳,024,,东中街,小东路241号天阔华城4层408室,景点,旅行社,123.477116,41.804926
沈阳远东旅行社有限公司,辽宁,沈阳,沈阳,024,86626238;186****6417,北陵,崇山东路40号,景点,旅行社,123.44973,41.8339
王明宇公馆,辽宁,沈阳,沈阳,024,22875263,东站,如意五路近辽沈一街,景点,人文古迹,123.476318,41.815399
沈阳青年国际旅行社,辽宁,沈阳,沈阳,024,66702198,北行/辽大,乌江街31号,景点,旅行社,123.410331,41.822558
中国国际旅行社,辽宁,沈阳,沈阳,024,62650752;62650753,北行/辽大,昆山中路28号,景点,旅行社,123.425767,41.81871
路e旅行网,辽宁,沈阳,沈阳,024,,北行/辽大,长江街59号皇姑商务大厦,景点,旅行社,123.413441,41.822241
冬青游园,辽宁,沈阳,沈阳,024,,塔湾,造化街道塔湾街27号,景点,公园/广场,123.374374,41.832764
苏家屯基督教堂,辽宁,沈阳,沈阳,024,,苏家屯区,苏盛街附近,景点,宗教,123.363403,41.574463
四方台村文化广场,辽宁,沈阳,沈阳,024,,苏家屯区,清州街76-4号附近,景点,公园/广场,123.34919,41.613583
杨孟达村文化广场,辽宁,沈阳,沈阳,024,,苏家屯区,杨孟达村文化广场,景点,广场,123.221308,41.669451
鹿鸣村植物园,辽宁,沈阳,沈阳,024,,苏家屯区,107省道,景点,植物园,123.670651,41.608561
誉湾旅行社,辽宁,沈阳,沈阳,024,138****2844,苏家屯客运站,葵松二路13号楼,景点,旅行社,123.332452,41.671392
长兴村文化广场,辽宁,沈阳,沈阳,024,,苏家屯区,苏盛街与101省道交叉口西北100米,景点,公园/广场,123.395798,41.560966
战友旅行社,辽宁,沈阳,沈阳,024,89823838;89826677,苏家屯客运站,百合一街金山转盘南湖街道办事处,景点,旅行社,123.33434,41.67148
沈阳国际展览中心,辽宁,沈阳,沈阳,024,89566721;22531028,会展中心,会展路9号,景点,展览馆,123.373196,41.661979
林苑旅行社,辽宁,沈阳,沈阳,024,89129885;89139885,苏家屯客运站,枫杨路143号,景点,旅行社,123.323455,41.658085
苏家屯画院,辽宁,沈阳,沈阳,024,,苏家屯区政府,枫杨路33号,景点,美术馆,123.350998,41.661789
森林自然保护区,辽宁,沈阳,沈阳,024,,苏家屯区,千街道,景点,森林公园,123.720415,41.603806
日俄会战碑日本碑,辽宁,沈阳,沈阳,024,,苏家屯区,机场路,景点,人文古迹,123.450958,41.603191
回龙岗革命公墓,辽宁,沈阳,沈阳,024,88071918,大东区,前进街道畅阳路224号,景点,烈士陵园,123.555381,41.894075
经济区旅游综合服务中心,辽宁,沈阳,沈阳,024,,苏家屯区,沈本产业大道与秋盛西路交叉路口往西北约100米,景点,旅行社,123.582502,41.532612
北斗公园,辽宁,沈阳,沈阳,024,,新城子,福州路66号,景点,公园/广场,123.531754,42.044022
康辉国际旅行社,辽宁,沈阳,沈阳,024,89645588,新城子,青州路9号,景点,旅行社,123.515846,42.054843
和平公园,辽宁,沈阳,沈阳,024,,道义,盛京桥附近,景点,公园/广场,123.411217,41.937065
清水台清真寺,辽宁,沈阳,沈阳,024,,沈北新区,辉山北大街165号,景点,宗教,123.616437,42.019717
青年国际旅行社,辽宁,沈阳,沈阳,024,,新城子,贵州路,景点,旅行社,123.527297,42.047657
南沟水库,辽宁,沈阳,沈阳,024,,沈北新区,辉山街道沈北路198号,景点,现代建筑,123.616001,41.913486
长河公园,辽宁,沈阳,沈阳,024,,新城子,虎石台北大街8号对面,景点,公园/广场,123.535683,42.049877
新城子基督教堂,辽宁,沈阳,沈阳,024,,新城子,银河街4号楼,景点,宗教,123.519005,42.062325
金运之旅,辽宁,沈阳,沈阳,024,4000249667-7,新城子,青州路新兴中学对面,景点,旅行社,123.522629,42.054211
道义街道文化站,辽宁,沈阳,沈阳,024,,沈阳师范大学,雅居街地雅新居,景点,展览馆,123.43159,41.91998
洋山民俗村,辽宁,沈阳,沈阳,024,,浑南区,大洋山森林公园附近,景点,古村古镇,123.694687,41.958088
孙家寨基督教,辽宁,沈阳,沈阳,024,,浑南区,营祝线,景点,宗教,123.542301,41.700861
东陵区烈士陵园,辽宁,沈阳,沈阳,024,,东陵路/沈阳农业大学,东陵路173号东陵公园附近,景点,烈士陵园,123.581472,41.82114
古城子镇基督教堂,辽宁,沈阳,沈阳,024,,浑南区,古张公路,景点,宗教,123.578441,41.742181
古陨石怪山,辽宁,沈阳,沈阳,024,,浑南区,沈李线南尽头,景点,自然风光,123.643496,41.614587
浑河堡教堂,辽宁,沈阳,沈阳,024,159****3210,浑南新区,金帆西路8号,景点,宗教,123.441186,41.722228
陨石山森林公园,辽宁,沈阳,沈阳,024,,苏家屯区,姚千镇,景点,森林公园,123.664809,41.611275
朝阳山生态文化景区,辽宁,沈阳,沈阳,024,24769276,浑南区,沙河子村,景点,自然风光,123.668272,41.725139
满族民俗博物馆,辽宁,沈阳,沈阳,024,,浑南区,石刘线东50米,景点,博物馆,123.642098,41.619398
莫子山公园,辽宁,沈阳,沈阳,024,,浑南新区,环山路,景点,城市公园,123.484795,41.670704
藏龙潭,辽宁,沈阳,沈阳,024,,浑南区,常沙线,景点,自然风光,123.668143,41.724373
浑南基督教堂,辽宁,沈阳,沈阳,024,,浑南区,棋望线附近,景点,宗教,123.726678,41.908458
浑南基督教,辽宁,沈阳,沈阳,024,,东陵路/沈阳农业大学,东陵路167号院,景点,宗教,123.577656,41.821035
海航乐游,辽宁,沈阳,沈阳,024,,浑南新区,恒达路,景点,旅行社,123.479255,41.745367
马楼子村文化广场,辽宁,沈阳,沈阳,024,,浑南区,机场路,景点,广场,123.517914,41.635979
桃仙故里,辽宁,沈阳,沈阳,024,23793401,浑南区,桃仙街道三四国道宁路小学附近,景点,更多景点/周边游,123.526674,41.658359
神农科技观光园,辽宁,沈阳,沈阳,024,,浑南区,满堂街道,景点,动植物园,123.695839,41.94276
仙境湖,辽宁,沈阳,沈阳,024,,于洪区,后三线东50米,景点,自然风光,123.140167,41.939476
陵西基督教堂,辽宁,沈阳,沈阳,024,186****3932,陵西,陵西街55号,景点,宗教,123.409615,41.845963
长江园,辽宁,沈阳,沈阳,024,,北行/辽大,长江街,景点,公园/广场,123.41021,41.840107
康辉国际旅行社,辽宁,沈阳,沈阳,024,,荷兰村,怒江北街219号3门,景点,旅行社,123.397113,41.884235
观音寺,辽宁,沈阳,沈阳,024,,荷兰村,白山路98号,景点,宗教,123.390968,41.859833
晚报文化广场,辽宁,沈阳,沈阳,024,,丁香湖,丁香湖路,景点,广场,123.337997,41.847118
岔路南经基督教堂,辽宁,沈阳,沈阳,024,,于洪区,岔边线,景点,宗教,123.185753,41.865063
兴国念佛堂,辽宁,沈阳,沈阳,024,,于洪区,沈胡路爱过家园爱过村,景点,宗教,123.227054,41.829394
北陵基督教,辽宁,沈阳,沈阳,024,,国奥现代城,千山西路8-4号,景点,宗教,123.409706,41.878185
三山梅花鹿园,辽宁,沈阳,沈阳,024,89286633,于洪区,沈于线与青三线交汇处南行100米,景点,更多景点/周边游,123.293728,41.97574
澳瑞展示中心,辽宁,沈阳,法库县,024,,法库县其他,兴工街东50米,景点,展览馆,123.399635,42.490532
叶茂台辽墓,辽宁,沈阳,法库县,024,25553725,法库县其他,叶茂台村西北山岗,景点,古代遗迹,122.863205,42.326683
石佛寺水库,辽宁,沈阳,法库县,024,,法库县其他,沈康高速,景点,宗教,123.434029,42.172012
二龙山公园,辽宁,沈阳,法库县,024,,法库县其他,吉祥街道兴法路,景点,公园/广场,123.40451,42.511051
秀水河子烈士陵园,辽宁,沈阳,法库县,024,,法库县其他,秀西线,景点,烈士陵园,123.042218,42.359484
金星书画苑,辽宁,沈阳,法库县,024,136****7065,法库县其他,兴法路200号,景点,美术馆,123.407991,42.503451
财宫,辽宁,沈阳,法库县,024,,法库县其他,203国道,景点,宗教,123.34613,42.403164
二龙山烈士陵园,辽宁,沈阳,法库县,024,,法库县其他,兴法路206号,景点,烈士陵园,123.405845,42.51097
桃山,辽宁,沈阳,法库县,024,,法库县其他,孟家镇203国道,景点,自然风光,123.433571,42.531818
法库基督教堂,辽宁,沈阳,法库县,024,,法库县其他,101国道附近,景点,宗教,123.121552,42.290909
猫五爷庙,辽宁,沈阳,法库县,024,,法库县其他,105省道,景点,宗教,123.644691,42.601837
小城子森林公园,辽宁,沈阳,康平县,024,,康平县其他,小城子镇政府南侧,景点,森林公园,123.208412,42.888191
康平基督爱教堂,辽宁,沈阳,康平县,024,,中心街,中心街,景点,宗教,123.35878,42.717709
卧龙湖,辽宁,沈阳,康平县,024,,康平县其他,顺山路与滨湖一街交叉口西北400米,景点,自然风光,123.322243,42.740582
海印禅寺,辽宁,沈阳,康平县,024,,康平县其他,西岭街,景点,宗教,123.335609,42.741344
康平基督教堂,辽宁,沈阳,康平县,024,,康平县其他,303省道北100米,景点,宗教,123.172554,42.774414
三宝宫,辽宁,沈阳,康平县,024,132****3949,中心街,中心街289号,景点,历史建筑,123.35276,42.746658
草地自然保护区,辽宁,沈阳,康平县,024,,康平县其他,303省道,景点,自然风光,122.852264,42.662014
中国青年旅行社,辽宁,沈阳,辽中区,024,87825168,北一路,北一路55号,景点,旅行社,122.738172,41.512034
辽中基督教堂,辽宁,沈阳,辽中区,024,,辽中区其他,木四路,景点,宗教,122.92321,41.608044
东关屯文化中心,辽宁,沈阳,康平县,024,,康平县其他,203国道东50米,景点,展览馆,123.360878,42.701759
小城子遗址,辽宁,沈阳,康平县,024,,康平县其他,彰桓线,景点,古代遗迹,123.599281,42.656033
卡力马天主堂,辽宁,沈阳,辽中区,024,,辽中区其他,133县道,景点,宗教,122.680237,41.534439
和顺南无观世音菩萨,辽宁,沈阳,辽中区,024,27796118;31701670,北一路,土产巷39号,景点,人文古迹,122.736458,41.516174
三清观,辽宁,沈阳,辽中区,024,,辽中区其他,潘乌公路中国信合(杨士岗信用社)东北侧约230米,景点,宗教,122.995583,41.695126
杨黄线基督教堂,辽宁,沈阳,辽中区,024,,辽中区其他,杨黄线,景点,宗教,123.042603,41.637421
冷后教堂,辽宁,沈阳,辽中区,024,,辽中区其他,十大线辽中区冷子堡九年一贯制学校东侧约130米,景点,宗教,122.798012,41.70303
油田运达旅行社,辽宁,沈阳,辽中区,024,,辽中区其他,大庆路,景点,旅行社,122.905841,41.522951
满部户文化古镇展览馆,辽宁,沈阳,辽中区,024,,辽中区其他,106省道西50米,景点,展览馆,122.640793,41.604652
谢荣策烈士陵园,辽宁,沈阳,辽中区,024,,辽中区其他,茨荣街9号,景点,烈士陵园,122.87426,41.518597
八委游园,辽宁,沈阳,辽中区,024,,辽中区其他,蒲西街道东环街与南二路交叉口西北100米,景点,公园/广场,122.736931,41.508301
海外国际旅行社,辽宁,沈阳,辽中区,024,88646988,北一路,政府路80号辽中移动公司,景点,旅行社,122.739339,41.51054
东湖公园,辽宁,沈阳,辽中区,024,,辽中区其他,滨水路与蒲杨街交叉路口往南约230米,景点,公园/广场,122.784441,41.510751
蒲河国家湿地公园,辽宁,沈阳,辽中区,024,27880311,辽中区其他,蒲东街西100米,景点,自然风光,122.751579,41.505157
永吉古寺,辽宁,沈阳,辽中区,024,87861633,辽中区其他,外环路,景点,宗教,122.766365,41.5037
长胜公园,辽宁,沈阳,辽中区,024,,辽中区其他,茨榆大街,景点,公园/广场,122.908989,41.52507
近海绿洲,辽宁,沈阳,辽中区,024,,北一路,蒲河大桥西头,景点,公园/广场,122.750702,41.515903
腰街清真寺,辽宁,沈阳,辽中区,024,,辽中区其他,106省道,景点,宗教,122.650513,41.649815
经纬客运有限公司旅游,辽宁,沈阳,沈阳,024,66605783;25739989,重工街沿线,重工南街132巷长客西站,景点,旅行社,123.323137,41.780407
西中岛旅程天下,辽宁,沈阳,沈阳,024,31400806,奉天街沿线,奉天街346号格林自由城B座3楼,景点,旅行社,123.441963,41.808071
沈阳建业旅行社有限公司,辽宁,沈阳,沈阳,024,88610357,铁西广场,建设中路铁西广场第一商城A1210,景点,旅行社,123.369559,41.793709
银狐旅行社,辽宁,沈阳,沈阳,024,89100099,五爱市场,风雨坛街138号奉天1号大厦1016室,景点,旅行社,123.443626,41.783806
启顺旅行社,辽宁,沈阳,沈阳,024,23929979,北站/市府,北三经街10号北市商务大厦,景点,旅行社,123.427757,41.805635
中国青年旅行社,辽宁,沈阳,沈阳,024,138****5861;139****0947,南市/马路湾,北四经街28号,景点,旅行社,123.422272,41.793411
七星山骑士山庄,辽宁,沈阳,沈阳,024,139****2022,沈北新区,石佛寺乡沙岗子村,景点,更多景点/周边游,123.343086,42.139675
中国旅行社,辽宁,沈阳,沈阳,024,86083960,北行/辽大,长江街北行海丽德B座,景点,旅行社,123.411936,41.82845
护国广慈寺,辽宁,沈阳,沈阳,024,,文艺路/文化路,南塔街护国广慈寺,景点,宗教,123.451729,41.766426
辽宁海峡国际旅行社,辽宁,沈阳,沈阳,024,151****0915,太原街,中山路111号亚贸大厦1320号,景点,旅行社,123.414276,41.797165
康辉国际旅行社营业部,辽宁,沈阳,沈阳,024,,苏家屯区政府,枫杨路78房产大厦8层,景点,旅行社,123.345627,41.661497
沈铁国际旅行社集团,辽宁,沈阳,沈阳,024,23853303,南市/马路湾,和平南大街18甲2号,景点,旅行社,123.409882,41.786072
乐游国际旅行社公司,辽宁,沈阳,沈阳,024,,浑南新区,朗云街1-88号15门,景点,旅行社,123.47973,41.74583
金运之旅,辽宁,沈阳,沈阳,024,31316702,兴工街/沈阳站西广场,金牛家乐福,景点,旅行社,123.385932,41.802308
沈阳爱旅商务服务有限公司,辽宁,沈阳,沈阳,024,87502222,东中街,珠林路88号6门,景点,旅行社,123.484636,41.809535
中国旅行社,辽宁,沈阳,沈阳,024,,太原街,胜利大街,景点,旅行社,123.394507,41.793147
红枫旅行社,辽宁,沈阳,沈阳,024,31675817,奉天街沿线,南文会街22号西南50米,景点,旅行社,123.429811,41.787931
辽宁康辉国际旅行社,辽宁,沈阳,沈阳,024,31302588,五爱市场,先农坛路与热闹路交叉口西50米,景点,旅行社,123.463854,41.787281
辽宁园林国际旅行社,辽宁,沈阳,沈阳,024,,南湖公园/三好街,文化路45号机电装备大厦806室,景点,旅行社,123.429201,41.771001
劳模园,辽宁,沈阳,沈阳,024,,重工街沿线,南十二西路与南十二西路21巷交汇处东北100米,景点,公园/广场,123.329361,41.790543
兴农合作社旧址,辽宁,沈阳,沈阳,024,,南市/马路湾,和平南大街43号,景点,古代遗迹,123.407745,41.782467
推驴网,辽宁,沈阳,沈阳,024,31595123,北行/辽大,长江街134号,景点,旅行社,123.411619,41.834235
大民屯镇文化广场,辽宁,沈阳,新民市,024,,新民市其他,102国道,景点,广场,122.952545,41.85936
园林景观,辽宁,沈阳,沈阳,024,136****1969,东陵路/沈阳农业大学,高官台街天达异型玻璃厂底商,景点,宗教,123.53669,41.820747
沈阳市苏家屯区清真寺,辽宁,沈阳,沈阳,024,,苏家屯客运站,迎春街46号,景点,宗教,123.336685,41.676762
浑南区（沈阳高新区）规划展示馆,辽宁,沈阳,沈阳,024,83790099,新市府,莫子山路1号（莫子山公园、国际会议中心）,景点,陈列馆,123.481895,41.670284
中国旅行社总社,辽宁,沈阳,沈阳,024,31685699,沈辽路万达,兴华街道南七东路29号4门附近,景点,旅行社,123.369444,41.789454
辽宁和平国际旅行社,辽宁,沈阳,沈阳,024,62808900;22504688,北站/市府,北站邮政大厦820室,景点,旅行社,123.434661,41.816041
国际旅行社,辽宁,沈阳,沈阳,024,139****2572,滑翔小区,沈辽东路47号-1号2门,景点,旅行社,123.370909,41.781845
金土地旅行社,辽宁,沈阳,沈阳,024,130****4772,东中街,小东路金茂国际公寓12楼1215,景点,旅行社,123.464936,41.801112
康辉旅游,辽宁,沈阳,沈阳,024,31098298,南湖公园/三好街,文化路19号金科大厦1楼,景点,旅行社,123.426274,41.771364
常荫槐公馆,辽宁,沈阳,沈阳,024,,大东广场,天后宫路万寿巷5号,景点,人文古迹,123.458633,41.809578
朝鲜族北行基督教会,辽宁,沈阳,沈阳,024,,皇姑区,长江街25号皇姑综合楼,景点,宗教,123.412834,41.820091
滑草场,辽宁,沈阳,沈阳,024,,沈北新区,阎家沟村,景点,更多景点/周边游,123.64164,42.063732
浑河晚渡公园,辽宁,沈阳,沈阳,024,,于洪新城,城东湖街道阳光路20号,景点,公园/广场,123.354675,41.746719
基督教北关教会,辽宁,沈阳,沈阳,024,,大东广场,大北关街58甲,景点,宗教,123.468881,41.817451
基督教崇山赐福教会,辽宁,沈阳,沈阳,024,,陵东,鸭绿江街41号附近,景点,宗教,123.457378,41.842106
基督教皇姑教会,辽宁,沈阳,沈阳,024,,皇姑区,步云山路26巷72号,景点,宗教,123.409592,41.813705
美协鲁园艺术馆,辽宁,沈阳,沈阳,024,,南湖公园/三好街,南湖街道三好街2-1号,景点,美术馆,123.42701,41.779007
南塔基督教会,辽宁,沈阳,沈阳,024,,浑南新区,五三街道长青南街15-1号北2门,景点,宗教,123.501763,41.749073
松山基督教会,辽宁,沈阳,沈阳,024,,国奥现代城,赤山路16-1号7门,景点,宗教,123.406555,41.872965
塔湾基督教会,辽宁,沈阳,沈阳,024,,塔湾,峨眉山路48-2号4门,景点,宗教,123.38652,41.827522
塔湾园,辽宁,沈阳,沈阳,024,,塔湾,淮河街45号附近,景点,公园/广场,123.387344,41.837605
卧龙禅寺,辽宁,沈阳,沈阳,024,89758143,沈北新区,清水台镇怪坡风景区,景点,宗教,123.637383,42.064339
怡兴园,辽宁,沈阳,辽中区,024,,北一路,政府路与东环街交汇东侧,景点,公园/广场,122.73877,41.510635
珍珠湖湿地自然保护区,辽宁,沈阳,新民市,024,,新民市其他,刘二堡镇三道沟,景点,自然风光,122.885651,41.743847
圣火广场,辽宁,沈阳,沈阳,024,,浑南新区,五三街道富民南街与浑南中路交汇,景点,广场,123.473606,41.740227
辽宁康辉国际旅行社,辽宁,沈阳,沈阳,024,,于洪广场,黄海路34号,景点,旅行社,123.303408,41.79456
海外国际旅行社,辽宁,沈阳,沈阳,024,,浑南新区,金卡路16号华润万家浑南中店2层,景点,旅行社,123.46574,41.73693
学城路基督教堂,辽宁,沈阳,沈阳,024,,浑南新区,学城路11号,景点,宗教,123.512367,41.749367
弥陀寺,辽宁,沈阳,沈阳,024,,浑南新区,塔东路9号,景点,宗教,123.425593,41.691501
沈阳国旅,辽宁,沈阳,沈阳,024,,浑南新区,营祝线,景点,旅行社,123.518478,41.702808
白塔公园,辽宁,沈阳,沈阳,024,,浑南新区,白塔街道白塔堡白塔街与高深西路交叉口西北角,景点,公园/广场,123.425308,41.693958
辽宁国际商务旅行社,辽宁,沈阳,沈阳,024,86234957,太原街,太原街街道温州城A5座1605室,景点,旅行社,123.394345,41.790352
格林天沐旅程天下,辽宁,沈阳,新民市,024,88617170;158****1328,新民市其他,兴隆堡镇,景点,旅行社,123.071412,41.914657
广福寺,辽宁,沈阳,沈阳,024,,苏家屯区,白清姚千街道广福路50号,景点,宗教,123.737694,41.592344
北市场,辽宁,沈阳,沈阳,024,22734736,西塔/北市场,北市场庙会,景点,步行街,123.428162,41.806305
沈阳城市记忆博物馆,辽宁,沈阳,沈阳,024,189****2663,北站/市府,北三经街与皇寺路交叉口西北50米,景点,博物馆,123.428065,41.806624
顺风旅行社,辽宁,沈阳,沈阳,024,138****9659,北站/市府,青年大街51号商会总部大厦11楼,景点,旅行社,123.432718,41.795728
名流旅行社,辽宁,沈阳,沈阳,024,138****5501,北行/辽大,长江南街3号韩国新城,景点,旅行社,123.413429,41.814312
银狐旅行社,辽宁,沈阳,沈阳,024,31523850;31200652,北陵,长江街126号铭仕之都1216室,景点,旅行社,123.41201,41.830734
辽宁国际商务,辽宁,沈阳,沈阳,024,31935967,辽宁大学南校区,中乾大厦A座1105室,景点,旅行社,123.395317,41.832073
辽宁国际商务,辽宁,沈阳,沈阳,024,31935967,北站/市府,北站街道北站路146号嘉兴国际大厦,景点,旅行社,123.443814,41.820234
金土地旅行社,辽宁,沈阳,沈阳,024,88618958;188****9242,南市/马路湾,十一纬路169号1-30-9室,景点,旅行社,123.431285,41.791655
金飞马旅行社,辽宁,沈阳,沈阳,024,24841345,大东广场,广宜街21号明城国际1319室,景点,旅行社,123.44959,41.805808
新时代旅行社,辽宁,沈阳,沈阳,024,138****9659,太原街,民族南街66-3号,景点,旅行社,123.397336,41.788266
鑫欣基督教会,辽宁,沈阳,沈阳,024,31833319,正良,正良四路15号16门,景点,宗教,123.390808,41.915867
中国国旅,辽宁,沈阳,沈阳,024,,重工街沿线,建设西路18-17号龙之梦大都汇B1层海外国旅旁边,景点,旅行社,123.347379,41.803129
沈阳乐游国际旅行社,辽宁,沈阳,沈阳,024,31595255,太原街,和平北大街光大大厦12层,景点,旅行社,123.416223,41.793397
宝石花旅行社,辽宁,沈阳,沈阳,024,25527799,文艺路/文化路,南塔街101号610室,景点,旅行社,123.450032,41.764692
勇林顺,辽宁,沈阳,沈阳,024,186****0285,东中街,津桥路7-1号,景点,旅行社,123.46789,41.803443
辽宁中医药大学-博物馆,辽宁,沈阳,沈阳,024,31207190,北陵,崇山东路79号,景点,博物馆,123.433022,41.832062
孙中山纪念馆,辽宁,沈阳,沈阳,024,,南市/马路湾,中山公园内,景点,纪念馆,123.406845,41.786175
中央公园,辽宁,沈阳,沈阳,024,,新市府,白塔街道全运四路附近,景点,公园/广场,123.456001,41.667961
辽宁满运清风国际旅行社,辽宁,沈阳,沈阳,024,155****7726,北站/市府,北站路146号嘉兴国际大厦1409室,景点,旅行社,123.443855,41.820194
桓仁假日风景旅行社,辽宁,沈阳,沈阳,024,22598179,北站/市府,团结路一号楼22楼7号,景点,旅行社,123.432318,41.813179
乐淘国际旅行社,辽宁,沈阳,沈阳,024,,于洪广场,依云首府北门,景点,旅行社,123.303401,41.793831
浑河森林公园,辽宁,沈阳,沈阳,024,,浑南区,浑河桥抚顺市清原县湾甸子镇,景点,自然风光,123.727631,41.923355
平安金融集团旅行部――导游姜龙,辽宁,沈阳,沈阳,024,186****1075,东陵路/沈阳农业大学,东陵路天柱山庄,景点,旅行社,123.58692,41.82625
普吉岛温泉,辽宁,沈阳,沈阳,024,88552555,大东广场,中街北苑斜对紧邻香月湾,景点,温泉,123.461095,41.80755
名流旅行社,辽宁,沈阳,沈阳,024,62883471;31200652,南市/马路湾,和平北大街69号总统大厦A座12楼,景点,旅行社,123.416819,41.793999
关帝庙,辽宁,沈阳,沈阳,024,,中街/故宫,朝阳街帅府巷大帅府内,景点,宗教,123.458541,41.795031
七宝池温泉,辽宁,沈阳,沈阳,024,,滑翔小区,沈辽路与凌空二街交叉口,景点,温泉,123.378838,41.781673
福卡斯旅行社总部,辽宁,沈阳,沈阳,024,138****1815,中街/故宫,北中街路中街上乘1栋907室,景点,旅行社,123.45878,41.80306
香格里拉梦公园,辽宁,沈阳,沈阳,024,,沈北新区,蒲北路,景点,公园/广场,123.613293,41.926377
望海寺山,辽宁,沈阳,法库县,024,,法库县其他,望海寺森林公园,景点,景点/周边游,123.419792,42.4855
浑河西峡谷,辽宁,沈阳,沈阳,024,,苏家屯区,沈水街道大堤路,景点,自然风光,123.234512,41.690071
国家森林公园旅行社,辽宁,沈阳,沈阳,024,31585881,沈北新区,国家森林公园内,景点,旅行社,123.727365,42.042642
地藏寺,辽宁,沈阳,沈阳,024,,苏家屯区,大沟乡三块石景区内,景点,宗教,123.453445,41.480392
沈阳同乐相声大会,辽宁,沈阳,沈阳,024,25427699,云峰街,建设大路云峰街同一首歌四楼小剧场,景点,旅游项目/观光项目,123.376656,41.791885
五里河公园,辽宁,沈阳,沈阳,024,,浑南新区,南塔街道沈水路（近富民街）,景点,公园/广场,123.468102,41.757286
祥瑞国际旅行社,辽宁,沈阳,沈阳,024,83831010;83832020,浑南新区,朗云街6-66号2-3号,景点,旅行社,123.476591,41.745633
旅程天下国际旅行社,辽宁,沈阳,沈阳,024,88617170;158****1328,北一路万达,北一中路铁路光明新村4号楼2单元1103,景点,旅行社,123.394104,41.812801
战友旅行社,辽宁,沈阳,沈阳,024,86083239,东中街,小东路9号,景点,旅行社,123.470372,41.802483
人体科学展览馆,辽宁,沈阳,沈阳,024,62215620,沈阳医学院,黄河北大街医学院,景点,展览馆,123.410332,41.890102
辽宁和平国际旅行社,辽宁,沈阳,沈阳,024,,南市/马路湾,十四纬路17号,景点,旅行社,123.42679,41.78303
沈阳国宾旅行社有限公司,辽宁,沈阳,沈阳,024,88609191,于洪广场,黄海路富禹大厦B座1006室,景点,旅行社,123.303131,41.79398
奉达公园,辽宁,沈阳,沈阳,024,,张士开发区,昆明湖街奉达公园,景点,公园/广场,123.29348,41.770042
宣和艺术馆,辽宁,沈阳,沈阳,024,22595683,北站/市府,哈尔滨路118号华府天地购物中心一期一楼,景点,美术馆,123.433159,41.811508
世博国际旅行社,辽宁,沈阳,沈阳,024,31685488,大东广场,辽沈一街15-3号4号门,景点,旅行社,123.475497,41.816907
欧洲风情主题浪漫温泉度假酒店,辽宁,沈阳,新民市,024,135****2248,美国郡温泉小区,兴隆堡美国郡温泉度假小镇,景点,温泉,123.08728,41.916199
国宾旅行社,辽宁,沈阳,沈阳,024,159****1778;186****8833,重工街沿线,富工二街68号111室,景点,旅行社,123.331817,41.794969
凯撒旅游,辽宁,沈阳,沈阳,024,22795860;22795865,北站/市府,北京街7-1号卓展购物中心F6层,景点,旅行社,123.433189,41.807655
鞍山飞龙康乐园温泉酒店,辽宁,沈阳,沈阳,024,,云峰街,建设东路43号和谐大厦B座,景点,温泉,123.379295,41.790058
方家栏公园,辽宁,沈阳,沈阳,024,,长青街,方家栏路20号,景点,公园/广场,123.492195,41.775311
沈阳海外旅行社,辽宁,沈阳,沈阳,024,4000246677,浑南新区,奥体万达广场2层2065A,景点,旅行社,123.460582,41.735402
康辉旅游,辽宁,沈阳,沈阳,024,,南市/马路湾,北三经街26,景点,旅行社,123.424622,41.796222
展览馆（卓每)店西1-1006,辽宁,沈阳,沈阳,024,23944330,南湖公园/三好街,彩塔街38号工业展览馆,景点,博物馆,123.432619,41.773159
沈阳金旅旅行社,辽宁,沈阳,沈阳,024,139****6178,保工街,南十二路27-8门,景点,旅行社,123.347572,41.786411
1939野战主题公园,辽宁,沈阳,沈阳,024,,浑南区,棋盘山风景区,景点,公园/广场,123.674846,41.925336
苏家屯区城市规划馆,辽宁,沈阳,沈阳,024,,苏家屯区,沈水街道,景点,博物馆,123.291689,41.673076
沈阳小南天主教堂,辽宁,沈阳,沈阳,024,,五爱市场,小南街南乐郊路40号（近小南街）,景点,宗教,123.452728,41.78965
金土地旅行社,辽宁,沈阳,沈阳,024,130****4772,太原街,万达新天地天籁座23楼,景点,旅行社,123.401526,41.788421
青旅,辽宁,沈阳,沈阳,024,88618255,西塔/北市场,市府大路187号3号门市,景点,旅行社,123.421939,41.802109
中国青年旅行社,辽宁,沈阳,沈阳,024,138****8531,太原街,太原街90号商贸国际B座1812室,景点,旅行社,123.397329,41.788099
招商国旅出国游服务大厅,辽宁,沈阳,沈阳,024,,南市/马路湾,4纬路美国领事馆对面,景点,旅行社,123.42679,41.783028
太原街,辽宁,沈阳,沈阳,024,,太原街,天津南街16号城开中心1号楼2224室,景点,观光街区,123.399527,41.788756
沈阳国际旅行社,辽宁,沈阳,沈阳,024,152****2521,北站/市府,朱剪炉街道市府大路290号摩根凯利大厦A座301室,景点,旅行社,123.440247,41.805581
塔湾兴顺夜市,辽宁,沈阳,沈阳,024,86586666,明廉,"明廉街道明廉路8号（食品公司公交站,老鸭坊旁边）",景点,夜市,123.369952,41.824519
往日时光单车滑雪俱乐部,辽宁,沈阳,沈阳,024,31990351,大东广场,北海街103号,景点,滑雪场,123.4813,41.822193
天天假期旅行社,辽宁,沈阳,沈阳,024,138****5717;151****1696,太原街,太原街欧亚联营1316,景点,旅行社,123.40564,41.78917
北国国际旅行社,辽宁,沈阳,沈阳,024,88526382,北站/市府,山东堡路11甲2,景点,旅行社,123.442169,41.814049
绥中东戴河,辽宁,沈阳,沈阳,024,31830985,太原街,中山路5号华夏大厦814室,景点,旅行社,123.398003,41.794643
大运通国旅,辽宁,沈阳,沈阳,024,25878705,铁西广场,南七东路29号,景点,旅行社,123.369351,41.789451
爱周边旅行社,辽宁,沈阳,沈阳,024,31292151,北站/市府,奉天街格林自由城24楼,景点,旅行社,123.442034,41.808104
水世界门市,辽宁,沈阳,沈阳,024,,南市/马路湾,北六经街4号一单元6楼,景点,旅行社,123.418069,41.792349
罗曼松鼠湾,辽宁,沈阳,沈阳,024,25857777,艳粉地区,路官二街6-4号,景点,自然景观,123.338554,41.775436
诗波特文化园,辽宁,沈阳,沈阳,024,89734402,道义,道义经济开发区正义四路12号,景点,展览馆,123.405792,41.920353
沈阳世界温泉部落,辽宁,沈阳,新民市,024,,新民市其他,丹霍线教师新村东侧约220米,景点,温泉,123.083691,41.913601
新大陆建筑设计有限公司,辽宁,沈阳,沈阳,024,23895599,浑南新区,新隆街2甲号101号,景点,旅行社,123.456148,41.72069
釜山温泉,辽宁,沈阳,沈阳,024,31264818,浑南新区,沈营大街17-13甲-59门,景点,温泉,123.441411,41.724095
西中岛2日游,辽宁,沈阳,沈阳,024,,中山广场/医大一院,中山路111号亚贸大厦1233室,景点,旅行社,123.414123,41.797263
宏亿皇寺艺术馆,辽宁,沈阳,沈阳,024,,西塔/北市场,皇寺路99号,景点,纪念馆,123.427017,41.806583
辽宁国际商务旅行社,辽宁,沈阳,沈阳,024,25656897,北行/辽大,长江街皇姑商务大厦10层,景点,旅行社,123.413388,41.819788
怪坡风景区++太岁馆+迷宫+兵马俑场馆,辽宁,沈阳,沈阳,024,62579664,北站/市府,奉天街格林自由城B座309,景点,旅行社,123.441926,41.808207
辽宁省中国青年旅行社,辽宁,沈阳,新民市,024,27629877;138****5077,新民市其他,京哈公路大民屯综合市场,景点,旅行社,122.961137,41.858567
白清寨乡,辽宁,沈阳,沈阳,024,,苏家屯区,白清寨乡广福路200号,景点,人文古迹,123.684181,41.577183
沈阳葡萄采摘一日游,辽宁,沈阳,沈阳,024,88617170;88610192,苏家屯区,大沟乡大洼村,景点,旅行社,123.470975,41.473882
长白山一日游,辽宁,沈阳,沈阳,024,62420831,北站/市府,山东堡路,景点,旅行社,123.44366,41.813595
沈阳国际旅行社,辽宁,沈阳,沈阳,024,31338944;31338933,正良,道义南大街10-11号11门,景点,旅行社,123.406768,41.910168
皇姑屯事件博物馆,辽宁,沈阳,沈阳,024,31137791,小白楼,天山路207号,景点,博物馆,123.38925,41.81652
山门寺,辽宁,沈阳,沈阳,024,,南湖公园/三好街,和平南大街130号,景点,宗教,123.400711,41.762314
长白山国际旅行社,辽宁,沈阳,沈阳,024,,南市/马路湾,十一纬路51号皇城公寓,景点,旅行社,123.42227,41.789473
康辉旅游,辽宁,沈阳,沈阳,024,,于洪新城,吉力湖街206-4号门,景点,旅行社,123.340192,41.766114
水上步行,辽宁,沈阳,沈阳,024,,北陵,泰山路12号北陵公园内,景点,步行街,123.429085,41.844437
沈阳中国旅行社总社,辽宁,沈阳,沈阳,024,31932262,北行/辽大,北陵大街20号甲鸿阳大厦703,景点,旅行社,123.428682,41.821738
金汇・温泉雅苑,辽宁,沈阳,新民市,024,62969999,新民市其他,蒲河路29号,景点,温泉,123.072914,41.783123
万科四季花城・中央公园,辽宁,沈阳,沈阳,024,,万科四季花城,西江街1099号,景点,公园/广场,123.391201,41.852681
卡汶之家艺术馆,辽宁,沈阳,沈阳,024,,北站/市府,铁岭路132号,景点,美术馆,123.43119,41.807922
沈阳国际旅行社,辽宁,沈阳,沈阳,024,88613942,小北,小北关街十号甲沈阳国旅,景点,旅行社,123.451877,41.811297
东关教堂,辽宁,沈阳,沈阳,024,24338975,东中街,东顺城街三自巷8号,景点,宗教,123.465546,41.798283
大运通国旅,辽宁,沈阳,沈阳,024,82973984,中街/故宫,南顺城路老刘野生大鱼坊对面,景点,旅行社,123.46494,41.792345
慈航普度,辽宁,沈阳,沈阳,024,156****6053,于洪广场,洪湖街15-1号,景点,人文古迹,123.311481,41.797691
辽宁光大国际旅行社,辽宁,沈阳,辽中区,024,87882353,北一路,中心街120号,景点,旅行社,122.730456,41.514696
善缘佛堂,辽宁,沈阳,沈阳,024,62696069,劳动公园,赞工街勋业四路76号楼,景点,宗教,123.330933,41.781967
康辉旅游,辽宁,沈阳,沈阳,024,186****7276,东陵路/沈阳农业大学,新宁街16号5门,景点,旅行社,123.534829,41.809966
康辉旅游,辽宁,沈阳,沈阳,024,,铁西广场,北三中路君临天下西区,景点,旅行社,123.373506,41.801504
中国国旅（辽宁）国际旅行社,辽宁,沈阳,新民市,024,,新民市中心城区,沿河路与站前大街交叉口西南150米,景点,旅行社,122.828723,41.988389
世纪国际旅行社,辽宁,沈阳,沈阳,024,,铁西区,沈辽路爱购超市旁,景点,旅行社,123.153076,41.696804
旅客暂休室,辽宁,沈阳,沈阳,024,,太原街,胜利南街2号沈阳站F1层,景点,旅行社,123.393357,41.792593
辽宁海峡国际旅行社,辽宁,沈阳,沈阳,024,153****9489,重工街沿线,南十西路与重工南街交叉口西100米,景点,旅行社,123.325663,41.794403
中国国旅,辽宁,沈阳,沈阳,024,187****3300,兴工街/沈阳站西广场,北三东路4号2门,景点,旅行社,123.385756,41.793395
辽宁康辉国际店旅行社,辽宁,沈阳,沈阳,024,,塔湾,昆山西路108号,景点,旅行社,123.378038,41.828228
沈阳青旅,辽宁,沈阳,沈阳,024,,保工街,南八中路保工街乐购超市一楼电梯出口处,景点,旅行社,123.350575,41.793725
紫竹林观,辽宁,沈阳,沈阳,024,139****1311,文艺路/文化路,大南街285-2号,景点,景点/周边游,123.459421,41.781191
辽宁康辉国际旅行社,辽宁,沈阳,沈阳,024,66695799,皇姑屯,华山路109号,景点,旅行社,123.395105,41.82189
工人村街道文化活动中心,辽宁,沈阳,沈阳,024,,重工街沿线,南十一西路57-1号4门,景点,展览馆,123.322848,41.793398
康辉旅游,辽宁,沈阳,沈阳,024,,浑南新区,朗日街维格旁,景点,旅行社,123.48952,41.745009
康辉旅游,辽宁,沈阳,沈阳,024,88731411,大东广场,中学堂路与小什字街交叉口东70米路南,景点,旅行社,123.471769,41.809316
辽宁海外国际旅行社,辽宁,沈阳,沈阳,024,66792362,东陵路/沈阳农业大学,新泰街26-2号,景点,旅行社,123.531867,41.801958
中国国旅,辽宁,沈阳,沈阳,024,152****8266,铁西广场,云峰北街34-14号3门,景点,旅行社,123.37789,41.79914
中国旅行社,辽宁,沈阳,沈阳,024,89129108,苏家屯区政府,迎春街135号9门,景点,旅行社,123.337984,41.658444
清初四塔,辽宁,沈阳,沈阳,024,,西塔/北市场,北市场街道敦化一路55-2号,景点,人文古迹,123.408607,41.805073
东岳泰山旅行社,辽宁,沈阳,沈阳,024,,北二路,兴华北路30号千缘・新财富大厦24层2403室,景点,旅行社,123.377937,41.804787
金运之旅沈阳市海外国际旅行社,辽宁,沈阳,沈阳,024,,浑南新区,沈水路600号家乐福超市富民桥店1层,景点,旅行社,123.47283,41.75958
沈阳（国家）数字艺术创意产业基地,辽宁,沈阳,沈阳,024,,辉山,竞业街西100米,景点,创意园区,123.573463,41.927444
青年国际旅行社,辽宁,沈阳,沈阳,024,,苏家屯客运站,月季街3号附近,景点,旅行社,123.338022,41.658612
康辉国际旅行社,辽宁,沈阳,沈阳,024,,国奥现代城,松山西路52号10门,景点,旅行社,123.403271,41.869101
中国国旅,辽宁,沈阳,沈阳,024,31312626,龙江广场,昆山中路2号2门,景点,旅行社,123.428386,41.819216
南源旅社,辽宁,沈阳,沈阳,024,23712358,和平区,迎春北街21号,景点,旅行社,123.350111,41.702521
沈阳市海外国际旅行社,辽宁,沈阳,沈阳,024,,长白岛,南京南街201号大润发超市长白店1层,景点,旅行社,123.402723,41.745113
康辉国际旅行社,辽宁,沈阳,沈阳,024,24856677,中街/故宫,朝阳街238号科隆酒店1楼,景点,旅行社,123.459846,41.794617
光大国际旅行社,辽宁,沈阳,沈阳,024,,西塔/北市场,南京北街109号和泰・运恒国际A座12层1213室,景点,旅行社,123.412716,41.799136
康辉旅游公司,辽宁,沈阳,沈阳,024,,北陵,北陵大街51号,景点,旅行社,123.429096,41.838386
苏家屯区烈士陵园,辽宁,沈阳,沈阳,024,,苏家屯区,蛇山村附近,景点,烈士陵园,123.46727,41.546497
沈阳青旅,辽宁,沈阳,新民市,024,139****3337,新民市中心城区,迎宾路8号,景点,旅行社,122.825768,41.996042
康辉国际旅行社,辽宁,沈阳,沈阳,024,,长白岛,长白岛维华商场1楼,景点,旅行社,123.400821,41.744013
康辉旅游超市,辽宁,沈阳,沈阳,024,,西塔/北市场,政府大路168号华姿国际大厦15层D-15-2,景点,旅行社,123.422475,41.802735
马刚烈士陵园,辽宁,沈阳,沈阳,024,,沈北新区,十大线北50米,景点,烈士陵园,123.690819,41.990944
金运之旅铁西区建设东路门市祁部,辽宁,沈阳,沈阳,024,88642788,兴工街/沈阳站西广场,建设东路35号2门假日国际大厦1层,景点,旅行社,123.379902,41.789822
康辉旅游,辽宁,沈阳,康平县,024,87345017,中心街,中心路63号,景点,旅行社,123.34908,42.73994
辽宁省中国青年旅行社,辽宁,沈阳,沈阳,024,138****0028,中街/故宫,北顺城路11号-14,景点,旅行社,123.451055,41.804765
国际会议中心,辽宁,沈阳,沈阳,024,,张士开发区,沈阳经济技术开发区花海路28号附近,景点,景点/周边游,123.294136,41.768978
中海广场,辽宁,沈阳,沈阳,024,86486666,塔湾,塔湾街11号,景点,公园/广场,123.37529,41.826523
金运之旅,辽宁,沈阳,沈阳,024,,南市/马路湾,和平北大街63号,景点,旅行社,123.416921,41.794621
盛京旅游,辽宁,沈阳,辽中区,024,31708822,北一路,北一路老转盘西教师学校对面,景点,旅行社,122.727057,41.515121
海航乐游,辽宁,沈阳,沈阳,024,22842188,北站/市府,府大路189号,景点,旅行社,123.427552,41.80509
多米尼克艺术馆,辽宁,沈阳,沈阳,024,,西塔/北市场,市府大路188号萃兮华都购物中心F7层,景点,美术馆,123.423149,41.80547
鸥足良道原汤温泉,辽宁,沈阳,沈阳,024,25873320,兴工街/沈阳站西广场,兴工街沈辽东路14号,景点,温泉,123.380069,41.782203
沈阳市运通旅行社,辽宁,沈阳,康平县,024,,中心街,含光街1-2号附近,景点,旅行社,123.347049,42.72923
南湖公园蝴蝶谷,辽宁,沈阳,沈阳,024,,南湖公园/三好街,南湖公园,景点,公园/广场,123.412804,41.77121
丁香湖公园,辽宁,沈阳,沈阳,024,,丁香湖,造化街道G1京哈高速,景点,公园/广场,123.33094,41.848679
辽宁海外国际旅行社,辽宁,沈阳,沈阳,024,23662388;24775888,浑南新区,浑南新区三义街8号103栋3单元1楼1号,景点,旅行社,123.450129,41.742461
辽宁天天假期国际旅行社,辽宁,沈阳,沈阳,024,89116116,苏家屯客运站,香柏路5号1-1-1室,景点,旅行社,123.331615,41.661515
康辉国际旅行社,辽宁,沈阳,沈阳,024,28118089,吉祥市场,辽沈二街2号,景点,旅行社,123.47349,41.8241
北国国际旅行社,辽宁,沈阳,沈阳,024,,北陵,陵东街69号,景点,旅行社,123.442678,41.838228
中国国旅,辽宁,沈阳,沈阳,024,152****2521,北站/市府,奉天街346号格林自由成B座15层B15-12A,景点,旅行社,123.441799,41.808219
鲁艺油画雕塑院,辽宁,沈阳,沈阳,024,,荷兰村,松山西路78号附近,景点,美术馆,123.394028,41.868736
康辉旅游,辽宁,沈阳,沈阳,024,,于洪新城,南阳湖街142号5门,景点,旅行社,123.331226,41.750456
国宾旅行社,辽宁,沈阳,沈阳,024,24227251;24227351,长青街,文化东路46号,景点,旅行社,123.470727,41.769177
中国青旅,辽宁,沈阳,沈阳,024,,长白岛,长白三街6号附近,景点,旅行社,123.39104,41.746166
沈阳青年国际旅行社,辽宁,沈阳,沈阳,024,88484902,黎明广场,善邻路96-3号,景点,旅行社,123.506522,41.806292
海外国旅,辽宁,沈阳,沈阳,024,88511199,大东广场,广宜街21号明城国际大厦一层101室,景点,旅行社,123.449349,41.805549
四方蓝天旅行社,辽宁,沈阳,沈阳,024,66788582,苏家屯区政府,丽花街9号附近,景点,旅行社,123.342444,41.666584
韩国城南园,辽宁,沈阳,沈阳,024,,世博园,双园路301号沈阳世博园国际展园内,景点,植物园,123.653458,41.867432
中远国际旅行社,辽宁,沈阳,沈阳,024,62670182,苏家屯区政府,翠柏路,景点,旅行社,123.350054,41.668254
紫云宫佛堂,辽宁,沈阳,沈阳,024,139****1509,和泰馨城,沈大路152-8-2门,景点,宗教,123.293953,41.801205
沈阳青年国际旅行社,辽宁,沈阳,沈阳,024,24802728,长青街,先农坛路17巷14号6-1-1室,景点,旅行社,123.467088,41.782088
沈阳青年旅行社,辽宁,沈阳,沈阳,024,136****7918,辉山,阳光温泉花园125-8-6室,景点,旅行社,123.594467,41.920567
腾达航空国际旅行社,辽宁,沈阳,沈阳,024,,北陵,北陵大街49号41栋,景点,旅行社,123.433589,41.840402
辽宁省中国青年旅行社,辽宁,沈阳,沈阳,024,89584660;132****8533,苏家屯客运站,香柏路126附近,景点,旅行社,123.331736,41.661623
鲁苑画廊,辽宁,沈阳,沈阳,024,139****9195,怀远门,沈阳路40巷26号12门,景点,美术馆,123.450546,41.798004
万泉公园,辽宁,沈阳,沈阳,024,31633832,东中街,万泉街1号,景点,公园/广场,123.474876,41.789986
辽宁海外旅行社,辽宁,沈阳,沈阳,024,,南湖公园/三好街,文化路11号,景点,旅行社,123.422503,41.771903
康辉旅游,辽宁,沈阳,沈阳,024,,文艺路/文化路,大南街庆泰皮毛专业店对面,景点,旅行社,123.459094,41.784137
国旅,辽宁,沈阳,沈阳,024,31682581,龙江广场,哈尔滨路67号,景点,旅行社,123.424463,41.811473
辽宁窥海潜水俱乐部,辽宁,沈阳,沈阳,024,186****6060,陵东,金山南路9号东亚翰林世家20号楼2单元21层1室,景点,潜水,123.4496,41.84715
新世纪旅行社,辽宁,沈阳,沈阳,024,,皇姑区,长江街59号三和百货13楼,景点,旅行社,123.413446,41.822246
沈阳青年国际旅行社,辽宁,沈阳,沈阳,024,88619793,中街/故宫,大东路一号东枝花宾馆一楼,景点,旅行社,123.460033,41.794771
七星山,辽宁,沈阳,沈阳,024,,沈北新区,石佛寺乡境内,景点,自然风光,123.334305,42.131638
沈阳奥体冰雪嘉年华,辽宁,沈阳,沈阳,024,31979307;45675558,浑南新区,天坛南街奥体中心广场内,景点,主题乐园,123.463959,41.740499
迎宾馆旅行社,辽宁,沈阳,沈阳,024,22718117,北站/市府,北三经街9号沈阳迎宾馆1层,景点,旅行社,123.42721,41.8009
太公岛渡假村,辽宁,沈阳,辽中区,024,82150066,辽中区其他,三王堡村,景点,旅行社,123.007624,41.695474
国际旅行社,辽宁,沈阳,沈阳,024,31875885,南市/马路湾,和平南大街39号嘉环大厦1、3、15层,景点,旅行社,123.408527,41.783367
国际旅行社,辽宁,沈阳,沈阳,024,152****2521,北站/市府,朱剪炉街道市府大路290号摩根凯利大厦A座20层2005/2006,景点,旅行社,123.440233,41.805833
龙居旅社,辽宁,沈阳,沈阳,024,23511746,新华广场,西安街85号西北靠近派出所,景点,旅行社,123.392234,41.782537
花脖山,辽宁,沈阳,沈阳,024,23852308;23862308,南市/马路湾,中华路121号1917,景点,旅行社,123.41019,41.787672
奇星旅社,辽宁,沈阳,沈阳,024,150****2566,北站/市府,小北关街96号,景点,旅行社,123.45102,41.8135
大石湖,辽宁,沈阳,沈阳,024,23862308,太原街,中华路121号1917（SOHO新天地1917室）大石湖地址：本溪市本溪满族自治县兰河峪乡,景点,旅行社,123.410013,41.787723
康辉国际旅行社,辽宁,沈阳,沈阳,024,151****4997,青年大街,青年大街51号商会总部大厦B座13楼,景点,旅行社,123.4327,41.795662
温泉金水湾,辽宁,沈阳,沈阳,024,,于洪新城,于去织洪区紫郡城15号于二,景点,温泉,123.365343,41.761905
中街,辽宁,沈阳,沈阳,024,4006171252;22818222,中街/故宫,皇城街道,景点,步行街,123.459259,41.800697
金玉温泉管家,辽宁,沈阳,新民市,024,136****0119,美国郡温泉小区,兴隆堡镇美国郡东门,景点,温泉,123.089043,41.915962
城隍庙,辽宁,沈阳,沈阳,024,,中街/故宫,豫龙城,景点,宗教,123.454124,41.803699
豫园老街,辽宁,沈阳,沈阳,024,23866987,中街/故宫,中街豫珑城西区一层,景点,步行街,123.456276,41.803665
沈阳故宫,辽宁,沈阳,沈阳,024,24843001,中街/故宫,沈阳路171号,景点,历史建筑,123.45578,41.79707
光大国际旅行社,辽宁,沈阳,沈阳,024,31585880;31830985,南湖公园/三好街,南湖街道三好街华强电子世界-5楼,景点,旅行社,123.427156,41.762566
银狐旅行社,辽宁,沈阳,沈阳,024,31523850;31200652,五里河,文萃路7号,景点,旅行社,123.432244,41.765094
美好时光旅行社,辽宁,沈阳,辽中区,024,,辽中区其他,茨榆大街,景点,旅行社,122.89044,41.51367
棋盘山风景区,辽宁,沈阳,沈阳,024,88050626;88050627,浑南区,棋盘山国际旅游风景区,景点,自然风光,123.648811,41.93029
长白岛足球主题公园,辽宁,沈阳,沈阳,024,,长白岛,沈水湾街道乐岛路12-17号,景点,城市公园,123.41333,41.748581
【沈阳起止】桓仁五女山+桓龙湖+望天洞2日游,辽宁,沈阳,沈阳,024,88610192,北站/市府,奉天街346号格林自由城B座309室,景点,旅行社,123.441801,41.808242
远洋旅行社,辽宁,沈阳,沈阳,024,31329021;31329024,南湖公园/三好街,三好街物产大厦20楼2012室,景点,旅行社,123.426947,41.769157
蒲河岛湿地公园,辽宁,沈阳,新民市,024,,新民市其他,东升堡村,景点,自然风光,123.039848,41.807621
畅游国际旅行社,辽宁,沈阳,沈阳,024,130****1290,于洪新城,汪河路25号B座3门,景点,旅行社,123.363442,41.758061
中国旅行社总社,辽宁,沈阳,沈阳,024,88612077,大东广场,大北关街54号2门3楼,景点,旅行社,123.467164,41.816404
辽宁天天假期国际旅行社,辽宁,沈阳,沈阳,024,4009903887,北行/辽大,长江街133号,景点,旅行社,123.412651,41.828821
客运天天旅行社,辽宁,沈阳,沈阳,024,62883345;62882456,北行/辽大,长江街133号,景点,旅行社,123.412659,41.828846
和平国际旅行社,辽宁,沈阳,沈阳,024,31225586,北站/市府,北京街19-2号汇宝国际公寓C座11楼1106室,景点,旅行社,123.441788,41.812952
满族民俗文化村,辽宁,沈阳,沈阳,024,,浑南区,李相镇化石台村,景点,民俗文化村,123.613699,41.652009
光大国际旅行社,辽宁,沈阳,沈阳,024,31351428,云峰街,云峰北街58号东环国际大厦B座2111室,景点,旅行社,123.37709,41.792369
金运之旅,辽宁,沈阳,沈阳,024,,长青街,文化东路19甲,景点,旅行社,123.465963,41.768243
砂山基督教会,辽宁,沈阳,沈阳,024,62122971,砂山,砂山街69号,景点,宗教,123.381821,41.763023
沈阳日报书画院,辽宁,沈阳,沈阳,024,22690838;22708822,南市/马路湾,北三经街67号,景点,美术馆,123.424881,41.793514
“雨境”体验展,辽宁,沈阳,沈阳,024,,北站/市府,朱剪炉街道卓展购物中心连廊,景点,展览馆,123.433449,41.80888
沈阳星远文化交流有限公司,辽宁,沈阳,沈阳,024,186****6898,南市/马路湾,柳州街21号123室,景点,旅行社,123.416699,41.796817
白沙湾+鲅鱼圈海鲜自助二日游,辽宁,沈阳,沈阳,024,88617170,北站/市府,奉天街格林自由城B座309,景点,旅行社,123.441802,41.808209
龙之梦辛巴达成人票,辽宁,沈阳,沈阳,024,158****8765,北站/市府,奉天街格林自由城B座,景点,旅行社,123.441654,41.808234
抚顺辽沈战役（实景演出）一日游,辽宁,沈阳,沈阳,024,88681010;88609191,于洪广场,于洪广场黄海路47号富禹国际大厦B座,景点,旅行社,123.302751,41.793831
魔都幻境艺术视觉馆,辽宁,沈阳,沈阳,024,159****0821,东中街,新世界百货二期3楼,景点,博物馆,123.465324,41.804562
天天假期国际旅行社,辽宁,沈阳,沈阳,024,4009903887,沈辽路万达,沈辽路万达C座18楼,景点,旅行社,123.357553,41.781994
联动时代（北京）科技发展有限责任公司,辽宁,沈阳,沈阳,024,159****4221,沈辽路万达,沈辽东路47-2号宏发国际1504室,景点,旅行社,123.369936,41.781766
南湖公园,辽宁,沈阳,沈阳,024,23886446;23844578,南湖公园/三好街,南湖街道文化路1号,景点,公园/广场,123.412666,41.770702
红海滩,辽宁,沈阳,沈阳,024,31329021;31321532,南湖公园/三好街,三好街物产大厦,景点,旅行社,123.426732,41.769178
客运天天,辽宁,沈阳,沈阳,024,88614601,铁西广场,兴华南街5号鲁尔大厦1709室,景点,旅行社,123.370884,41.792314
久丽美术馆,辽宁,沈阳,沈阳,024,188****2195,苏家屯区,佟沟乡刘后地村富锦街72号,景点,美术馆,123.558319,41.581432
兴顺特色观光夜市,辽宁,沈阳,沈阳,024,,兴顺夜市,兴顺街兴顺夜市,景点,夜市,123.362061,41.797428
北陵冰雪世界,辽宁,沈阳,沈阳,024,186****5765;138****9966,北陵,泰山路12号北陵公园内,景点,主题乐园,123.428596,41.840031
龙之梦旅游度假中心,辽宁,沈阳,沈阳,024,31390333;31982223,黎明广场,万泉街道滂江街22号龙之梦购物中心8层,景点,更多景点/周边游,123.487869,41.807426
木匠屯水库,辽宁,沈阳,沈阳,024,,大东区,G1京哈高速旁,景点,自然景观,123.516205,41.893365
天文宫,辽宁,沈阳,沈阳,024,81797887,五里河,文萃路55号,景点,科技馆,123.444691,41.764381
沈阳广慧寺,辽宁,沈阳,法库县,024,,法库县其他,丁家房镇象牙河路,景点,宗教,123.188972,42.344704
沈阳尚屯水库,辽宁,沈阳,法库县,024,,法库县其他,十间房乡,景点,现代建筑,123.354856,42.402363
沈阳三台子水库,辽宁,沈阳,康平县,024,,康平县其他,203国道旁,景点,现代建筑,123.334389,42.653198
油田公园,辽宁,沈阳,新民市,024,,新民市其他,沈兴街与花园路交叉口西南100米,景点,公园/广场,123.05761,41.927536
来胜教堂,辽宁,沈阳,沈阳,024,,苏家屯区,辽官线,景点,宗教,123.260723,41.630173
沈阳拉马章水库,辽宁,沈阳,法库县,024,,法库县其他,包家屯镇,景点,现代建筑,122.967743,42.481895
大志水库,辽宁,沈阳,沈阳,024,,大东区,前进街道,景点,现代建筑,123.540326,41.910786
沈阳农业会展中心,辽宁,沈阳,沈阳,024,,辉山,辉山街道明珠路1号,景点,景点/周边游,123.584198,41.913036
沈阳獾子洞水库,辽宁,沈阳,法库县,024,,法库县其他,獾子洞水库,景点,现代建筑,122.959518,42.383011
塔南公园,辽宁,沈阳,沈阳,024,,塔湾,塔湾街32号,景点,公园/广场,123.376709,41.832329
东北航空历史纪念馆,辽宁,沈阳,法库县,024,,法库县其他,十间房镇财湖机场内,景点,纪念馆,123.379128,42.388828
金程国际旅行社,辽宁,沈阳,沈阳,024,25670868,兴工街/沈阳站西广场,建设东路43号和谐大厦B座1312室,景点,旅行社,123.379293,41.790053
银狐旅行社大东分公司,辽宁,沈阳,沈阳,024,86083199,大东广场,天后宫路146号富莱国际商厦1009室,景点,旅行社,123.46104,41.810604
十一号院艺术区,辽宁,沈阳,沈阳,024,23351668,十一纬路,十一纬路111号,景点,创意园区,123.425995,41.790157
国际旅行社总社,辽宁,沈阳,沈阳,024,23264355,北站/市府,青年北大街与铁岭路交叉路口往北约50米,景点,旅行社,123.43273,41.808417
美国郡金润温泉会所,辽宁,沈阳,新民市,024,186****9999,美国郡温泉小区,兴隆堡镇中兴路美国郡小区内,景点,温泉,123.086067,41.917282
中国国际旅行社,辽宁,沈阳,沈阳,024,,南湖公园/三好街,文化路58号805房间,景点,旅行社,123.431633,41.772151
绿城人家,辽宁,沈阳,沈阳,024,,世博园,双园路301号沈阳世博园中部地区展园内,景点,古村古镇,123.653908,41.862598
恒远佰特塑业5号门市,辽宁,沈阳,沈阳,024,,浑南新区,天坛一街,景点,旅行社,123.460001,41.766781
青旅,辽宁,沈阳,沈阳,024,,中街/故宫,沈新路104号,景点,旅行社,123.451122,41.804762
万科金地中山公园,辽宁,沈阳,沈阳,024,88605511;88615511,太原街,南三马路67号,景点,公园/广场,123.404961,41.783211
中国国旅,辽宁,沈阳,沈阳,024,130****2288,沈辽路万达,沈辽路万达A组团4号楼10门,景点,旅行社,123.354446,41.780776
大运通国旅,辽宁,沈阳,沈阳,024,159****7693,北一路万达,兴华南街58-20万达广场一楼,景点,旅行社,123.379108,41.813975
满清一条街,辽宁,沈阳,沈阳,024,,中街/故宫,步行街与沈阳路交叉口东北50米,景点,步行街,123.456917,41.797626
涌泉教会,辽宁,沈阳,沈阳,024,,重工街沿线,重工南街56号-1门,景点,宗教,123.326294,41.791939
鹿鸣艺术沙龙,辽宁,沈阳,沈阳,024,155****1281,保工街,兴顺街4甲1号2门,景点,美术馆,123.366614,41.803884
金海乐园游乐场,辽宁,沈阳,沈阳,024,137****3104,浑南区,高坎镇中和村,景点,游乐场,123.70472,41.933834
广西陆川亿馨文化艺术展览有限公司,辽宁,沈阳,沈阳,024,151****8793,沈北新区,龙湖滟澜山采摘园,景点,旅行社,123.595946,41.93523
沈阳青旅,辽宁,沈阳,沈阳,024,,长青街,泉园一路与长青街交叉口西北100米,景点,旅行社,123.476948,41.778598
瑞驰国际旅行社,辽宁,沈阳,沈阳,024,89862177,新城子,新城子贵州路客货联运总站,景点,旅行社,123.514396,42.049248
英雄公园,辽宁,沈阳,沈阳,024,,陵东,金山路与鸭绿江北街交口,景点,公园/广场,123.454689,41.853218
康平卧龙谷旅游集散中心,辽宁,沈阳,康平县,024,137****6615,康平县其他,彰桓线中国石化沈康加油站东北,景点,旅行社,123.408073,42.732494
于济川公馆,辽宁,沈阳,沈阳,024,,北站/市府,中山路与北二经街交口,景点,展览馆,123.429001,41.800648
美途旅行社有限公司,辽宁,沈阳,沈阳,024,188****8445,五里河,南湖街道五里河街51号昌鑫公寓,景点,旅行社,123.431853,41.764938
东陵公园,辽宁,沈阳,沈阳,024,88031478,东陵路/沈阳农业大学,东陵路210号,景点,古代遗迹,123.592796,41.839119
基督教西塔教堂,辽宁,沈阳,沈阳,024,,西塔/北市场,市府大路33号,景点,宗教,123.412735,41.804165
国旅,辽宁,沈阳,沈阳,024,150****8897,苏家屯客运站,桂花街258-106号西1门,景点,旅行社,123.33578,41.652103
国旅,辽宁,沈阳,沈阳,024,186****2512,苏家屯区政府,雪柳街1号5门,景点,旅行社,123.346798,41.670968
满天星户外主题乐园,辽宁,沈阳,沈阳,024,25541111,苏家屯区,满天星西蔡屯村乐园,景点,主题乐园,123.676856,41.547815
赐福堂,辽宁,沈阳,沈阳,024,66601177,陵东,北塔街道鸭绿江街32-20号,景点,宗教,123.452843,41.84465
金运之旅,辽宁,沈阳,沈阳,024,96677,北二路,云峰北街13号,景点,旅行社,123.386404,41.802224
金运之旅,辽宁,沈阳,沈阳,024,96677,长白岛,南京南街201号,景点,旅行社,123.402425,41.745535
金运之旅,辽宁,沈阳,沈阳,024,,铁西广场,兴华南街38-1号6门,景点,旅行社,123.366185,41.78842
金运之旅,辽宁,沈阳,沈阳,024,96677,浑南新区,浑南中路奥体中心对面亿丰乐购3层,景点,旅行社,123.463883,41.737065
八一双拥博物馆,辽宁,沈阳,沈阳,024,,西塔/北市场,广州街72号,景点,博物馆,123.413597,41.79871
足球之都博物馆,辽宁,沈阳,沈阳,024,,长白岛,浑河南岸长白段,景点,博物馆,123.388962,41.751432
辽宁华信旅行社有限公司沈阳分公司,辽宁,沈阳,沈阳,024,188****5332,皇姑区,长江街208号,景点,旅行社,123.408237,41.816847
沈阳劳动模范纪念馆,辽宁,沈阳,沈阳,024,22565883,北站/市府,北清真路,景点,纪念馆,123.442177,41.804855
沈阳青年国际旅行社,辽宁,沈阳,沈阳,024,,黎明广场,东陵西路兴隆百货负一层,景点,旅行社,123.50874,41.813212
远方田野花园农场,辽宁,沈阳,沈阳,024,23505555,苏家屯区,佟沟街道前陡子峪（沈李线东）,景点,更多景点/周边游,123.631226,41.588848
金运之旅,辽宁,沈阳,沈阳,024,139****6879,大东广场,甘泉路与八王寺街交叉口,景点,旅行社,123.453414,41.814994
温泉宾馆,辽宁,沈阳,新民市,024,139****3819,美国郡温泉小区,中兴路美国郡,景点,温泉,123.084984,41.916618
青年公园雪世界,辽宁,沈阳,沈阳,024,,彩电塔,青年公园园内,景点,滑雪场,123.438026,41.781067
MQ美泉1983,辽宁,沈阳,沈阳,024,86395677,皇姑区,金沙江街18号,景点,温泉,123.408457,41.826053
三利生态农业观光园,辽宁,沈阳,沈阳,024,,沈北新区,曾家沟村,景点,动植物园,123.676079,42.01722
浑河乐园,辽宁,沈阳,沈阳,024,,长白岛,南京南街与南堤西路交叉口西北200米,景点,主题公园,123.396433,41.756463
怡丰度假村,辽宁,沈阳,沈阳,024,,沈北新区,常州西路财落镇,景点,更多景点/周边游,123.409898,42.01611
中青旅,辽宁,沈阳,沈阳,024,88677877,龙江广场,北陵大街19号中汇广场A座,景点,旅行社,123.430822,41.825132
沈阳新世界博览馆,辽宁,沈阳,沈阳,024,186****9999,五里河,博览路2甲2号,景点,展览馆,123.439125,41.750656
铁西清真寺,辽宁,沈阳,沈阳,024,,重工街沿线,重工北街63号,景点,宗教,123.329376,41.811192
海峡国旅,辽宁,沈阳,沈阳,024,,大东广场,草仓路38号15门,景点,旅行社,123.467268,41.809818
沈阳国际旅行社,辽宁,沈阳,沈阳,024,,大东广场,八王寺街9-1号,景点,旅行社,123.464031,41.811751
中国青旅,辽宁,沈阳,沈阳,024,31634645,长青街,泉园三路22号1门,景点,旅行社,123.478674,41.769841
太原街广场商业步行街,辽宁,沈阳,沈阳,024,,太原街,中华路70号,景点,步行街,123.401657,41.79369
沈阳漫步者旅行社,辽宁,沈阳,康平县,024,87393699,中心街,交通局楼下,景点,旅行社,123.348022,42.739842
孙恩同美术馆,辽宁,沈阳,沈阳,024,,东陵路/沈阳农业大学,东陵路10巷-1号,景点,美术馆,123.520567,41.814807
清浪湾温泉,辽宁,沈阳,辽中区,024,,辽中区其他,华泰路与Z118交叉口西50米,景点,温泉,122.887398,41.521053
易游天下国际旅行社,辽宁,沈阳,沈阳,024,,浑南新区,五三街道明波路2-17号4号门,景点,旅行社,123.44736,41.74224
过格多肉植物体验园,辽宁,沈阳,沈阳,024,66787878,浑南区,沈李线南井村绿色美景花卉基地B区22层,景点,植物园,123.563393,41.709543
甜程旅行网,辽宁,沈阳,沈阳,024,22817699,南市/马路湾,南市场街道和平北大街69号总统大厦C座17楼,景点,旅行社,123.416415,41.793855
怪坡温泉,辽宁,沈阳,沈阳,024,,沈北新区,清水台镇后腰堡,景点,温泉,123.622123,42.04371
商务国旅,辽宁,沈阳,沈阳,024,86000086,北站/市府,青年北大街19-2号汇宝国际公寓C座11层1106室,景点,旅行社,123.434021,41.809492
四方蓝天国际旅行社,辽宁,沈阳,沈阳,024,,北站/市府,北京街19-3号,景点,旅行社,123.433186,41.809516
大运通国旅,辽宁,沈阳,沈阳,024,,北站/市府,青年北大街19-2号汇宝国际公寓C座11层1106室,景点,旅行社,123.432233,41.807572
安宇娱乐活动中心,辽宁,沈阳,沈阳,024,,新城子,新城子贵州路9-7号,景点,展览馆,123.516403,42.049061
歪脖老母,辽宁,沈阳,沈阳,024,188****5259,五爱市场,五爱市场北门对面,景点,旅行社,123.448327,41.789257
沈阳国际旅行社,辽宁,沈阳,沈阳,024,130****4216,荷兰村,塔湾街40-46号,景点,旅行社,123.378633,41.848713
汗王宫遗址陈列馆,辽宁,沈阳,沈阳,024,84181111,中街/故宫,中街盛京龙城,景点,陈列馆,123.45649,41.80402
万科中央公园,辽宁,沈阳,沈阳,024,,怒江北街,西江街117-6号,景点,公园/广场,123.391891,41.851646
锡伯龙地创意农业产业园,辽宁,沈阳,沈阳,024,4006630277,沈北新区,兴隆台锡伯族镇兴光村,景点,创意园区,123.30191,42.077042
反腐倡廉展览馆,辽宁,沈阳,沈阳,024,29837096,苏家屯区,大羊安960号,景点,展览馆,123.382774,41.655403
经纬旅行社,辽宁,沈阳,沈阳,024,31983456,重工街沿线,重工南街132巷长客西站内一楼,景点,旅行社,123.324267,41.780547
溪水报恩寺,辽宁,沈阳,沈阳,024,86379033,四台子,黄河北大街206-562号附近,景点,宗教,123.383263,41.890228
豫亲王府,辽宁,沈阳,沈阳,024,84181111,中街/故宫,中街盛京龙城西区一楼,景点,历史建筑,123.455864,41.803394
张强烈士墓,辽宁,沈阳,康平县,024,,康平县其他,S302,景点,烈士陵园,123.009297,42.689337
烈士陵园,辽宁,沈阳,康平县,024,,康平县其他,小城子森林公园西北,景点,烈士陵园,123.203731,42.889641
鸽子,辽宁,沈阳,沈阳,024,,沈北新区,老寺沟沈阳国家森林公园动物园内,景点,动物园,123.736053,42.040413
烈士陵园,辽宁,沈阳,辽中区,024,,辽中区其他,蒲东街与沈盘线交叉口东,景点,烈士陵园,122.75753,41.48958
浑南区革命烈士陵园,辽宁,沈阳,沈阳,024,,东陵路/沈阳农业大学,东湖新村附近,景点,烈士陵园,123.581505,41.821121
蛇山沟烈士陵园,辽宁,沈阳,法库县,024,,法库县其他,法库镇蛇山沟烈士陵园,景点,烈士陵园,123.51057,42.51072
烈士陵园,辽宁,沈阳,新民市,024,,新民市其他,X034,景点,烈士陵园,122.57393,42.17456
辽西民俗文化收藏与交流私人会所,辽宁,沈阳,辽中区,024,,辽中区其他,富兴・湖畔欣城,景点,更多景点/周边游,122.77253,41.51125
奥林匹克生态公园,辽宁,沈阳,沈阳,024,,浑南新区,五三街道南堤中路与天赐街交叉口,景点,公园/广场,123.504829,41.755028
彩电塔,辽宁,沈阳,沈阳,024,23843333,南市/马路湾,南三经街60号甲,景点,高空观景,123.434792,41.783955
中华路地下购物街,辽宁,沈阳,沈阳,024,,太原街,中华路与兰州北街交叉口西北50米,景点,步行街,123.399521,41.792744
奉海铁路局旧址,辽宁,沈阳,沈阳,024,,东站,东站街1号,景点,历史建筑,123.501078,41.823658
博雅公园,辽宁,沈阳,沈阳,024,,北陵,新乐街道黄河南大街111-4号正北方向80米,景点,公园/广场,123.423302,41.841976
沈阳国际旅行社津桥路,辽宁,沈阳,沈阳,024,188****5138,东中街,津桥路3-2号威士顿B座1317室,景点,旅行社,123.469923,41.804583
阳光一百凤凰街,辽宁,沈阳,沈阳,024,25251000,于洪新城,汪河路39号,景点,步行街,123.358231,41.755257
仟睿达七彩风车游乐园,辽宁,沈阳,沈阳,024,,小河沿,东滨河路54号楼,景点,游乐场,123.464851,41.78854
塔湾兴顺夜市鲸鱼岛乐园,辽宁,沈阳,沈阳,024,159****0025,明廉,明廉街道明廉路8号,景点,旅游项目/观光项目,123.370377,41.822807
奉天纺纱艺术区,辽宁,沈阳,沈阳,024,,吉祥市场,北海街道辽沈二街如意五路23号,景点,创意园区,123.477913,41.815304
明清册,辽宁,沈阳,沈阳,024,,苏家屯区,桃花源路10号,景点,人文古迹,123.708681,41.570519
幸福温泉小镇,辽宁,沈阳,沈阳,024,,于洪区,光辉街道集光线,景点,温泉,123.159096,41.960449
吉顺隆丝房旧址,辽宁,沈阳,沈阳,024,,中街/故宫,中街路184号,景点,古代遗迹,123.457848,41.801605
荷花湖度假公园,辽宁,沈阳,沈阳,024,67760387,东陵路/沈阳农业大学,汪家街道东陵路210号,景点,公园/广场,123.594269,41.827778
奉天邮务管理局旧址,辽宁,沈阳,沈阳,024,,西塔/北市场,市府大路157号,景点,古代遗迹,123.421715,41.804188
香草山基督教会,辽宁,沈阳,沈阳,024,158****1675,浑南新区,南堤中路9-20号附近,景点,宗教,123.48555,41.750417
小仙子湖,辽宁,沈阳,沈阳,024,,铁西区,高花街道,景点,更多景点/周边游,123.085854,41.688953
中商国旅,辽宁,沈阳,沈阳,024,,黎明广场,黎明一街11号,景点,旅行社,123.496814,41.805134
战友旅行社,辽宁,沈阳,沈阳,024,,浑南新区,沈水路616-25号,景点,旅行社,123.482182,41.759942
途牛旅游,辽宁,沈阳,沈阳,024,31161319,北站/市府,北站路59号沈阳・财富中心E座18层1804室,景点,旅行社,123.435084,41.814504
大运通国际旅行社,辽宁,沈阳,沈阳,024,186****9668,怒江北街,西江街万科四季花城101-1号商业步行街,景点,旅行社,123.386705,41.851369
颠倒小镇,辽宁,沈阳,沈阳,024,,太原街,太原街街道太原北街95号玖伍文化城负一层,景点,现代小镇,123.401398,41.792708
穿越大自然遇见萤火虫,辽宁,沈阳,沈阳,024,,中街/故宫,中街兴隆大家庭后身,景点,旅游项目/观光项目,123.455371,41.800601
浑南市民公园,辽宁,沈阳,沈阳,024,,浑南新区,南堤西路,景点,公园/广场,123.438896,41.742535
沈阳海洋探索中心,辽宁,沈阳,沈阳,024,31954000;186****7113,五里河,博览路2甲1号K11购物艺术中心3楼,景点,海洋馆,123.43766,41.74987
清河半岛温泉度假酒店,辽宁,沈阳,沈阳,024,31853777;31853999,道义商圈,蒲南路20号,景点,温泉,123.432648,41.936527
朗朗钢琴广场,辽宁,沈阳,沈阳,024,,长白岛,南提西路,景点,广场,123.417656,41.743786
鸟岛游乐场,辽宁,沈阳,沈阳,024,31979736,东陵路/沈阳农业大学,东陵路197号,景点,游乐场,123.586678,41.827736
三皇庙遗址,辽宁,沈阳,沈阳,024,,大东广场,东西快速干道入口与取意街交叉口西北50米,景点,古代遗迹,123.456352,41.810886
保利瀛温泉,辽宁,沈阳,沈阳,024,,小河沿,万莲路1甲26号,景点,温泉,123.481567,41.784294
沈阳国旅,辽宁,沈阳,沈阳,024,31011600,黎明广场,和睦南一路与黎明四街交叉口东北50米,景点,旅行社,123.501977,41.80694
大运通国旅,辽宁,沈阳,沈阳,024,,东中街,津桥街道大什字街107号天宝国际酒店北门一楼,景点,旅行社,123.474719,41.804949
信朗之旅旅行社,辽宁,沈阳,沈阳,024,159****8325,龙江广场,辽河街16号,景点,旅行社,123.437993,41.825357
沈阳国际旅行社,辽宁,沈阳,沈阳,024,,龙江广场,巴山路25号,景点,旅行社,123.437821,41.825331
南市场八卦街,辽宁,沈阳,沈阳,024,,南市/马路湾,南市场街道十二纬路南四经街云集南一巷9号,景点,步行街,123.419228,41.788517
伊顺文化艺术产业园,辽宁,沈阳,沈阳,024,,太原街,和平区中华路53号,景点,创意园区,123.403793,41.79118
天下第一园,辽宁,沈阳,沈阳,024,,世博园,双园路301号沈阳植物园内,景点,更多景点/周边游,123.645584,41.864902
碧桂园国际展销中心,辽宁,沈阳,沈阳,024,25106609,于洪新城,城东湖街道大通湖街168号,景点,展览馆,123.343774,41.753243
爱的十家园,辽宁,沈阳,沈阳,024,,重工街沿线,富工二街21号附近,景点,宗教,123.332895,41.798938
丁香水巷,辽宁,沈阳,沈阳,024,,荷兰村,松山西路华润橡树湾-2期西侧约30米,景点,广场,123.357841,41.859131
西厢房,辽宁,沈阳,沈阳,024,,苏家屯区政府,翠柏路14号,景点,更多景点/周边游,123.344216,41.664696
社区建身广场,辽宁,沈阳,沈阳,024,,三台子,三台子街道蔷薇河街3号,景点,公园/广场,123.427408,41.877118
铁道锦州警备犬之碑,辽宁,沈阳,沈阳,024,,大东区,望花南街46号九・一八历史博物馆内,景点,人文古迹,123.466961,41.834771
奉天记忆文化创意产业园,辽宁,沈阳,沈阳,024,31206666,保工街,北四中路22甲号,景点,创意园区,123.363297,41.802959
万佛塔-祖师塔苑,辽宁,沈阳,沈阳,024,,浑南区,王滨乡中华寺村中华寺景区内,景点,宗教,123.784261,41.767401
沈阳世博园-和谐园,辽宁,沈阳,沈阳,024,,世博园,沈阳世博园内,景点,公园/广场,123.650668,41.869628
新民文化博览园-紫东阁,辽宁,沈阳,新民市,024,,新民市其他,大柳屯镇南部新彰公路与304线交会口侧新民文化博览园内,景点,博物馆,122.782013,42.14019
怡园,辽宁,沈阳,沈阳,024,,小河沿,东北路与北方街交叉口东南150米,景点,公园/广场,123.498485,41.790161
神洲旅行社歪脖老母团,辽宁,沈阳,沈阳,024,31205018,于洪广场,黄海路30号,景点,旅行社,123.30511,41.794487
沈阳国际旅行社,辽宁,沈阳,沈阳,024,131****3350,三台子,松山西路9号7门,景点,旅行社,123.415215,41.869282
沈阳青年国际旅行社,辽宁,沈阳,沈阳,024,159****0607,三台子,黄河北大街56号中粮广场8108门市,景点,旅行社,123.417288,41.856898
金色童年儿童游乐场,辽宁,沈阳,沈阳,024,,沈辽路万达,茂业百货3层,景点,游乐场,123.361218,41.78035
香洋湾温泉,辽宁,沈阳,沈阳,024,,保工街,南六中路与德工街交叉口,景点,温泉,123.35134,41.799835
甜程旅行网,辽宁,沈阳,沈阳,024,67850898,太原街,太原北街95号玖伍文化城2层,景点,旅行社,123.402271,41.792901
圣迹山,辽宁,沈阳,法库县,024,,法库县其他,西南45公里处,景点,自然风光,122.854567,42.328113
刘鸿典建筑博物馆,辽宁,沈阳,沈阳,024,139****3550,新华广场,海口街39号,景点,博物馆,123.397919,41.77211
年轮艺术品收藏馆,辽宁,沈阳,沈阳,024,22820578,南市/马路湾,南一经街144巷-10号,景点,展览馆,123.432906,41.784696
百菜园,辽宁,沈阳,沈阳,024,,世博园,高坎街道双园路301号沈阳植物园内,景点,植物园,123.657669,41.864891
盟军狙击手,辽宁,沈阳,沈阳,024,,世博园,高坎街道双园路301号沈阳植物园森林乐园内,景点,更多景点/周边游,123.652855,41.858971
尧桥古建,辽宁,沈阳,沈阳,024,,大东区,东望街20号D座,景点,古村古镇,123.519125,41.840335
沈阳两化融合展示中心,辽宁,沈阳,沈阳,024,83773086,浑南新区,上深沟村860-6沈阳国际软件园F9号楼1层101室,景点,展览馆,123.484651,41.694401
康平县弘扬中华传统文化协会活动中心,辽宁,沈阳,康平县,024,,中心街,文化路南41号附近,景点,展览馆,123.342377,42.744602
逍遥游国际旅行社有限公司,辽宁,沈阳,沈阳,024,158****3353,北站/市府,营口东路27号,景点,旅行社,123.425458,41.806068
红满天喷绘展示,辽宁,沈阳,沈阳,024,139****8908,皇姑区,闽江街10号9门,景点,展览馆,123.410881,41.812781
亿甲创业街,辽宁,沈阳,辽中区,024,,近海客运站,亿甲府第,景点,观光街区,122.773491,41.518112
文博园国际会展中心,辽宁,沈阳,新民市,024,,新民市其他,姜张线,景点,景点/周边游,122.782196,42.14077
地库铁门,辽宁,沈阳,沈阳,024,,中街/故宫,朝阳街少帅府巷8附近,景点,自然景观,123.459975,41.794025
沈阳和平杯世界足球公园,辽宁,沈阳,沈阳,024,,和平区,浑河站西街道滨水路南200米,景点,公园/广场,123.370459,41.745599
印象莫奈时光映迹艺术展沈阳站,辽宁,沈阳,沈阳,024,,太原街,太原北街95号,景点,美术馆,123.401711,41.792641
盛世国旅,辽宁,沈阳,沈阳,024,,皇姑区,昆山中路,景点,旅行社,123.416415,41.818175
中国青旅,辽宁,沈阳,沈阳,024,,大东广场,草仓路与大什字街交叉路口往西南约50米,景点,旅行社,123.465326,41.80971
铁锚1956文创园,辽宁,沈阳,沈阳,024,31048310,东中街,大东路47号,景点,创意园区,123.46946,41.796497
椰风海韵,辽宁,沈阳,沈阳,024,,世博园,双园路301号沈阳世博园中部地区展园内,景点,更多景点/周边游,123.653816,41.862167
欧阳草莓采摘,辽宁,沈阳,新民市,024,,新民市其他,304国道,景点,动植物园,122.914406,42.030502
沈阳牡丹园,辽宁,沈阳,沈阳,024,189****0008,浑南区,满堂街道森林路108号华夏民俗村旁,景点,植物园,123.674808,41.911568
康辉旅游,辽宁,沈阳,沈阳,024,,西塔/北市场,和平北大街康辉旅游,景点,旅行社,123.42273,41.802871
沈阳国际旅行社,辽宁,沈阳,沈阳,024,,西塔/北市场,和平北大街八一公园对面,景点,旅行社,123.422207,41.802571
电瓶船,辽宁,沈阳,沈阳,024,,世博园,双园路301号附近,景点,更多景点/周边游,123.648834,41.858425
三进院,辽宁,沈阳,沈阳,024,,中街/故宫,朝阳街少帅府巷46号张氏帅府内,景点,人文古迹,123.457941,41.794401
大学生创业创新平台,辽宁,沈阳,沈阳,024,,望花,望花中街142-1号附近,景点,创意园区,123.478357,41.867237
绿色生活展示馆,辽宁,沈阳,沈阳,024,,长青街,泉园二路与清泉街交叉口西150米,景点,展览馆,123.478229,41.775599
竹园国际旅行社有限公司,辽宁,沈阳,沈阳,024,,北站/市府,哈尔滨路99号东北大厦c区1102室,景点,旅行社,123.431876,41.810846
环卫工人休息室,辽宁,沈阳,沈阳,024,,吉祥市场,机校街48号,景点,展览馆,123.465852,41.826862
登仕堡子镇文化中心,辽宁,沈阳,法库县,024,,法库县其他,G101,景点,展览馆,123.126011,42.287111
伏牛艺术馆,辽宁,沈阳,法库县,024,,法库县其他,中央路与兴工街交叉口北100米,景点,美术馆,123.399208,42.485718
北国旅行社和平分公司,辽宁,沈阳,沈阳,024,,南市/马路湾,十三纬路19号辽宁冶金大厦9层,景点,旅行社,123.412934,41.785814
扬帆远航,辽宁,沈阳,沈阳,024,,世博园,双园路301号沈阳植物园内,景点,自然景观,123.657059,41.867508
辽河文明,辽宁,沈阳,沈阳,024,,北站/市府,市府大路363号辽宁省博物馆内,景点,展览馆,123.435154,41.803304
后妃生活用品展,辽宁,沈阳,沈阳,024,,中街/故宫,沈阳路171号沈阳故宫内,景点,展览馆,123.455844,41.799244
北二台子村,辽宁,沈阳,沈阳,024,,于洪区,平罗街道,景点,更多景点/周边游,123.277943,41.967133
辽宁大学档案管理中心,辽宁,沈阳,沈阳,024,,辽宁大学南校区,崇山中路66号辽宁大学崇山校区内,景点,展览馆,123.402328,41.833309
辽宁中辽国际旅行社,辽宁,沈阳,沈阳,024,31142355;31836733,龙江广场,黄河南大街51号蓝天大酒店1楼左转宴会厅里,景点,旅行社,123.420941,41.828091
东陵区王滨沟乡文化中心,辽宁,沈阳,沈阳,024,,浑南区,常富线与125县道交叉口西南150米,景点,展览馆,123.757541,41.712723
南塔街80巷6-4,辽宁,沈阳,沈阳,024,,五里河,药大南二巷药院社区南侧约200米,景点,公园/广场,123.448264,41.767604
观音阁,辽宁,沈阳,沈阳,024,170****8278,三台子,千山路3号,景点,景点/周边游,123.422563,41.875183
沈阳森林动物园-红领狐猴,辽宁,沈阳,沈阳,024,,浑南区,秀湖南路,景点,动物园,123.687444,41.932154
启运园,辽宁,沈阳,沈阳,024,,世博园,双园路301号沈阳植物园内,景点,更多景点/周边游,123.65667,41.867786
中远国旅,辽宁,沈阳,沈阳,024,188****8670,长青街,先农坛路17巷19-1号,景点,旅行社,123.469215,41.781825
百年服饰展览馆,辽宁,沈阳,新民市,024,,新民市其他,大柳屯镇南部新彰公路与304线交会口侧新民文化博览园内,景点,陈列馆,122.780815,42.14278
汇尔尚雅,辽宁,沈阳,沈阳,024,,新城子,旺街,景点,展览馆,123.521576,42.051842
辽河文明展第四展厅,辽宁,沈阳,沈阳,024,,北站/市府,市府大路363号辽宁省博物馆辽河文明内,景点,展览馆,123.436066,41.803551
双峰翠水,辽宁,沈阳,沈阳,024,,浑南区,103省道棋盘山风景区向阳寺内,景点,更多景点/周边游,123.65078,41.93388
中国・法库特色产品交易展示中心,辽宁,沈阳,法库县,024,,法库县其他,金牛街东郡华府西南侧约150米,景点,展览馆,123.434799,42.512718
辽宁省中年旅行社有限公司,辽宁,沈阳,沈阳,024,131****9166,苏家屯客运站,湖西街道枫杨路105一1号一克拉东门盛京银行对面,景点,旅行社,123.331431,41.661481
影视拍摄展览馆,辽宁,沈阳,沈阳,024,,浑南区,103省道棋盘山风景区关东影视城内,景点,展览馆,123.704185,41.950451
辽宁古代农业陈列馆,辽宁,沈阳,沈阳,024,,东陵路/沈阳农业大学,S104,景点,陈列馆,123.549753,41.824123
绿洲神韵,辽宁,沈阳,沈阳,024,,世博园,双园路301号沈阳植物园内,景点,自然景观,123.64669,41.86676
般若讲堂,辽宁,沈阳,沈阳,024,,沈北新区,怪坡路80号沈阳怪坡风景区内,景点,宗教,123.636261,42.06469
信基沙溪酒店用品博览中心,辽宁,沈阳,沈阳,024,,北二路,兴华北街30号千缘・新财富大厦16层1609室,景点,展览馆,123.378347,41.804717
黔园,辽宁,沈阳,沈阳,024,,世博园,双园路301号沈阳植物园内,景点,公园/广场,123.646271,41.865982
维士隐山,辽宁,沈阳,沈阳,024,,长白岛,三好桥南,景点,自然景观,123.413534,41.742734
革命烈士陵园,辽宁,沈阳,康平县,024,,中心街,中心路与向阳街交叉口东100米,景点,烈士陵园,123.359802,42.74173
黑美洲豹,辽宁,沈阳,沈阳,024,,浑南区,秀湖南路沈阳森林动物园内,景点,更多景点/周边游,123.685162,41.933572
辽宁康辉国际旅行社沈辽路华润万家店,辽宁,沈阳,沈阳,024,,于洪新城,沈辽路141号华润万家购物中心2层,景点,旅行社,123.318571,41.767044
妈妈石,辽宁,沈阳,沈阳,024,,浑南区,103省道棋盘山风景区内,景点,更多景点/周边游,123.654521,41.934282
熊狮伙伴,辽宁,沈阳,沈阳,024,,浑南区,103省道棋盘山风景区沈阳森林动物园内,景点,更多景点/周边游,123.686637,41.933306
文化创意产品展示中心,辽宁,沈阳,沈阳,024,,中街/故宫,沈阳路171号(近兴隆大家庭南侧)沈阳故宫内,景点,展览馆,123.454818,41.798279
丰盛国旅,辽宁,沈阳,沈阳,024,,南市/马路湾,十四纬路15号,景点,旅行社,123.424012,41.782512
游客服务中心,辽宁,沈阳,康平县,024,,康平博物馆,滨湖三街与顺山三路交叉口东南150米,景点,公园/广场,123.338379,42.731213
和平国际旅行社,辽宁,沈阳,沈阳,024,62566262,北站/市府,友好街19号奉天银座B座6层,景点,旅行社,123.44179,41.81295
沈阳故宫・游客中心,辽宁,沈阳,沈阳,024,24843001,中街/故宫,沈阳路171号,景点,公园/广场,123.45591,41.797672
赵一荻故居,辽宁,沈阳,沈阳,024,24867711,中街/故宫,朝阳街少帅府北巷赵一荻故居内,景点,名人故居,123.458839,41.794361
沈阳方溪韩国城1街,辽宁,沈阳,沈阳,024,,四台子,青城山路北50米,景点,观光街区,123.391283,41.893753
中国人民艺术家书画院,辽宁,沈阳,沈阳,024,,西塔/北市场,和龙路18号-1门,景点,美术馆,123.4077,41.808894
国家地理探险家中心,辽宁,沈阳,沈阳,024,82516116,五里河,青年大街K11购物艺术中心2层,景点,主题乐园,123.437225,41.749447
如意门,辽宁,沈阳,沈阳,024,,浑南区,103省道棋盘山风景区关东影视城关帝庙内,景点,观光街区,123.705464,41.950514
康平县地方史志馆,辽宁,沈阳,康平县,024,,康平博物馆,滨湖西四街与顺山三路交叉口西南100米康平博物馆附近,景点,博物馆,123.339706,42.730537
碧湖温泉,辽宁,沈阳,沈阳,024,,文艺路/文化路,风雨坛街138号10-15号,景点,温泉,123.443855,41.783825
观音阁,辽宁,沈阳,沈阳,024,,于洪区,东平湖街(四代书香)350号17号楼4门,景点,宗教,123.29348,41.840618
盈科旅游沈阳东塔门市部,辽宁,沈阳,沈阳,024,156****4555,黎明广场,东塔街与善邻路交叉口西北150米,景点,旅行社,123.506869,41.805389
宝塔寺,辽宁,沈阳,康平县,024,,康平县其他,郝官屯镇小塔子村,景点,宗教,123.606436,42.664276
秀水河子战役纪念馆,辽宁,沈阳,法库县,024,,法库县其他,秀水河子镇,景点,纪念馆,123.029121,42.362121
南小城子城址,辽宁,沈阳,康平县,024,,康平县其他,西北方向30米,景点,古代遗迹,123.210512,42.891542
巴尔虎山自然公园,辽宁,沈阳,法库县,024,,法库县其他,巴尔虎山自然公园,景点,公园/广场,123.217572,42.513072
蓬瀛宫,辽宁,沈阳,沈阳,024,,浑南新区,南塔街97号,景点,宗教,123.451908,41.765773
蓝狐,辽宁,沈阳,沈阳,024,,沈北新区,杭州路83-3号怪坡风景区内,景点,更多景点/周边游,123.630839,42.068999
观赏鸽,辽宁,沈阳,沈阳,024,,浑南区,103省道棋盘山风景区沈阳森林动物园小动物村内,景点,动物园,123.687012,41.933
藏灵仙门市,辽宁,沈阳,沈阳,024,,国奥现代城,黄河北大街88-9213号,景点,更多景点/周边游,123.412642,41.870892
吉普车漫游,辽宁,沈阳,沈阳,024,,浑南区,103省道棋盘山风景区沈阳森林动物园内,景点,更多景点/周边游,123.684531,41.932771
牡丹鹦鹉,辽宁,沈阳,沈阳,024,,浑南区,103省道棋盘山风景区沈阳森林动物园内,景点,动物园,123.687505,41.933235
东三省总督府,辽宁,沈阳,沈阳,024,81588278,中街/故宫,皇城街道盛京路28号,景点,历史建筑,123.456573,41.796921
北海教堂,辽宁,沈阳,沈阳,024,,东站,北海街99号-1门,景点,宗教,123.480949,41.822819
沈阳乐高探索中心,辽宁,沈阳,沈阳,024,31954000;186****7113,五里河,博览路K11购物艺术中心3层,景点,主题乐园,123.437347,41.749657
辽宁易乐宝旅游项目开发有限公司,辽宁,沈阳,沈阳,024,,东中街,沈阳小东路1号1室,景点,旅行社,123.464817,41.802447
沈阳逍遥游国际旅行社有限公司,辽宁,沈阳,沈阳,024,,砂山,南十马路35号,景点,旅行社,123.386574,41.775824
中国国旅国际旅行社有限公司方明街门市部,辽宁,沈阳,沈阳,024,23454063,长青街,方明街22-1号4门,景点,旅行社,123.500921,41.775971
天骄国旅,辽宁,沈阳,沈阳,024,,西塔/北市场,安图街8-12号,景点,旅行社,123.406812,41.807664
名人苑,辽宁,沈阳,新民市,024,,新民市其他,大柳屯镇南部新彰公路与304线交会口侧新民文化博览园内,景点,公园/广场,122.778581,42.140731
新民市西城街道新运社区文化站,辽宁,沈阳,新民市,024,,新民市其他,康复街北50米,景点,展览馆,122.817399,41.997339
后苑,辽宁,沈阳,沈阳,024,,中街/故宫,沈阳故宫博物院沈阳故宫御花园,景点,人文古迹,123.455684,41.799364
辽宁逵讶碓驸ê锾一地,辽宁,沈阳,沈阳,024,139****5071,苏家屯区,青鸟蓝莓采摘园,景点,更多景点/周边游,123.552966,41.530107
夸父追日,辽宁,沈阳,沈阳,024,,世博园,双园路301号沈阳植物园森林乐园内,景点,更多景点/周边游,123.649437,41.85841
卧龙湖水上乐园,辽宁,沈阳,康平县,024,27346222,康平县其他,卧龙湖转盘西侧,景点,水上乐园,123.324337,42.738752
辽宁飞虎航空运动飞行营地,辽宁,沈阳,沈阳,024,136****4666,沈北新区,千佛寺村村西头棋盘山风景区,景点,更多景点/周边游,123.6592,41.960708
集酷无动力儿童乐园,辽宁,沈阳,沈阳,024,156****7512;170****4000,沈北新区,怪坡路80号怪坡滑雪场内,景点,主题乐园,123.648084,42.054754
沈阳辽宁国旅,辽宁,沈阳,沈阳,024,,北站/市府,奉天街346号格林自由成B1314室,景点,旅行社,123.442012,41.808272
沈阳永安之旅,辽宁,沈阳,沈阳,024,,东站,南卡门路72号,景点,旅行社,123.484887,41.835596
沈阳叶赫餐饮有限公司有限公司,辽宁,沈阳,沈阳,024,23675678,世博园,棋盘山开发区满堂乡二道村,景点,旅游项目/观光项目,123.672363,41.876614
赤十字社支部旧址,辽宁,沈阳,沈阳,024,,西塔/北市场,中山路118号,景点,古代遗迹,123.412132,41.797432
沈阳国旅,辽宁,沈阳,沈阳,024,,北站/市府,北站街道哈尔滨路华府新天地C5号楼3-1917室,景点,旅行社,123.422917,41.812209
三家子城址,辽宁,沈阳,康平县,024,,康平县其他,家屯镇李影匠窝堡村三家子西山坡上,景点,古代遗迹,123.029336,42.649446
城子沟遗址,辽宁,沈阳,康平县,024,,康平县其他,张强镇盖顶窝堡村城子沟屯北,景点,古代遗迹,123.032409,42.671299
孝子山,辽宁,沈阳,辽中区,024,,辽中区其他,新民屯镇东北六里余,景点,自然风光,123.055172,41.63059
泡子沿小城子城址,辽宁,沈阳,康平县,024,,康平县其他,东关屯街道泡子沿村,景点,古代遗迹,123.316541,42.661323
激光战车城堡,辽宁,沈阳,沈阳,024,,世博园,双园路301号沈阳植物园森林乐园内,景点,游乐场,123.650321,41.858062
南昌市豫章园,辽宁,沈阳,沈阳,024,,世博园,双园路301号沈阳世博园中部地区展园内,景点,公园/广场,123.654922,41.862473
郁金香,辽宁,沈阳,沈阳,024,,世博园,双园路301号沈阳植物园森林乐园内,景点,游乐场,123.653183,41.858983
八宝琉璃井亭,辽宁,沈阳,沈阳,024,,中街/故宫,沈阳路171号沈阳故宫内,景点,更多景点/周边游,123.456301,41.798011
迷城历险,辽宁,沈阳,沈阳,024,,世博园,双园路301号沈阳植物园森林乐园内,景点,游乐场,123.651942,41.858662
自控飞机,辽宁,沈阳,沈阳,024,,世博园,双园路301号沈阳植物园森林乐园内,景点,游乐场,123.650862,41.858158
辉山牛奶世界,辽宁,沈阳,沈阳,024,82619816,新城子,虎石台北大街120号,景点,更多景点/周边游,123.52709,42.021558
时空穿梭机,辽宁,沈阳,沈阳,024,,世博园,高坎街道白桦路与花街交叉口东北200米,景点,游乐场,123.651644,41.858544
惊呼狂叫,辽宁,沈阳,沈阳,024,,世博园,双园路301号世博园内,景点,游乐场,123.65171,41.85879
郑州市商都记忆,辽宁,沈阳,沈阳,024,,世博园,双园路301号世博园内,景点,自然景观,123.653091,41.864441
漂球,辽宁,沈阳,沈阳,024,,北陵,泰山路12号北陵公园内,景点,游乐场,123.429107,41.844147
高空飞椅,辽宁,沈阳,沈阳,024,,世博园,森林路301号19层附近,景点,游乐场,123.648203,41.858003
张作霖早期办公场所,辽宁,沈阳,沈阳,024,,中街/故宫,朝阳街少帅府巷46号张氏帅府二进院内,景点,更多景点/周边游,123.457802,41.794193
岩生植物区,辽宁,沈阳,沈阳,024,,世博园,高坎街道双园路301号沈阳植物园内,景点,植物园,123.642867,41.855337
珠海市海怡园,辽宁,沈阳,沈阳,024,,世博园,双园路301号沈阳世博园中部地区展园内,景点,公园/广场,123.654349,41.86171
黑点科技虚拟现实科技馆,辽宁,沈阳,沈阳,024,,黎明广场,滂江街22号龙之梦购物中心负一层肯德基对面,景点,科技馆,123.486072,41.806262
北塔公园,辽宁,沈阳,沈阳,024,,长客总站,崇山东路49甲1号,景点,公园/广场,123.45136,41.82828
荷兰猪,辽宁,沈阳,沈阳,024,,沈北新区,杭州路83-3号怪坡风景区内,景点,更多景点/周边游,123.630642,42.069069
花脸鸭,辽宁,沈阳,沈阳,024,,浑南区,浑南区浑南区103省道棋盘山风景区沈阳森林动物园内,景点,更多景点/周边游,123.683775,41.931485
MERMAID,辽宁,沈阳,沈阳,024,,大东广场,东北大马路大北关街48号家乐福1层,景点,更多景点/周边游,123.467775,41.815372
荷兰猪,辽宁,沈阳,沈阳,024,,浑南区,浑南区浑南区103省道棋盘山风景区沈阳森林动物园小动物村内,景点,更多景点/周边游,123.686941,41.933019
携程旅游,辽宁,沈阳,沈阳,024,31589282,五里河,青年大街173号佳兆业广场4层,景点,旅行社,123.436622,41.765777
头条胡同,辽宁,沈阳,沈阳,024,,中街/故宫,皇城街道中街路235号,景点,观光街区,123.458335,41.801645
月月汤泉,辽宁,沈阳,沈阳,024,88511988,北站/市府,金廊商圈团结路61号,景点,温泉,123.444869,41.812992
佛龛供桌展示厅,辽宁,沈阳,沈阳,024,,长青街,东滨河路沈阳市第二十七中学东南侧约30米,景点,展览馆,123.462955,41.783155
法华寺,辽宁,沈阳,法库县,024,,法库县其他,兴法路206号西北方向150米,景点,宗教,123.405708,42.511978
凯德俪锦城广场,辽宁,沈阳,沈阳,024,,沙岭镇,京哈公路与锦沙街交叉路口往东北约90米,景点,公园/广场,123.194982,41.790687
辽宁光大国际旅行社,辽宁,沈阳,沈阳,024,,北陵,陵东街7号天酒店(沈阳省政府北陵公园店)东北侧,景点,旅行社,123.441821,41.844871
沈阳国旅,辽宁,沈阳,沈阳,024,,大东广场,小北街9号,景点,旅行社,123.45416,41.80487
天骄国际旅行社,辽宁,沈阳,沈阳,024,,保工街,建设中路78号一楼门市,景点,旅行社,123.350529,41.802309
二・一三广场,辽宁,沈阳,沈阳,024,,浑南区,104省道南200米,景点,公园/广场,123.690915,41.855244
佛仙堂,辽宁,沈阳,康平县,024,87333387,中心街,中心街258号北50米,景点,景点/周边游,123.352669,42.7468
珍珠鸡,辽宁,沈阳,沈阳,024,,沈北新区,老寺沟沈阳国家森林公园动物园内,景点,动物园,123.735811,42.040791
沈水幸福公园,辽宁,沈阳,沈阳,024,,苏家屯区,沈水街道香堇街与香梨路交叉路口往南约150米,景点,公园/广场,123.307433,41.685266
沈阳青年国际旅行社,辽宁,沈阳,沈阳,024,150****3746,大东区,合作街120号2门,景点,旅行社,123.476496,41.836656
途牛旅游,辽宁,沈阳,沈阳,024,,正良,华强城售楼处,景点,旅行社,123.406789,41.909069
沈阳青年旅行社,辽宁,沈阳,沈阳,024,,云峰街,云峰北街33号,景点,旅行社,123.379625,41.794805
沈阳市民阅读广场,辽宁,沈阳,沈阳,024,,中山公园,和平区和平南大街与辽源路交叉口西北200米,景点,公园/广场,123.407183,41.785003
大运通国旅,辽宁,沈阳,沈阳,024,,中街/故宫,正阳街212号,景点,旅行社,123.453571,41.794791
沈阳瑞驰国际旅行社,辽宁,沈阳,康平县,024,,中心街,向阳街568栋,景点,旅行社,123.356817,42.736677
金运之旅,辽宁,沈阳,沈阳,024,186****4948,小河沿,万柳塘路5号,景点,旅行社,123.477092,41.784192
康辉旅游,辽宁,沈阳,沈阳,024,,大东广场,津桥路89号5门,景点,旅行社,123.476015,41.806312
大运通国旅,辽宁,沈阳,沈阳,024,,大东广场,草仓路66号7门,景点,旅行社,123.474424,41.810024
莲池海会,辽宁,沈阳,沈阳,024,,浑南区,103省道棋盘山风景区向阳寺内,景点,景点/周边游,123.650389,41.933554
安途旅游,辽宁,沈阳,沈阳,024,,吉祥市场,辽沈一街2号附近,景点,旅行社,123.474151,41.821761
沈阳国旅,辽宁,沈阳,沈阳,024,136****2055,文艺路/文化路,热闹路99号,景点,旅行社,123.456554,41.787788
盛世平安国际旅行社,辽宁,沈阳,沈阳,024,158****4048,大东区,南卡门路65号10门,景点,旅行社,123.482464,41.836334
沈阳青年国际旅行社,辽宁,沈阳,沈阳,024,159****3157,浑南新区,汇泉东路10号,景点,旅行社,123.489499,41.732616
职工文体广场,辽宁,沈阳,沈阳,024,,国奥现代城,川江街赤山路,景点,公园/广场,123.4099,41.873361
营销体验馆,辽宁,沈阳,沈阳,024,,太原街,太原街中山路新荣中心A座,景点,科技馆,123.400923,41.795153
原动力休闲假日温泉,辽宁,沈阳,沈阳,024,139****2205,鸭绿江街,原动力休闲假日酒店,景点,温泉,123.46244,41.845837
善缘佛堂,辽宁,沈阳,沈阳,024,156****8666,东陵路/沈阳农业大学,新立堡路新居街2号5门,景点,景点/周边游,123.537382,41.812472
辽中区蒲西街道福利社区综合文化站,辽宁,沈阳,辽中区,024,,近海新城,中心街与南一路交叉口西南50米,景点,展览馆,122.729065,41.510069
沈阳市辽中区蒲西街道中华文化教育基地,辽宁,沈阳,辽中区,024,,近海新城,中心街鲁冰花幼儿园(印刷巷)北侧约110米,景点,展览馆,122.729022,41.510382
动物,辽宁,沈阳,沈阳,024,158****7740,明廉,昆山西路与涟水街交叉口东北50米,景点,动物园,123.357801,41.833231
辽中区蒲西街道新光社区综合文化站,辽宁,沈阳,辽中区,024,,东环街,东环街,景点,展览馆,122.736813,41.507153
大鹅艺术,辽宁,沈阳,沈阳,024,182****6565,塔湾,昆山西路中海寰宇天下A区东门北行100米,景点,美术馆,123.379547,41.826138
消防文化广场,辽宁,沈阳,沈阳,024,,北站/市府,小北关街202巷30-1号,景点,广场,123.446394,41.818996
黎明园,辽宁,沈阳,沈阳,024,,黎明广场,珠林路207号附近,景点,公园/广场,123.493229,41.812475
初教6飞机,辽宁,沈阳,沈阳,024,,三台子,陵北街1号沈飞航空博览园内,景点,更多景点/周边游,123.433214,41.864084
大运通国旅,辽宁,沈阳,沈阳,024,,辽宁大学南校区,崇山西路北,景点,旅行社,123.399493,41.830656
未来动物城,辽宁,沈阳,沈阳,024,186****0503,东中街,东中街大悦城D馆3楼,景点,动物园,123.471148,41.802098
紫云宫妙法堂,辽宁,沈阳,沈阳,024,,和泰馨城,迎宾路高架152-8号附近,景点,宗教,123.294064,41.801254
沈阳尊荣国旅,辽宁,沈阳,沈阳,024,,新华广场,胜利南街与南九马路交叉路口往西约100米,景点,旅行社,123.384566,41.778046
大运通国旅,辽宁,沈阳,沈阳,024,,长白岛,兴岛路94-1号,景点,旅行社,123.398199,41.730724
金龙国际,辽宁,沈阳,沈阳,024,,砂山,胜利南街沈阳市第一三四中学南九校区西北侧约120米,景点,旅行社,123.384486,41.777996
GNM石墨烯健康科技体验馆,辽宁,沈阳,沈阳,024,,太原街,南五马路250号,景点,科技馆,123.412859,41.776619
游客服务中心,辽宁,沈阳,沈阳,024,,中街/故宫,北顺城路123号盛京龙城1层,景点,公园/广场,123.455767,41.804241
优游谷儿童乐园,辽宁,沈阳,沈阳,024,,虎石台,兴虎街富城时代,景点,游乐场,123.521688,41.950558
皇姑区少年宫,辽宁,沈阳,沈阳,024,,北行/辽大,六盘山路南侧,景点,展览馆,123.409866,41.825406
宏伟殿,辽宁,沈阳,沈阳,024,,于洪广场,东湖街8-2111号附近,景点,人文古迹,123.313749,41.800169
北国国际旅行社,辽宁,沈阳,沈阳,024,,苏家屯区政府,劳动公园北门,景点,旅行社,123.350286,41.666321
沈阳国旅,辽宁,沈阳,沈阳,024,,兴顺夜市,齐贤南街20号2门,景点,旅行社,123.359396,41.796636
康辉旅游,辽宁,沈阳,沈阳,024,,苏家屯区政府,雪松路12号,景点,旅行社,123.340912,41.663932
谋殿,辽宁,沈阳,沈阳,024,,文艺路/文化路,大南街慈恩寺小区239-1号,景点,人文古迹,123.459598,41.783278
信基沙溪酒店用品博览城,辽宁,沈阳,沈阳,024,31419999,道义,义北大街507号,景点,展览馆,123.395211,41.949181
龙泉古园,辽宁,沈阳,沈阳,024,155****6088,皇姑区,昆山中路55号巴兰河街,景点,公园/广场,123.415618,41.818268
大运通国际,辽宁,沈阳,沈阳,024,,新华广场,南京南街176号,景点,旅行社,123.392585,41.773615
甜程旅行网,辽宁,沈阳,沈阳,024,24355056,东中街,小东路6号大悦城A馆3楼A3D21室,景点,旅行社,123.466522,41.802362
鱼人游 精致小众境外旅行定制,辽宁,沈阳,沈阳,024,185****2320,浑南新区,浑南西路12号万象九宜城负一层,景点,旅行社,123.452005,41.737545
九山叶子广场,辽宁,沈阳,沈阳,024,,南湖公园/三好街,望湖路15-3号附近,景点,公园/广场,123.408158,41.766346
长白早夜市,辽宁,沈阳,沈阳,024,,长白岛,长白中路与长白一街交汇处路口北侧,景点,夜市,123.382225,41.736637
休息室,辽宁,沈阳,法库县,024,,法库县其他,105省道与203国道交叉口南100米,景点,公园/广场,123.42083,42.232964
深井子文化广场,辽宁,沈阳,沈阳,024,,浑南区,浑南区金紫街东200米,景点,公园/广场,123.660197,41.787175
西塔民族文化街,辽宁,沈阳,沈阳,024,,南市/马路湾,西塔街,景点,步行街,123.42056,41.78978
辽宁康辉国际旅行社,辽宁,沈阳,沈阳,024,159****6683,道义,义北大街53-71号人杰湖地铁口b口,景点,旅行社,123.396658,41.936918
启蒙园,辽宁,沈阳,沈阳,024,,世博园,浑南区浑南区双园路301号沈阳世博园国际展园内,景点,自然景观,123.653271,41.86819
沈北七星公园,辽宁,沈阳,沈阳,024,,道义,七星公园开阳园,景点,公园/广场,123.410405,41.943105
圣同润国旅,辽宁,沈阳,沈阳,024,,沈辽路万达,沈辽路兴华南街万达广场C组团北一门,景点,旅行社,123.358976,41.783586
菊文酒屋,辽宁,沈阳,沈阳,024,,浑南区,棋盘山378号关东影视城内,景点,更多景点/周边游,123.702681,41.949121
寿夫人卧室,辽宁,沈阳,沈阳,024,,中街/故宫,朝阳街少帅府巷46号张氏帅府小青楼内,景点,博物馆,123.458304,41.794365
辽宁和平国际旅行社,辽宁,沈阳,沈阳,024,,浑南新区,浑南中路12号-33-1门,景点,旅行社,123.486726,41.74462
途牛旅游,辽宁,沈阳,沈阳,024,,长白岛,长白南路279号,景点,旅行社,123.409212,41.729272
大运通国旅,辽宁,沈阳,沈阳,024,136****2561,新城子,贵州路56-7号富宸小区楼下盛京银行斜对面,景点,旅行社,123.523985,42.050595
米卡・美术馆,辽宁,沈阳,沈阳,024,31333580,重工街沿线,重工北街65号-2网店北四路玖城乐府北门,景点,美术馆,123.331316,41.809776
炫动体育世界,辽宁,沈阳,沈阳,024,53917777,浑南区,高望路1号,景点,主题公园,123.737852,41.884662
永安国旅,辽宁,沈阳,沈阳,024,,沈辽路万达,兴华南街58号万达广场公寓b座,景点,旅行社,123.359155,41.780995
红木艺术馆,辽宁,沈阳,沈阳,024,186****2567,浑南新区,浑南区浑南区,景点,美术馆,123.494427,41.747567
都市农庄,辽宁,沈阳,沈阳,024,82516111,浑南新区,博览路k11购物中心四层,景点,展览馆,123.437699,41.7505
工巢文创园,辽宁,沈阳,沈阳,024,,沈辽路万达,沈辽东路56号,景点,创意园区,123.366418,41.782208
辽宁和平国际旅行社,辽宁,沈阳,沈阳,024,,铁西广场,建设中路25号,景点,旅行社,123.365295,41.796204
沈阳国旅,辽宁,沈阳,沈阳,024,153****9489,重工街沿线,南十西路富强综合市场东南侧约230米,景点,旅行社,123.325644,41.794374
沈阳国际旅行社,辽宁,沈阳,沈阳,024,131****7576,重工街沿线,南七西路15号,景点,旅行社,123.333654,41.800602
大亨铁工厂办公旧址,辽宁,沈阳,沈阳,024,,黎明广场,龙之梦畅园W区,景点,古代遗迹,123.48015,41.802601
中国国旅,辽宁,沈阳,沈阳,024,,兴工街/沈阳站西广场,爱工北街24-1号2门,景点,旅行社,123.381774,41.794885
康辉旅游,辽宁,沈阳,沈阳,024,156****8888,新华广场,南京南街100号汉庭酒店一楼,景点,旅行社,123.394516,41.774684
中国旅行社,辽宁,沈阳,沈阳,024,,皇姑区,黄河街道长江街9号豪登酒店1楼,景点,旅行社,123.412975,41.819751
永安国旅,辽宁,沈阳,沈阳,024,137****7314,兴工街/沈阳站西广场,南六东路7甲8门,景点,旅行社,123.377131,41.787451
携程旅游,辽宁,沈阳,沈阳,024,189****3398,铁西广场,北四东路40-2号,景点,旅行社,123.377714,41.796592
康辉旅游,辽宁,沈阳,沈阳,024,88202828,北二路,云峰北街15号附近,景点,旅行社,123.384795,41.801638
畅游旅行,辽宁,沈阳,沈阳,024,152****6952,于洪新城,吉力湖街199号7门,景点,旅行社,123.34181,41.765581
大运通国旅,辽宁,沈阳,沈阳,024,,北站/市府,哈尔滨路168号金融中心购物广场B1层,景点,旅行社,123.435405,41.812158
携程旅游,辽宁,沈阳,沈阳,024,131****3978,五里河,青年大街123号嘉里城负1层B26室,景点,旅行社,123.437107,41.775377
金碧海湾温泉酒店,辽宁,沈阳,沈阳,024,,丁香湖,广业西路11号,景点,温泉,123.329303,41.837673
华信国旅,辽宁,沈阳,沈阳,024,31332228,皇姑区,华山路298-1号,景点,旅行社,123.395749,41.822059
沈阳国旅,辽宁,沈阳,沈阳,024,187****3162,皇姑区,岐山中路与潭江街交叉口东南约40米,景点,旅行社,123.401283,41.824293
辽宁国际商务旅行社有限公司,辽宁,沈阳,沈阳,024,139****3592,皇姑区,珠江街134号,景点,旅行社,123.406867,41.821187
沈阳老字号博物馆,辽宁,沈阳,沈阳,024,24857023,中街/故宫,沈阳路135号,景点,博物馆,123.454933,41.797417
永安国旅,辽宁,沈阳,沈阳,024,,北二路,虹桥路34-1号7门,景点,旅行社,123.385665,41.805765
中国道教斗母宫,辽宁,沈阳,沈阳,024,,北站/市府,太清宫街8-2号楼1楼,景点,人文古迹,123.446625,41.804065
玉屏旅游,辽宁,沈阳,沈阳,024,132****5735,北站/市府,市府大路375号KFC对面海馨龙宫一侧附近一楼,景点,旅行社,123.438749,41.804939
龙之梦动物园,辽宁,沈阳,沈阳,024,,黎明广场,万泉街道滂江街22号龙之梦购物中心8层,景点,动物园,123.486758,41.807368
鹏博瑞翔旅行社,辽宁,沈阳,沈阳,024,,黎明广场,滂江街22号龙之梦购物中心4层,景点,旅行社,123.486076,41.806271
中国国旅辽宁国际旅行社,辽宁,沈阳,沈阳,024,,兴隆大都汇,建设西路18-17号龙之梦大都汇B1层海外国旅旁边,景点,旅行社,123.345543,41.803853
沈阳青旅,辽宁,沈阳,沈阳,024,,浑南新区,营盘西街17号万达百货B1层,景点,旅行社,123.459619,41.735309
盈科旅游,辽宁,沈阳,沈阳,024,,浑南新区,营盘西街17号万达百货B1层,景点,旅行社,123.459834,41.735204
沈阳国际旅行社,辽宁,沈阳,沈阳,024,,重工街沿线,沈辽西路27号兴隆大天地B1层,景点,旅行社,123.332136,41.777505
辽宁省中国青年旅行社有限公司,辽宁,沈阳,沈阳,024,,重工街沿线,沈辽西路27号兴隆大天地B1层,景点,旅行社,123.331823,41.777863
携程旅游,辽宁,沈阳,沈阳,024,138****9717,北二路,北二中路6号星摩尔F2层,景点,旅行社,123.376212,41.80899
绮霞园,辽宁,沈阳,沈阳,024,23452020,南市/马路湾,南三经街,景点,公园/广场,123.426944,41.785234
禅净慧堂,辽宁,沈阳,沈阳,024,,皇姑区,雪山路沈厂舍宅小区,景点,宗教,123.404556,41.821786
万国屋水吧,辽宁,沈阳,沈阳,024,138****2047,太原街,太原南街16号正东方向60米,景点,步行街,123.398258,41.790418
康辉旅游,辽宁,沈阳,沈阳,024,,浑南新区,五三街道浑南中路10-7号,景点,旅行社,123.489402,41.745012
保安寺便民亭,辽宁,沈阳,沈阳,024,,南湖公园/三好街,保安寺街中国医科大学附属盛京医院(南湖院区)西北侧,景点,景点/周边游,123.424687,41.773937
盈科旅游,辽宁,沈阳,沈阳,024,31017771,保工街,南九中路70-1号,景点,旅行社,123.349342,41.791991
携程旅游说走就走,辽宁,沈阳,沈阳,024,130****8040,沈辽路万达,兴华南街55-22号7门,景点,旅行社,123.354276,41.780746
大运通国旅,辽宁,沈阳,沈阳,024,,小白楼,天山路247号附近,景点,旅行社,123.388094,41.817034
