名称,省份,真实城市,市县区,区号,电话,区域,地址,大分类,小分类,经度,纬度
长沙简牍博物馆,湖南,长沙,长沙,0731,85425680;85425676,天心阁/白沙井,白沙路92号,景点,博物馆,112.983139,28.184862
中国花炮文化博物馆,湖南,长沙,浏阳,0731,83809333,大瑶镇,花炮北路与思邈路交叉口南200米路东,景点,博物馆,113.725388,27.990294
天心公园,湖南,长沙,长沙,0731,82222404,天心阁/白沙井,天心路88号,景点,公园/广场,112.98175,28.184631
晓园公园,湖南,长沙,长沙,0731,82297258,袁家岭/火车站,五一大道70号,景点,公园/广场,113.008385,28.19507
紫凤公园,湖南,长沙,长沙,0731,84481649,伍家岭/开福寺,新河路69号,景点,公园/广场,112.976494,28.226225
南郊公园,湖南,长沙,长沙,0731,85413219,新开铺,南二环二段442号,景点,森林公园,112.965614,28.140978
星沙公园,湖南,长沙,长沙县,0731,,长沙经济技术开发区,星沙经济技术开发区金茂路3号,景点,公园/广场,113.075249,28.236176
湖南烈士公园,湖南,长沙,长沙,0731,84556766,开福区,东风路22号,景点,烈士陵园,112.99971,28.21003
八路军驻湘通讯处旧址,湖南,长沙,长沙,0731,82227830,芙蓉广场,蔡锷中路徐祠巷19号,景点,古代遗迹,112.981613,28.197769
湖南民俗文化村,湖南,长沙,长沙,0731,82186897,梦泽园,车站北路465号湖南烈士公园,景点,古村古镇,113.007149,28.211872
橘子洲景区,湖南,长沙,长沙,0731,88882152,橘子洲公园,橘子洲景区,景点,自然风光,112.963089,28.19655
古开福寺,湖南,长沙,长沙,0731,84485300,伍家岭/开福寺,开福寺路52号,景点,宗教,112.978333,28.224369
长沙世界之窗,湖南,长沙,长沙,0731,84256888;84256733,月湖公园/长沙大学,三一大道485号,景点,主题乐园,113.054892,28.236702
黄兴墓,湖南,长沙,长沙,0731,88825058,河西大学城,登高路58号岳麓山国家重点风景名胜区内,景点,古代遗迹,112.931946,28.180494
古麓山寺,湖南,长沙,长沙,0731,88825011,河西大学城,麓山路82岳麓山风景名胜区,景点,宗教,112.934364,28.180302
新民学会成立会旧址,湖南,长沙,长沙,0731,88883401,煌逭/新外滩,望月湖街道新民路周家巷2号,景点,古代遗迹,112.952286,28.193447
贾谊故居,湖南,长沙,长沙,0731,84456156;82272799,五一广场,太平街28号,景点,纪念馆,112.971992,28.192659
湖南雷锋纪念馆,湖南,长沙,长沙,0731,88107959;88165506,望城区,振兴路42号,景点,纪念馆,112.845161,28.20384
长沙海底世界,湖南,长沙,长沙,0731,84256005;84256002,月湖公园/长沙大学,三一大道501号,景点,海洋馆,113.055726,28.232149
石燕湖,湖南,长沙,长沙,0731,86968065;89569049,雨花区,石燕铺石燕湖景区,景点,自然风光,113.085892,28.01355
陈天华和姚宏业墓,湖南,长沙,长沙,0731,88825058,河西大学城,登高路58号岳麓山国家重点风景名胜区内,景点,古代遗迹,112.934914,28.181381
云麓宫,湖南,长沙,长沙,0731,88825011,河西大学城,登高路58号岳麓山国家重点风景名胜区内,景点,历史建筑,112.933884,28.177353
蟒蛇洞,湖南,长沙,长沙,0731,88825011,河西大学城,登高路58号,景点,自然风光,112.936707,28.185368
五轮塔,湖南,长沙,长沙,0731,88825011,河西大学城,岳麓山风景名胜区麓山景区,景点,历史建筑,112.939919,28.179226
岳麓山风景名胜区,湖南,长沙,长沙,0731,88825011,河西大学城,登高路58号,景点,自然风光,112.936752,28.183702
岳麓书院,湖南,长沙,长沙,0731,88823764,河西大学城,麓山路273号,景点,古代遗迹,112.940826,28.180407
长沙红星国际会展中心,湖南,长沙,长沙,0731,85881088,红星国际会展中心,中意一路492号,景点,展览馆,113.013489,28.106745
萧朝贵阵亡处,湖南,长沙,长沙,0731,,南门口,劳动西路133号附近,景点,更多景点/周边游,112.974983,28.178486
天心阁,湖南,长沙,长沙,0731,85155379,天心阁/白沙井,天心路17号,景点,古代遗迹,112.98143,28.183735
白沙古井,湖南,长沙,长沙,0731,88666280,天心阁/白沙井,白沙路贺龙体育中心旁,景点,人文古迹,112.98053,28.179068
桃子湖,湖南,长沙,长沙,0731,,河西大学城,桔子洲街道湖南师范大学校门处（湖南师范大学附中旁）,景点,自然风光,112.95237,28.181477
梅公馆旧址,湖南,长沙,长沙,0731,,人民西路口,学宫门正街23号,景点,古代遗迹,112.970932,28.185789
月湖公园,湖南,长沙,长沙,0731,88873787,月湖公园/长沙大学,万家丽北路与三一大道交汇处西北角（近长沙学院正南面）,景点,城市公园,113.033257,28.236973
湖南省植物园,湖南,长沙,长沙,0731,85233238,天际岭,植物园路111号,景点,植物园,113.03215,28.103121
湖南省展览馆,湖南,长沙,长沙,0731,82225259,松桂园,营盘东路19号,景点,展览馆,112.989433,28.204706
杜甫江阁,湖南,长沙,长沙,0731,89824455,黄兴路步行街,湘江中路108号,景点,现代建筑,112.968636,28.184418
灰汤华天城温泉,湖南,长沙,宁乡市,0731,87456888,灰汤温泉镇,灰汤镇华天路1号华天城温泉度假酒店,景点,温泉,112.357376,27.980362
湘江风光带,湖南,长沙,长沙,0731,85579792,劳动广场/书院路,坡子街街道白沙路,景点,更多景点/周边游,112.968117,28.179171
太平街,湖南,长沙,长沙,0731,84394488,五一广场,五一大道与太平街交叉口南侧,景点,步行街,112.972061,28.193512
黄兴路步行街,湖南,长沙,长沙,0731,82259901;88842777,黄兴路步行街,黄兴南路司门口,景点,步行街,112.976761,28.191114
北正街基督教堂,湖南,长沙,长沙,0731,,中山亭/乐和城,黄兴北路76号,景点,宗教,112.976089,28.203529
浏阳烈士公园,湖南,长沙,浏阳,0731,83611989,淮川街道,北正中路99号,景点,公园/广场,113.627831,28.142721
长沙滨江文化园,湖南,长沙,长沙,0731,82892811,伍家岭/开福寺,湘江北路北辰时代广场旁,景点,自然风光,112.979599,28.241806
湘府文化园,湖南,长沙,长沙,0731,,新省政府,芙蓉南路与湘府西路交口西湘府文化园,景点,文化公园,112.98294,28.110343
靖港古镇,湖南,长沙,长沙,0731,88306970,望城区,靖港镇少先路与保安街交叉口西侧,景点,古村古镇,112.790276,28.457466
洪山公园,湖南,长沙,长沙,0731,,珠江花城/万国城,福元西路199号万国城MOMA对面,景点,公园/广场,112.999383,28.251173
长沙园林生态园,湖南,长沙,长沙,0731,86678012,开福区,捞刀河镇罗汉庄村,景点,植物园,113.040894,28.296188
月亮岛,湖南,长沙,长沙,0731,88137666,望城区,普瑞东路与潇湘北路交叉口湘江西岸,景点,自然风光,112.936523,28.299686
麓谷公园,湖南,长沙,长沙,0731,,麓谷,天顶街道麓龙路209号,景点,公园/广场,112.895195,28.214687
橘子洲大桥,湖南,长沙,长沙,0731,,橘子洲公园,五一大道橘子洲公园旁,景点,更多景点/周边游,112.962074,28.196615
周洛大峡谷,湖南,长沙,浏阳,0731,83542158;137****1063,浏阳市其他,社港镇周洛大峡谷风景区,景点,自然风光,113.666687,28.433393
大围山国家森林公园,湖南,长沙,浏阳,0731,83488701;83488188,浏阳市其他,大围山镇大围山国家森林公园,景点,森林公园,114.11718,28.417421
咸嘉湖唐墓,湖南,长沙,长沙,0731,,咸嘉湖,咸嘉湖旁,景点,古代遗迹,112.936546,28.212076
北津城遗址,湖南,长沙,长沙,0731,,银盆岭,三汊矶内,景点,古代遗迹,112.947906,28.256189
肖劲光故居,湖南,长沙,长沙,0731,,河西大学城,天马村照洲港29号,景点,名人故居,112.952209,28.172358
禹之谟墓,湖南,长沙,长沙,0731,88825011,河西大学城,麓山路82号岳麓山风景名胜区,景点,古代遗迹,112.934677,28.18149
船山学社,湖南,长沙,长沙,0731,82222126,芙蓉广场,中山路74号,景点,人文古迹,112.982063,28.199474
芙蓉广场,湖南,长沙,长沙,0731,,芙蓉广场,五一大道与芙蓉中路交汇处北行100米路西,景点,广场,112.984848,28.196074
风帆广场,湖南,长沙,长沙,0731,,开福万达广场,湘雅路街道湘江中路168号,景点,公园/广场,112.971977,28.20928
圣母无染原罪主教座堂,湖南,长沙,长沙,0731,,兴汉门,湘春巷8号天主堂,景点,宗教,112.979546,28.210266
湖南省群众艺术馆,湖南,长沙,长沙,0731,,芙蓉南路沿线,桂花坪街道韶山北路137号（三馆一中心）,景点,美术馆,112.980354,28.108354
华夏剪纸博物馆,湖南,长沙,长沙,0731,151****4757,郭亮中路,文源中路30号,景点,博物馆,112.817413,28.355019
黄兴故居纪念馆,湖南,长沙,长沙县,0731,86880133,黄兴镇,黄兴镇黄兴新村凉塘组,景点,纪念馆,113.104263,28.117085
浏阳博物馆,湖南,长沙,浏阳,0731,83629445,淮川街道,圭斋东路81号,景点,博物馆,113.633888,28.142893
谭嗣同纪念馆,湖南,长沙,浏阳,0731,83612877,淮川街道,才常路89号,景点,纪念馆,113.630547,28.13607
隋舍利塔,湖南,长沙,长沙,0731,88825011,河西大学城,岳麓山,景点,历史建筑,112.93721,28.179752
屈子祠,湖南,长沙,长沙,0731,88825011,河西大学城,岳麓山登高路58号,景点,历史建筑,112.939812,28.180494
云麓长廊,湖南,长沙,长沙,0731,88825011,河西大学城,岳麓山山顶,景点,更多景点/周边游,112.952629,28.16567
大韩民国临时政府活动旧址,湖南,长沙,长沙,0731,85180887,中山亭/乐和城,潮宗街楠木厅6号,景点,古代遗迹,112.973808,28.202276
穿石坡湖,湖南,长沙,长沙,0731,88825011,河西大学城,岳麓街道麓山路82号岳麓山风景名胜区,景点,自然风光,112.936581,28.175611
刘道一墓,湖南,长沙,长沙,0731,,河西大学城,登高路58号岳麓山国家重点风景名胜区内,景点,古代遗迹,112.936661,28.179703
张辉瓒墓,湖南,长沙,长沙,0731,,河西大学城,登高路58号岳麓山国家重点风景名胜区内,景点,古代遗迹,112.935074,28.181252
陶公庙,湖南,长沙,长沙县,0731,86806156,榔梨镇,榔梨街道梨街道街中心（近浏阳河）,景点,宗教,113.111252,28.181198
予园公馆,湖南,长沙,长沙,0731,,天心阁/白沙井,大古道巷吊马庄1号,景点,人文古迹,112.978516,28.185074
西文庙坪牌坊,湖南,长沙,长沙,0731,,人民西路口,坡子街街道学院街,景点,宗教,112.971832,28.184841
长沙生态动物园,湖南,长沙,长沙,0731,85476922;85476906,友阿奥特莱斯,芙蓉南路四段729号,景点,动物园,113.004135,28.033148
紫龙湾温泉,湖南,长沙,宁乡市,0731,88650406,灰汤温泉镇,灰汤镇将军路2号温泉度假区,景点,温泉,112.346222,27.979361
乐行天下国际旅行社,湖南,长沙,长沙,0731,82095308;82095328,梦泽园,车站北路168号都市先锋B座617室,景点,旅行社,113.009422,28.206049
浏阳石牛寨风景区,湖南,长沙,浏阳,0731,189****5220,浏阳市其他,社港镇石牛村上屋组,景点,自然风光,113.594734,28.403992
拱极楼,湖南,长沙,长沙,0731,88882152,橘子洲公园,橘子洲头2号橘子洲公园以北,景点,历史建筑,112.9636,28.200127
旅游百事通,湖南,长沙,长沙,0731,181****2967,梓园路/省儿童医院,韶山北路460号兴威名座大厦B座1710室,景点,旅行社,112.997698,28.172338
湖南省中国国际旅行社,湖南,长沙,长沙,0731,135****9368,银盆岭,芙蓉中路一段88号天健芙蓉盛世130号,景点,旅行社,112.986709,28.225169
密印寺,湖南,长沙,宁乡市,0731,87351177,宁乡市其他,沩山山腰毗卢峰下,景点,宗教,111.970947,28.176386
何叔衡故居,湖南,长沙,宁乡市,0731,87360106,宁乡市其他,长冲村杓子冲附近,景点,名人故居,112.042999,28.050797
铁炉寺,湖南,长沙,长沙,0731,,开福区,汉回村铁炉冲,景点,宗教,113.031685,28.312174
洗心禅寺,湖南,长沙,长沙,0731,88382000,长沙医学院,金山桥街道金星文化旅游园洗心路,景点,宗教,112.859093,28.278519
长沙基督教会,湖南,长沙,长沙,0731,85561505,湘雅附一医院,外湘春街80号,景点,宗教,112.978096,28.211313
清真寺,湖南,长沙,长沙,0731,85813658,天心阁/白沙井,回龙山白沙岭清真寺,景点,宗教,112.982635,28.180164
基督教城南堂,湖南,长沙,长沙,0731,85131910,南门口,黄兴南路56号,景点,宗教,112.976425,28.180485
基督教循道会教堂旧址,湖南,长沙,宁乡市,0731,,玉潭镇,西长街,景点,宗教,112.564018,28.259598
徐特立公园,湖南,长沙,长沙县,0731,88662008,长沙经济技术开发区,特立路与天华北路交叉口北,景点,公园/广场,113.080353,28.257338
左宗棠墓,湖南,长沙,长沙,0731,138****8696,雨花区,跳马乡白竹村,景点,古代遗迹,113.092595,28.092236
谢觉哉故居,湖南,长沙,宁乡市,0731,,宁乡市其他,沙田乡堆资村,景点,名人故居,112.060997,28.079515
望麓园故址,湖南,长沙,长沙,0731,,松桂园,建湘中路,景点,古代遗迹,112.983772,28.201431
百事通国际旅行社,湖南,长沙,长沙,0731,84258497,铁道学院/林科大,芙蓉南路一段368号CTA财富中心1楼,景点,旅行社,112.9864,28.135481
宝中旅游,湖南,长沙,长沙,0731,85574400,黄土岭,中路三段289号,景点,旅行社,112.98536,28.15933
蔡和森故居,湖南,长沙,长沙,0731,88883401,煌逭/新外滩,新民路88号,景点,纪念馆,112.952568,28.193211
陈继武菊花石艺术陈列馆,湖南,长沙,浏阳,0731,83623874,淮川街道,才常路146号,景点,陈列馆,113.63176,28.13619
长沙市风光假日旅行社,湖南,长沙,浏阳,0731,83664528,集里街道,石霜路302号,景点,旅行社,113.625878,28.155498
凤形山公园,湖南,长沙,长沙县,0731,,长沙县,金福路,景点,公园/广场,113.371982,28.526056
刘廷芳公馆旧址,湖南,长沙,长沙,0731,,湘雅附一医院,铁佛东街72号,景点,古代遗迹,112.979201,28.213106
罗伟菊花石艺术奇珍馆,湖南,长沙,浏阳,0731,,淮川街道,才常路140号,景点,美术馆,113.631622,28.136206
秋收起义纪念园,湖南,长沙,浏阳,0731,83770210,浏阳市其他,文家市镇人民路34号,景点,纪念公园,113.93103,28.043102
十佳组团旅行社,湖南,长沙,长沙,0731,82567500,梦泽园,车站北路375号门面,景点,旅行社,113.00847,28.20813
松柏寺,湖南,长沙,长沙县,0731,84020717,星沙一桥,星沙街道东升路44号,景点,宗教,113.073776,28.237736
湖南卫视旅行社,湖南,长沙,长沙,0731,82297977,袁家岭/火车站,五一大道24号,景点,旅行社,113.010182,28.194585
新康辉国际旅行社,湖南,长沙,宁乡市,0731,87800521,人人乐,东沩西路52号,景点,旅行社,112.56094,28.26528
易元和美术馆,湖南,长沙,长沙,0731,,河西大学城,韭菜园南路新富城富安大厦10楼3号,景点,美术馆,112.987409,28.182269
斑马湖,湖南,长沙,长沙,0731,82384698,郭亮中路,高塘岭大道,景点,自然风光,112.82515,28.357985
梅溪湖公园,湖南,长沙,长沙,0731,186****0338,梅溪湖,梅溪湖街道梅溪湖路（近汽车西站）,景点,公园/广场,112.897362,28.187366
龙骧旅行社,湖南,长沙,长沙,0731,85422777,袁家岭/火车站,八一路35号,景点,旅行社,113.008499,28.197071
宁乡千佛洞,湖南,长沙,宁乡市,0731,87550989,黄材旅游区,黄材镇石龙洞村,景点,自然风光,112.139198,28.214291
千佛洞石林公园,湖南,长沙,宁乡市,0731,132****6789,黄材旅游区,黄材镇石龙洞村千佛洞景区（近千佛洞景区售票厅）,景点,公园/广场,112.138153,28.214546
旅游百事通,湖南,长沙,长沙,0731,89876789,东塘,砂子塘路126号,景点,旅行社,112.999101,28.162239
兴隆生态园,湖南,长沙,长沙,0731,86933888,天心区,桂升路,景点,动植物园,112.935424,28.066984
长沙乐林游乐园,湖南,长沙,长沙,0731,155****1269,天际岭,湘府东路森林植物园新北门（湖南省森林植物园内）,景点,主题公园,113.033943,28.107382
和一国际旅行社有限公司,湖南,长沙,长沙,0731,85058111;189****3027,黄土岭,芙蓉中路三段266号弘林国际大厦10楼1003室,景点,旅行社,112.985239,28.16552
古风洞,湖南,长沙,浏阳,0731,83432888;4000073177,浏阳市其他,高坪镇沿甸村古风洞,景点,自然风光,113.79605,28.220311
响鼓岭,湖南,长沙,长沙,0731,88825011,河西大学城,西湖街道岳麓山风景名胜区麓山景区云麓宫后,景点,自然风光,112.931824,28.177635
海联国际旅行社,湖南,长沙,宁乡市,0731,87878397,宁乡大道,金州长道通程温泉大酒店,景点,旅行社,112.56485,28.273832
谭家坡遗址公园,湖南,长沙,长沙,0731,,望城区,铜官中学西北侧约90米,景点,公园/广场,112.810608,28.476128
和之旅旅行社,湖南,长沙,长沙,0731,82079998;83889590,窑岭/长岭,韶山北路81号君临天厦君惠楼903室（人民路佳润多旁）,景点,旅行社,113.007172,28.18449
湖南省科技馆,湖南,长沙,长沙,0731,89808522;89808523,芙蓉南路沿线,杉木冲西路9号,景点,科技馆,112.986062,28.107968
灰汤金太阳温泉度假村,湖南,长沙,宁乡市,0731,82033148;87057199,灰汤温泉镇,灰汤镇金太阳温泉,景点,温泉,112.337448,27.997158
海联国际旅行社,湖南,长沙,长沙,0731,189****2300;181****3206,东塘,韶山北路431号瑞府C3231-3232室,景点,旅行社,112.997787,28.171541
商旅国际旅行社,湖南,长沙,长沙,0731,84226155,东塘,韶山北路460号,景点,旅行社,112.995269,28.17233
冠君国际旅行社,湖南,长沙,长沙,0731,86456566,五里牌,远大路88号,景点,旅行社,113.013688,28.197818
三益生态山庄,湖南,长沙,长沙,0731,137****7323,望城区,金洲大道,景点,动植物园,112.799286,28.219346
西湖山温泉,湖南,长沙,长沙,0731,,人民中路/朝阳路/融圣国际,人民中路9号百脑汇A-13南座,景点,温泉,113.007177,28.184497
洋湖湿地公园,湖南,长沙,长沙,0731,88768889,含浦,坪塘大道先导牛广场,景点,城市公园,112.94799,28.121191
灰汤桃花谷,湖南,长沙,宁乡市,0731,87295788,灰汤温泉镇,灰汤镇新联村桃花谷,景点,自然风光,112.35743,27.989008
马王堆汉墓遗址,湖南,长沙,长沙,0731,84538605,万家丽北路,古汉路89号,景点,古代遗迹,113.027368,28.205483
蓝天旅行社,湖南,长沙,长沙,0731,,铁道学院/林科大,韶山南路123号华翼府B座1105室,景点,旅行社,112.995546,28.143046
青竹湖旅行社,湖南,长沙,长沙,0731,82229773,青竹湖/芒果汽车,青竹湖镇霞凝小区,景点,旅行社,112.954116,28.341856
湖南卓越国际旅行社,湖南,长沙,长沙,0731,88714505;185****0575,天心阁/白沙井,芙蓉中路二段168-1号摩天一号一座1107室,景点,旅行社,112.985177,28.179419
谭馥墓,湖南,长沙,长沙,0731,,市政府,黄兴墓小月亮坪下,景点,古代遗迹,112.931329,28.235094
黄爱庞人铨墓,湖南,长沙,长沙,0731,,河西大学城,登高路58号岳麓山国家重点风景名胜区内,景点,古代遗迹,112.939522,28.176981
湘西青旅,湖南,长沙,长沙,0731,84164268;84154268,袁家岭/火车站,车站中路193号国储电脑城2714室,景点,旅行社,113.010635,28.191944
虹艺术馆,湖南,长沙,长沙,0731,82815155,窑岭/长岭,韶山北路263号鸿铭中心北苑K座3层,景点,美术馆,112.999214,28.183468
宝中旅游,湖南,长沙,长沙,0731,,五里牌,远大一路78号,景点,旅行社,113.013052,28.197765
火宫殿牌楼,湖南,长沙,长沙,0731,85814228,坡子街,坡子街127号,景点,历史建筑,112.973755,28.190268
三王街,湖南,长沙,长沙,0731,,解放西路,解放西路,景点,步行街,112.973434,28.191275
观音寺,湖南,长沙,浏阳,0731,,浏阳市其他,秀石公路,景点,宗教,113.378677,28.365391
楚天旅行社,湖南,长沙,浏阳,0731,,淮川街道,浏阳河中路187号,景点,旅行社,113.63556,28.139275
石柱峰风景区,湖南,长沙,浏阳,0731,,浏阳市其他,008县道,景点,自然风光,113.648117,28.405539
浏阳市旅游局游客咨询服务中心,湖南,长沙,浏阳,0731,,淮川街道,圭斋东路218号,景点,旅行社,113.637517,28.143441
周大仙人庙,湖南,长沙,浏阳,0731,,浏阳市其他,大光园街65号,景点,宗教,113.820358,28.376303
陶泗王爷庙,湖南,长沙,浏阳,0731,,浏阳市其他,007县道北200米,景点,宗教,113.625114,28.116863
活龙寺,湖南,长沙,浏阳,0731,,浏阳市其他,博艺幼儿园北侧约240米,景点,宗教,113.593559,28.048592
杨孝子庙,湖南,长沙,浏阳,0731,,淮川街道,鹿角冲路58号,景点,宗教,113.63356,28.148321
太阳星君庙,湖南,长沙,浏阳,0731,,天马路/将军路,花炮大道,景点,宗教,113.645622,28.139246
经堂庵,湖南,长沙,浏阳,0731,,浏阳市其他,鹤源大道,景点,宗教,113.471329,28.34507
浏阳市观赏植物园,湖南,长沙,浏阳,0731,,浏阳市其他,古港镇浏东公路西50米,景点,植物园,113.792587,28.298706
水口山观音庙,湖南,长沙,浏阳,0731,,浏阳市其他,X005,景点,宗教,113.807299,28.184489
李畋庙,湖南,长沙,浏阳,0731,,大瑶镇,310省道,景点,宗教,113.724747,27.989565
钟佛寺祖师塔园,湖南,长沙,浏阳,0731,,浏阳市其他,浏株路,景点,宗教,113.285149,27.929289
陈真人庙,湖南,长沙,浏阳,0731,,浏阳市其他,309省道狮脑石,景点,宗教,114.158508,28.425129
清安庙,湖南,长沙,浏阳,0731,,浏阳市其他,清安庙三圣殿附近,景点,宗教,113.464795,28.235619
七仙姑殿宫,湖南,长沙,浏阳,0731,,天马路/将军路,浏阳河六桥与005县道交叉口西南100米,景点,景点/周边游,113.652901,28.145338
普济寺,湖南,长沙,浏阳,0731,,浏阳市其他,澄潭江镇310省道,景点,宗教,113.834984,27.989841
玲龙寺,湖南,长沙,浏阳,0731,,浏阳市其他,祝源村附近,景点,宗教,113.575996,28.376516
祷泉湖,湖南,长沙,浏阳,0731,,浏阳市其他,大围山国家森林公园七星岭景区内,景点,自然风光,114.165352,28.43012
观音庙,湖南,长沙,浏阳,0731,,浏阳市其他,浏东公路,景点,宗教,113.737358,28.281439
烈士墓,湖南,长沙,浏阳,0731,,浏阳市其他,桐坑南路16号,景点,古代遗迹,113.754181,28.278193
枫林生态旅游区,湖南,长沙,浏阳,0731,,浏阳市其他,山田新街东100米,景点,自然风光,113.560738,28.355654
红一方面军成立旧址,湖南,长沙,浏阳,0731,,浏阳市其他,人民路110号,景点,革命旧址,113.848221,28.301044
培文塔,湖南,长沙,浏阳,0731,,浏阳市其他,县道011号,景点,历史建筑,113.525352,28.42454
青阳山道院,湖南,长沙,浏阳,0731,,淮川街道,城西社区青阳山路1号,景点,宗教,113.623242,28.134175
何氏宗祠,湖南,长沙,浏阳,0731,,浏阳市其他,桥北路,景点,宗教,113.704697,27.919041
生态金桔园,湖南,长沙,浏阳,0731,,浏阳市其他,浏东公路,景点,公园/广场,113.861177,28.391867
真金寺,湖南,长沙,浏阳,0731,,浏阳市其他,008县道东50米,景点,宗教,113.605125,27.984434
思邈公园,湖南,长沙,浏阳,0731,,淮川街道,圭斋东路195号,景点,公园/广场,113.638542,28.145054
李氏家庙,湖南,长沙,浏阳,0731,,浏阳市其他,106国道西100米,景点,宗教,113.705269,27.926567
永丰将军庙,湖南,长沙,浏阳,0731,,浏阳市其他,310省道,景点,宗教,113.961273,28.055733
大围山东麓园风景名胜区,湖南,长沙,浏阳,0731,,浏阳市其他,309省道,景点,景点/周边游,114.201261,28.411861
张仙姑庙,湖南,长沙,浏阳,0731,,浏阳市其他,李畋路湖南外国语职业学院(浏阳校区)东南侧约140米,景点,宗教,113.663445,28.172945
仙人庙,湖南,长沙,浏阳,0731,,浏阳市其他,浏河路西50米,景点,宗教,113.459892,28.335178
柳氏支祠,湖南,长沙,浏阳,0731,,浏阳市其他,310省道,景点,宗教,114.025368,28.070808
市城隍庙,湖南,长沙,浏阳,0731,,浏阳市其他,燎原路新屋岭小学东北侧约240米,景点,宗教,113.628162,28.172118
满意旅行社,湖南,长沙,浏阳,0731,83663605,淮川街道,劳动北路体育中心21号,景点,旅行社,113.63055,28.151946
将军纪念馆,湖南,长沙,浏阳,0731,,浏阳市其他,桥北路10号,景点,纪念馆,113.687813,27.905174
显应宫,湖南,长沙,浏阳,0731,,浏阳市其他,055乡道,景点,历史建筑,113.95311,28.211769
强兴公园,湖南,长沙,浏阳,0731,,浏阳市其他,强兴大道,景点,公园/广场,113.597206,28.161749
美人谷,湖南,长沙,浏阳,0731,,浏阳市其他,008县道,景点,自然风光,113.648438,28.405632
三元宫,湖南,长沙,浏阳,0731,,浏阳市其他,关口街道浏阳河东路南50米,景点,宗教,113.66581,28.149006
张氏家庙,湖南,长沙,浏阳,0731,,浏阳市其他,荆石公路东50米,景点,宗教,113.7807,28.075929
问津古寺巷,湖南,长沙,浏阳,0731,83666693,淮川街道,淮川街道,景点,宗教,113.629158,28.137241
象形风景区,湖南,长沙,浏阳,0731,82722598,浏阳市其他,秋收起义纪念碑附近,景点,自然风光,113.881622,28.404404
观音堂,湖南,长沙,浏阳,0731,,浏阳市其他,长浏高速公路,景点,宗教,113.70145,28.038674
大围山旅客服务中心,湖南,长沙,浏阳,0731,,浏阳市其他,大围山国家森林公园内,景点,公园/广场,114.077072,28.424133
溯源探险漂流接待处,湖南,长沙,浏阳,0731,,浏阳市其他,东白路,景点,旅行社,114.077234,28.423971
和兴旅游租赁,湖南,长沙,浏阳,0731,83606775;83606776,浏阳市其他,金沙南路340号,景点,旅行社,113.63976,28.12165
王首道同志故居,湖南,长沙,浏阳,0731,,浏阳市其他,309省道,景点,名人故居,114.19912,28.366636
浏阳龙王庙,湖南,长沙,浏阳,0731,,浏阳市其他,011县道,景点,宗教,113.409497,28.448388
紫云山,湖南,长沙,浏阳,0731,,浏阳市其他,G106,景点,自然风光,113.530711,28.307351
狮山书院,湖南,长沙,浏阳,0731,,浏阳市其他,109县道北150米,景点,历史建筑,113.758728,28.282253
南峰寺,湖南,长沙,浏阳,0731,,浏阳市其他,澄潭江镇310省道,景点,宗教,113.820175,27.994741
龙王祠,湖南,长沙,浏阳,0731,,浏阳市其他,G106,景点,宗教,113.554832,28.216026
普照寺,湖南,长沙,浏阳,0731,,浏阳市其他,小河希望中学东300米,景点,景点/周边游,114.068451,28.217234
栗木桥景区,湖南,长沙,浏阳,0731,,浏阳市其他,大围山国家森林公园内,景点,自然风光,114.079857,28.422134
大围山楚东万亩桃林观光园,湖南,长沙,浏阳,0731,,浏阳市其他,河西路浏阳市大围山镇东门完全小学西北侧约180米,景点,更多景点/周边游,114.016335,28.457664
祖宗庙,湖南,长沙,浏阳,0731,,浏阳工业园,洞阳镇,景点,宗教,113.424194,28.21142
向阳广场,湖南,长沙,浏阳,0731,,浏阳市其他,创业大道231号,景点,广场,113.925125,28.042189
圣帝庙,湖南,长沙,浏阳,0731,,浏阳市其他,008县道东50米,景点,宗教,113.605141,27.984434
客家大观园,湖南,长沙,浏阳,0731,186****9999,浏阳市其他,大围山镇大围山国家森林公园栗木桥景区内,景点,更多景点/周边游,114.073914,28.421373
邱氏族祠,湖南,长沙,浏阳,0731,,大瑶镇,瑶礼路203号,景点,宗教,113.722099,27.957321
浏阳钟馗庙,湖南,长沙,浏阳,0731,,浏阳市其他,X016号,景点,宗教,113.342056,27.859665
牵手旅行社,湖南,长沙,浏阳,0731,83630443,淮川街道,人民东路与浏阳河中路交叉口西北50米,景点,旅行社,113.63838,28.143799
永安南岳庙,湖南,长沙,浏阳,0731,83208654,永安镇,中和西街与永中路交叉口西北150米,景点,宗教,113.291107,28.218643
乌龙山,湖南,长沙,浏阳,0731,,浏阳市其他,S20长浏高速附近,景点,自然风光,113.519203,28.224974
浏河第一湾,湖南,长沙,浏阳,0731,155****2088,浏阳市其他,沿溪镇新路组,景点,自然风光,113.839134,28.324144
仕节公祠,湖南,长沙,浏阳,0731,,浏阳市其他,310省道,景点,宗教,113.764992,27.992895
浏阳民俗文化步行街,湖南,长沙,浏阳,0731,,行政中心,淮川街道将军广场一角,景点,步行街,113.630219,28.155855
龙王宫,湖南,长沙,浏阳,0731,,大瑶镇,财神路70号,景点,历史建筑,113.727837,27.969316
雷公园,湖南,长沙,浏阳,0731,,浏阳市其他,葛家镇103省道,景点,公园/广场,113.41063,28.039019
长塘庙福保山,湖南,长沙,浏阳,0731,,浏阳市其他,106国道,景点,景点/周边游,113.514876,28.276136
包公庙,湖南,长沙,浏阳,0731,,集里街道,彭家巷33号,景点,宗教,113.623375,28.149096
湖南医药科技文化馆,湖南,长沙,浏阳,0731,,浏阳工业园,康平路58号,景点,科技馆,113.395231,28.219701
锦绣江南园林山庄,湖南,长沙,长沙,0731,,云塘理工/环保科技园,跳马镇,景点,更多景点/周边游,113.048103,28.073353
新康辉国际旅行社,湖南,长沙,长沙,0731,85554311,梓园路/省儿童医院,韶山北路488号东一国际大厦北栋16楼1606室,景点,旅行社,112.994698,28.170925
红星社区公园,湖南,长沙,长沙,0731,,井湾子,井湾子街道新韶东路北50米,景点,公园/广场,113.004295,28.121723
林科院林海生态园,湖南,长沙,长沙,0731,,雨花区,林科院试验林场附近,景点,植物园,113.058731,28.119241
许家老祠堂,湖南,长沙,长沙,0731,,喜盈门/喜乐地,白冶路泰禹云开壹品北侧约80米,景点,宗教,113.04586,28.125877
牵手旅行社有限公司,湖南,长沙,长沙,0731,,天心阁/白沙井,芙蓉中路二段289-291号蔚都大厦7层,景点,旅行社,112.986284,28.176579
科普广场,湖南,长沙,长沙,0731,,桂花路/左家塘,桂花树街156号,景点,广场,113.006523,28.17819
美程国际旅行社,湖南,长沙,长沙,0731,,东塘,劳动中路37号海华嘉园,景点,旅行社,112.997715,28.168805
边山森林公园,湖南,长沙,长沙,0731,,雨花区,东山街道杨子路与红旗路交叉路口往西南约100米（和顺石油侯照加油站西侧约200米）,景点,森林公园,113.068277,28.118054
华天国际旅行社,湖南,长沙,长沙,0731,,古曲路/浏阳河婚庆文化园,人民东路390号,景点,旅行社,113.035623,28.183783
江神庙,湖南,长沙,长沙,0731,186****7835,橘子洲公园,橘洲民俗文化园的中部休闲区,景点,宗教,112.963287,28.198986
保利・麓谷体育公园,湖南,长沙,长沙,0731,88231777,麓谷,桐梓坡西路408号,景点,公园/广场,112.884369,28.220861
石山寺,湖南,长沙,长沙,0731,,岳麓区,望岳街道,景点,宗教,112.911089,28.262156
金科湖湘公园,湖南,长沙,长沙,0731,,青山镇/莱茵城,尖山路西100米,景点,公园/广场,112.885406,28.241179
桃花艺术区,湖南,长沙,长沙,0731,,王家湾,含浦路樟树门小学南侧约200米,景点,步行街,112.922035,28.161045
柏家塘社区公园,湖南,长沙,长沙,0731,,麓谷,枫林三路342号西南方向190米,景点,公园/广场,112.892814,28.197474
宝利来旅行社有限公司,湖南,长沙,长沙,0731,88122321,麓谷,望城坡街道雷锋大道27号,景点,旅行社,112.908382,28.226678
长沙电视塔,湖南,长沙,长沙,0731,,河西大学城,麓山路82号岳麓山风景名胜区长沙广电发射塔旋转观光厅附近,景点,高空观景,112.936775,28.186865
中国书院博物馆,湖南,长沙,长沙,0731,88823764,河西大学城,岳麓山脚下岳麓书院内,景点,博物馆,112.941666,28.179422
麓山忠烈祠,湖南,长沙,长沙,0731,88872448,河西大学城,岳王亭路与桂花路交叉口西北50米,景点,宗教,112.94577,28.189117
岳王亭景区,湖南,长沙,长沙,0731,,河西大学城,岳王亭路,景点,自然风光,112.945618,28.188627
杜鹃广场,湖南,长沙,长沙,0731,,市政府,岳麓大道218号,景点,广场,112.938896,28.226854
洋海塘社区公园,湖南,长沙,长沙,0731,,王家湾,岳麓街道左家垅洋海塘小区内,景点,公园/广场,112.924973,28.158842
岳鞍阁公园,湖南,长沙,长沙,0731,,银盆岭,北二环与长望路交叉路口往东南约290米,景点,公园/广场,112.94087,28.25504
万景园,湖南,长沙,长沙,0731,88825011,河西大学城,麓山路82号岳麓山风景名胜区,景点,展览馆,112.937271,28.172841
南家塘社区公园,湖南,长沙,长沙,0731,,梅溪湖,南家塘80号西北方向40米,景点,公园/广场,112.914604,28.204729
梅岭公园,湖南,长沙,长沙,0731,,涉外经济学院,枫林三路骑龙路口,景点,公园/广场,112.883774,28.194054
金峰公园,湖南,长沙,长沙,0731,,市政府,望岳街道含光路西二环路口公交站,景点,公园/广场,112.922951,28.235615
秀峰山公园,湖南,长沙,长沙,0731,,开福区,芙蓉北路与兴联东路交汇处东北角,景点,公园/广场,112.977347,28.291095
长胜庙,湖南,长沙,长沙,0731,,开福区,双河路315号,景点,宗教,113.009697,28.249449
湖南国画馆,湖南,长沙,长沙,0731,84425898,松桂园,营盘东路19号,景点,美术馆,112.989052,28.20429
逍遥园,湖南,长沙,长沙,0731,,开福区,白霞路,景点,公园/广场,113.033005,28.312601
青少年服务中心,湖南,长沙,长沙,0731,,中山亭/乐和城,又一村巷121号鑫源大厦,景点,展览馆,112.977898,28.202574
沙坪小镇游客服务中心,湖南,长沙,长沙,0731,,开福区,顺天大道与037县道交叉口东南200米,景点,公园/广场,113.023216,28.354097
国货陈列馆旧址,湖南,长沙,长沙,0731,,中山亭/乐和城,中山路176号,景点,陈列馆,112.979507,28.200239
西汉水寨,湖南,长沙,长沙,0731,,开福区,东二环,景点,自然风光,113.01455,28.266131
爱民公园,湖南,长沙,长沙,0731,,开福区,楚家湖路南50米,景点,公园/广场,112.98402,28.27566
湖南中旅,湖南,长沙,长沙,0731,,湘江世纪城,芙蓉北路街道福成路,景点,旅行社,112.985645,28.248811
新开河故址,湖南,长沙,长沙,0731,,伍家岭/开福寺,古开福寺西,景点,古代遗迹,112.976852,28.223661
太阳山森林公园,湖南,长沙,长沙,0731,,开福区,青竹湖街道太阳山路,景点,森林公园,112.966624,28.352273
海外旅游,湖南,长沙,长沙,0731,,兴汉门,湘春路1-6,景点,旅行社,112.985575,28.208003
湖湘天下国际旅行社有限公司,湖南,长沙,长沙,0731,85573455,湘雅附一医院,芙蓉中路一段180号,景点,旅行社,112.986947,28.22049
沙坪湘绣文化广场,湖南,长沙,长沙,0731,86783333,开福区,沙坪街道037县道,景点,广场,113.022942,28.35446
友邻公园,湖南,长沙,长沙,0731,,晚报大道,龙柏路92号,景点,公园/广场,113.022156,28.206688
定王台街道综合文化站,湖南,长沙,长沙,0731,,司门口,大古通巷化龙池18号,景点,展览馆,112.977669,28.186897
公沟遗迹,湖南,长沙,长沙,0731,,黄兴路步行街,人民西路八大公沟遗址旁,景点,人文古迹,112.977737,28.18865
百事通国际旅行社,湖南,长沙,长沙,0731,85789858,晚报大道,纬二路106兴湘国际商务大酒店1楼,景点,旅行社,113.023722,28.199752
程潜公馆,湖南,长沙,长沙,0731,85556569,黄兴路步行街,白果园巷19号,景点,人文古迹,112.977562,28.188755
长沙市少年宫,湖南,长沙,长沙,0731,84443327;82224900,芙蓉广场,蔡锷中路113号,景点,展览馆,112.980316,28.194027
锦泰广场,湖南,长沙,长沙,0731,,袁家岭/火车站,东二环一段1139号,景点,广场,113.017715,28.193489
黄兴广场,湖南,长沙,长沙,0731,135****6468,黄兴路步行街,人民西路251号1栋,景点,广场,112.976006,28.188597
杂交水稻展览馆,湖南,长沙,长沙,0731,,湖南农业大学,马坡岭邮政储蓄点附近,景点,展览馆,113.083702,28.198133
丰泉古井,湖南,长沙,长沙,0731,,天心阁/白沙井,定王台街道蔡锷南路100号,景点,人文古迹,112.980209,28.18866
玉泉寺,湖南,长沙,长沙,0731,,劳动广场/书院路,望岳村街48号,景点,宗教,112.969574,28.156181
城南书院古址,湖南,长沙,长沙,0731,,天心阁/白沙井,天心路88号,景点,历史建筑,112.980247,28.183649
四羊方樽广场,湖南,长沙,长沙,0731,,劳动广场/书院路,湘江中路,景点,广场,112.967255,28.171623
长沙府学宫遗址,湖南,长沙,长沙,0731,,天心阁/白沙井,西文庙坪巷164号,景点,古代遗迹,112.971832,28.184696
何公子贞府君墓,湖南,长沙,长沙,0731,,新开铺,新韶西路229号正东方向10米,景点,古代遗迹,112.972861,28.122151
大椿桥社区公园,湖南,长沙,长沙,0731,82660610,劳动广场/书院路,湘江风光带和平鸽广场对面,景点,公园/广场,112.968309,28.172041
人岛艺术馆,湖南,长沙,长沙,0731,,侯家塘,劳动西路345号,景点,美术馆,112.983444,28.173677
北塘庙,湖南,长沙,长沙,0731,,天心区,新港村,景点,宗教,112.944709,28.046049
青园青少年科普活动中心,湖南,长沙,长沙,0731,158****5560,新省政府,迎新路199号,景点,展览馆,112.999382,28.11503
湘园文化创意公园,湖南,长沙,长沙,0731,,新开铺,书香路与青山路交叉口北200米,景点,文化公园,112.972984,28.11734
电灯公司遗址,湖南,长沙,长沙,0731,,劳动广场/书院路,湘江中路154号,景点,古代遗迹,112.96785,28.176531
脸谱广场,湖南,长沙,长沙,0731,,劳动广场/书院路,湘江中路与湘汉路交叉路口东侧,景点,广场,112.966721,28.168682
白沙广场,湖南,长沙,长沙,0731,88662008,天心阁/白沙井,城南路街道林子冲路与芙蓉中路交叉口西150米,景点,广场,112.985229,28.177292
和平鸽广场,湖南,长沙,长沙,0731,,劳动广场/书院路,湘江中路与白沙路交叉口西南150米,景点,广场,112.967369,28.172581
少奇公园,湖南,长沙,宁乡市,0731,,金洲大道/一中,金洲大道附近,景点,公园/广场,112.551273,28.27683
石佛庙,湖南,长沙,宁乡市,0731,,豪德,三丰宾馆附近,景点,宗教,112.53952,28.251383
王泥庙,湖南,长沙,宁乡市,0731,,宁乡市其他,金洲大道,景点,宗教,112.65004,28.264399
观音古寺,湖南,长沙,浏阳,0731,,浏阳市其他,文苍公路东100米,景点,宗教,113.89267,28.058661
金满地地下商业街,湖南,长沙,宁乡市,0731,,沿江风光带,人民南路和楚沩东路交口北100米,景点,步行街,112.556824,28.248905
杨泗庙,湖南,长沙,宁乡市,0731,,宁乡市其他,康宁路,景点,宗教,112.544665,28.270225
青羊湖国家森林公园,湖南,长沙,宁乡市,0731,,宁乡市其他,黄材镇104县道,景点,森林公园,112.069534,28.166561
下辖神庙,湖南,长沙,宁乡市,0731,,宁乡市其他,辖神庙附近,景点,宗教,112.653015,28.440255
洞门寺,湖南,长沙,宁乡市,0731,,宁乡市其他,102县道,景点,宗教,112.179843,27.941183
洪山庙,湖南,长沙,宁乡市,0731,,宁乡市其他,城郊街道沩丰坝村沩河组287号,景点,宗教,112.583099,28.261522
仙就庵,湖南,长沙,宁乡市,0731,,宁乡市其他,106县道,景点,宗教,112.046305,28.042595
宁乡商业步行街,湖南,长沙,宁乡市,0731,87857599,春城万象/步行街,玉潭街道楚沩东路与人民中路交汇北100米,景点,步行街,112.551659,28.250528
石狮庵,湖南,长沙,宁乡市,0731,87574077,黄材旅游区,石狮庵,景点,宗教,112.120163,28.145664
香山冲水库,湖南,长沙,宁乡市,0731,,宁乡市其他,614乡道附近,景点,自然景观,112.610092,28.180689
商代四羊方尊遗址,湖南,长沙,宁乡市,0731,,宁乡市其他,659乡道东50米,景点,古代遗迹,112.039581,28.211773
竹荆寺,湖南,长沙,宁乡市,0731,,宁乡市其他,新建街18号,景点,宗教,112.67012,28.333338
张南轩墓,湖南,长沙,宁乡市,0731,,宁乡市其他,沩山风景名胜区黄材水库西南,景点,古代遗迹,112.021294,28.124155
广州铁青国际旅行社,湖南,长沙,宁乡市,0731,87552168,南站,白马南路63号,景点,旅行社,112.545199,28.234295
茶亭寺,湖南,长沙,宁乡市,0731,,宁乡市其他,城郊街道,景点,宗教,112.618212,28.286742
南岳行宫,湖南,长沙,宁乡市,0731,,黄材旅游区,黄宁路,景点,历史建筑,112.135834,28.147001
四玛园林,湖南,长沙,宁乡市,0731,,宁乡市其他,319国道,景点,公园/广场,112.678268,28.220369
宁乡南岳庙,湖南,长沙,宁乡市,0731,,宁乡市其他,城郊街道,景点,宗教,112.566002,28.269154
龙凤山风景区,湖南,长沙,宁乡市,0731,,宁乡市其他,208省道,景点,自然风光,112.567673,28.169424
玉溪广场,湖南,长沙,宁乡市,0731,87081518,宁乡市其他,玉潭中路298号,景点,公园/广场,112.55838,28.255388
湖湘天下国际旅行社有限公司,湖南,长沙,宁乡市,0731,87856661,人人乐,花明北路206,景点,旅行社,112.555817,28.26461
金马旅行社,湖南,长沙,宁乡市,0731,,沿江风光带,金满地商业街,景点,旅行社,112.555296,28.249617
棠坡清代民居,湖南,长沙,长沙县,0731,,长沙县,和平村村民活动中心G4层京港澳高速,景点,人文古迹,113.142075,28.399794
承祖寺,湖南,长沙,长沙县,0731,,长沙县,关山路70号,景点,宗教,113.443199,28.530466
天台寺,湖南,长沙,长沙县,0731,,长沙经济技术开发区,滨湖路,景点,宗教,113.113423,28.265275
曹家祠堂,湖南,长沙,长沙县,0731,,长沙经济技术开发区,星沙街道,景点,宗教,113.092178,28.255728
民间艺术博物馆,湖南,长沙,长沙县,0731,,筑梦园/中南汽车世界,雷公岭路与开元西路交叉路口往东北约150米,景点,博物馆,113.065941,28.247326
曾家坊村村民服务中心,湖南,长沙,长沙县,0731,,长沙县,长226乡道北50米,景点,展览馆,113.29445,28.625042
大花村村民服务中心,湖南,长沙,长沙县,0731,,长沙县,白沙路,景点,展览馆,113.297668,28.600016
李维汉故居,湖南,长沙,长沙县,0731,86243785,长沙县,维汉村新屋组,景点,名人故居,113.300024,28.487971
通天庙,湖南,长沙,长沙县,0731,,长沙县,037县道,景点,宗教,113.143555,28.470032
杨开慧生平业绩陈列馆,湖南,长沙,长沙县,0731,86433333,长沙县,开慧中学附近,景点,博物馆,113.213432,28.587044
金甲庙,湖南,长沙,长沙县,0731,,黄花镇/黄花机场,与103省道交叉口东北100米,景点,宗教,113.232979,28.21734
紫霞寺,湖南,长沙,长沙县,0731,,长沙县,035县道,景点,宗教,113.218023,28.074578
湖南国旅,湖南,长沙,长沙,0731,,芙蓉南路沿线,木莲路114号,景点,旅行社,113.003098,28.128138
侨爱农民公园,湖南,长沙,长沙县,0731,,黄兴镇,黄江大道岭煦阳幼儿园东南侧约220米,景点,公园/广场,113.144211,28.125843
白马庙,湖南,长沙,长沙县,0731,,长沙县,207省道,景点,宗教,113.328056,28.444556
街心公园,湖南,长沙,长沙县,0731,,星沙一桥,兴隆路,景点,公园/广场,113.075317,28.232145
鹿芝岭新石器遗址,湖南,长沙,长沙县,0731,,黄兴镇,鹿芝岭,景点,古代遗迹,113.122841,28.110461
城隍庙,湖南,长沙,长沙县,0731,,长沙县,金井镇,景点,宗教,113.385094,28.546782
白鹭湖风景区,湖南,长沙,长沙县,0731,,长沙县,高桥镇金平路,景点,自然风光,113.388328,28.482228
龙井山,湖南,长沙,长沙县,0731,,长沙县,（龙王庙艺术幼儿园东南侧约200米）,景点,自然风光,113.309876,28.303666
临湘山,湖南,长沙,长沙县,0731,,榔梨镇,榔梨上正街长沙县第二人民医院南侧约220米,景点,更多景点/周边游,113.111408,28.180488
徐特立同志故居,湖南,长沙,长沙县,0731,86284890,长沙县,五美中学附近,景点,名人故居,113.286377,28.069376
十方河图观,湖南,长沙,长沙县,0731,,长沙经济技术开发区,028县道,景点,人文古迹,113.110294,28.310535
杨公庙,湖南,长沙,长沙县,0731,,长沙县,骄杨西路82号,景点,宗教,113.213272,28.587414
九江庙,湖南,长沙,长沙,0731,,含浦,S41长潭西高速,景点,宗教,112.859421,28.070211
亭梓庙,湖南,长沙,长沙,0731,,望城区,千龙湖大道,景点,宗教,112.729906,28.414006
南湖公园,湖南,长沙,长沙,0731,,望城步行街,高塘岭大道与雷锋东路交叉口附近,景点,公园/广场,112.823456,28.359905
连湖寺关圣庙,湖南,长沙,长沙,0731,,正荣广场,望城大道35号,景点,宗教,112.830803,28.344776
基督教,湖南,长沙,长沙,0731,,望城区,千龙湖大道南50米,景点,宗教,112.733727,28.424849
关圣庙王白沙洲港二祠土地,湖南,长沙,长沙,0731,,望城区,燕子庄附近,景点,宗教,112.737834,28.383535
新地・东方明珠谷山公园,湖南,长沙,长沙,0731,,月亮岛,金星北路珠江・东方明珠旁,景点,公园/广场,112.922585,28.276455
齐天古庙,湖南,长沙,长沙,0731,,望城区,白箬铺镇金洲大道北50米,景点,宗教,112.754558,28.22379
宁乡会馆,湖南,长沙,长沙,0731,,望城区,保安街,景点,人文古迹,112.790021,28.457161
麓山天池,湖南,长沙,长沙,0731,139****8309,含浦,078县道,景点,更多景点/周边游,112.873529,28.131249
茶洲园,湖南,长沙,长沙,0731,,望城区,燕坡重建地18栋1号东北方向200米,景点,公园/广场,112.840637,28.350567
清净庵,湖南,长沙,长沙,0731,,望城区,雷高路与X074交叉路口往西南约220米,景点,宗教,112.814894,28.331014
戴公庙,湖南,长沙,长沙,0731,,望城区,澳海路张家,景点,宗教,112.901619,28.272558
望城钟馗庙,湖南,长沙,长沙,0731,,望城区,八曲河路与黄桥大道交叉口东360米,景点,宗教,112.801711,28.357725
金峙文化广场,湖南,长沙,长沙,0731,,望城区,076县道东50米,景点,广场,112.731018,28.260647
朗公古庙,湖南,长沙,长沙,0731,,岳麓区,汇智路与金洲大道交汇处东南50米,景点,宗教,112.825931,28.219613
洪山庙,湖南,长沙,长沙,0731,,望城区,074县道,景点,宗教,112.782907,28.309372
泉湖寺,湖南,长沙,长沙,0731,,岳麓区,潭州大道,景点,宗教,112.937948,28.023222
杲山禅寺,湖南,长沙,长沙,0731,133****7872,望城区,072县道,景点,宗教,112.788294,28.384181
长沙古窑,湖南,长沙,长沙,0731,,望城区,（书堂山欧阳询文化园东南侧约250米）,景点,人文古迹,112.889244,28.391651
中格路龙王庙,湖南,长沙,长沙,0731,,望城区,中格路,景点,宗教,112.722076,28.42931
宝祠庵,湖南,长沙,长沙,0731,,望城区,070县道,景点,宗教,112.721245,28.432936
中国青年旅行社,湖南,长沙,长沙,0731,88078111,望城步行街,宝粮中路15号,景点,旅行社,112.821795,28.355382
彭湖湾休闲山庄,湖南,长沙,长沙,0731,150****8807,雨花区,跳马乡石燕湖村,景点,更多景点/周边游,113.093211,28.051886
海尔斯山庄,湖南,长沙,宁乡市,0731,182****3889,宁乡市其他,金洲镇金州新区关山村,景点,更多景点/周边游,112.683784,28.295687
华盛山庄,湖南,长沙,浏阳,0731,83372298,浏阳市其他,淳口镇鸭头村,景点,更多景点/周边游,113.501503,28.342892
2013全国3D魔幻艺术巡展,湖南,长沙,长沙,0731,83385977,袁家岭/火车站,曙光北路119号798城市体验馆,景点,展览馆,113.002808,28.186338
华泰旅行社,湖南,长沙,长沙,0731,89747235;133****7235,高桥,东二环一段668号湖南新海悦大酒店一楼,景点,旅行社,113.01786,28.176891
宝中旅游,湖南,长沙,宁乡市,0731,87856661,人人乐,花明北路190号,景点,旅行社,112.559868,28.268648
华隆旅行社,湖南,长沙,长沙,0731,,东塘,劳动西路528号大华宾馆,景点,旅行社,112.99296,28.16856
亲和力中青旅,湖南,长沙,长沙,0731,85555133,东塘,韶山中路服装交易大楼乐而乐超市,景点,旅行社,112.993864,28.166414
旅游百事通,湖南,长沙,长沙,0731,82061717;85558944,高桥,万家丽路上河国际G2栋,景点,旅行社,113.028516,28.178199
旅游百事通,湖南,长沙,宁乡市,0731,87301777,宁乡大道,宁乡大道,景点,旅行社,112.565132,28.266612
湖南旅游,湖南,长沙,长沙,0731,82060200,铁道学院/林科大,香樟路22号,景点,旅行社,113.002953,28.136023
宝中旅游,湖南,长沙,长沙县,0731,,泉塘/星城国际,榔梨镇新建路,景点,旅行社,113.120683,28.215644
海泉水艺养身,湖南,长沙,长沙县,0731,84018517,星沙一桥,星沙街道天华路45号西80米,景点,温泉,113.08049,28.232967
后湖国际艺术区,湖南,长沙,长沙,0731,,河西大学城,岳麓街道后湖村杜家塘15号,景点,创意园区,112.942963,28.160929
长沙摩天轮,湖南,长沙,长沙,0731,85157270;85158170,劳动广场/书院路,芙蓉中路二段170号贺龙体育广场东北侧,景点,高空观景,112.985601,28.178751
海德公园,湖南,长沙,长沙县,0731,86949999,泉塘/星城国际,东六路178号,景点,公园/广场,113.113235,28.221313
百事通旅行社,湖南,长沙,长沙,0731,151****1676,铁道学院/林科大,井湾子街道香樟路22号,景点,旅行社,113.002635,28.135917
东城镇生态私家园林,湖南,长沙,长沙,0731,,望城区,望城县联城路,景点,自然风光,112.812804,28.509069
柑橘文化园,湖南,长沙,长沙,0731,88882152,橘子洲公园,橘洲路橘子洲大桥南,景点,文化公园,112.960281,28.168976
九道湾社区公园,湖南,长沙,长沙,0731,,晚报大道,长园路与火炬路交叉处,景点,公园/广场,113.013649,28.213371
抗日战争第九战区长衡地区受降会场旧址,湖南,长沙,长沙,0731,,河西大学城,麓山南路2号,景点,古代遗迹,112.944145,28.178848
浏阳文庙,湖南,长沙,浏阳,0731,83683209,淮川街道,城区圭斋东路81号,景点,宗教,113.633873,28.143446
国民革命军第73军抗战阵亡将士公墓,湖南,长沙,长沙,0731,88825011,河西大学城,登高路58号,景点,烈士陵园,112.943306,28.188936
清风泉,湖南,长沙,长沙,0731,,河西大学城,麓山路82山风景名胜区,景点,自然风光,112.936607,28.180729
桃园,湖南,长沙,长沙,0731,88614640,橘子洲公园,橘洲路橘子洲大桥南橘子洲公园,景点,植物园,112.961296,28.17911
肖劲光铜像纪念园,湖南,长沙,长沙,0731,88825011,河西大学城,麓山路82号岳麓山风景名胜区,景点,纪念公园,112.93486,28.175709
辛亥援鄂汉阳阵亡将士公墓,湖南,长沙,长沙,0731,,河西大学城,麓山路82号岳麓山风景名胜区,景点,古代遗迹,112.937134,28.178221
焰火广场,湖南,长沙,长沙,0731,88614640,橘子洲公园,桔子洲街道橘洲路橘子洲大桥南,景点,步行街,112.961388,28.183132
胡耀邦同志纪念馆,湖南,长沙,浏阳,0731,83782568;83783229,浏阳市其他,苍坊村,景点,纪念馆,113.888191,28.076742
湘女楚韵女书艺术馆,湖南,长沙,长沙,0731,138****1730,开福万达广场,营盘路6号潮宗御苑B栋608,景点,美术馆,112.971962,28.204151
途程旅游,湖南,长沙,长沙,0731,,五里牌,中国国旅大厦4楼,景点,旅行社,113.01443,28.19753
浏阳河婚庆公园,湖南,长沙,长沙,0731,87961866,万家丽北路,浏阳河大道二段305号,景点,公园/广场,113.045868,28.190226
墨庄博物馆,湖南,长沙,长沙,0731,,望城区,雷锋镇桥头铺村,景点,博物馆,112.836662,28.184849
海航乐游国际旅行社,湖南,长沙,长沙,0731,186****8090,兴汉门,蔡锷北路511号,景点,旅行社,112.981522,28.210942
小星星旅行社,湖南,长沙,长沙,0731,136****8613,梅溪湖,天顶街道湖南涉外经济学院（第一师范）,景点,旅行社,112.902263,28.196503
趣你的3D嘉年华奇幻画展,湖南,长沙,长沙,0731,88030582,袁家岭/火车站,曙光北路119号曙光798城市体验馆,景点,美术馆,113.002629,28.18775
新视界国际旅行社,湖南,长沙,长沙,0731,84423337;189****7611,八一路,八一路10号天佑大厦24楼,景点,旅行社,113.010338,28.197741
普瑞酒店温泉馆,湖南,长沙,长沙,0731,88388888,长沙医学院,普瑞大道8号,景点,温泉,112.888489,28.292101
幸福时光国际旅行社,湖南,长沙,长沙,0731,82566601;82207755,五一广场,五一大道717号五一新干线11层,景点,旅行社,112.973012,28.194932
爱国主义3D艺术画展,湖南,长沙,长沙,0731,88292777,袁家岭/火车站,曙光北路119号3号馆,景点,美术馆,113.002846,28.186441
阿弥岭水库,湖南,长沙,长沙,0731,,桂花路/左家塘,菜市场口子,景点,自然景观,113.006683,28.173019
神秘湘西,湖南,长沙,长沙,0731,84431988,松桂园,营盘中路,景点,旅游项目/观光项目,112.977316,28.211476
宝中旅游,湖南,长沙,长沙,0731,84212148;84213148,四方坪,四方坪时代先锋B栋B座31楼3119室,景点,旅行社,113.009852,28.234245
致青春3D魔幻艺术画展,湖南,长沙,长沙,0731,,河西大学城,岳麓街道靳江路后湖小区一栋旁,景点,展览馆,112.943291,28.161612
乐游国际旅行社,湖南,长沙,长沙,0731,150****8311,新开铺,新开铺街道新韶西路229号湖光山色1栋105号,景点,旅行社,112.973695,28.120175
柳子明故居,湖南,长沙,长沙,0731,,湖南农业大学,农大校园内,景点,名人故居,113.086258,28.175665
中联旅行社,湖南,长沙,长沙,0731,155****6436,河西大学城,岳麓街道阜埠河路268天马学生公寓,景点,旅行社,112.94623,28.16596
湖南卫视旅行社,湖南,长沙,长沙,0731,89928767;186****9570,人民中路/朝阳路/融圣国际,朝阳路76号凯通国际2B栋1单元2402,景点,旅行社,113.007874,28.187801
欧阳予倩故居,湖南,长沙,浏阳,0731,,步行街,营盘巷,景点,名人故居,113.630295,28.138956
唐生智公馆,湖南,长沙,长沙,0731,,橘子洲公园,橘洲路2号橘子洲头内长沙市城市管理综合执法支队岳麓区大队橘子洲景区中队附近,景点,人文古迹,112.960892,28.177904
海航乐游,湖南,长沙,长沙,0731,,银盆岭,银盆南路52-8号,景点,旅行社,112.956073,28.199913
长沙古护城河故址,湖南,长沙,长沙,0731,,八一桥,芙蓉中路479号附近,景点,古代遗迹,112.986832,28.203663
张仲景祠故址,湖南,长沙,长沙,0731,,五一广场,蔡锷路与营盘路交接处,景点,宗教,112.981279,28.203299
教育会坪故址,湖南,长沙,长沙,0731,,五一广场,营盘路214号附近,景点,古代遗迹,112.980484,28.204086
赐闲湖故址,湖南,长沙,长沙,0731,,五一广场,营盘路198号附近,景点,古代遗迹,112.979416,28.203766
郭嵩涛故居原址,湖南,长沙,长沙,0731,,五一广场,又一村巷96号附近,景点,名人故居,112.978348,28.202614
原省政府大门旧址,湖南,长沙,长沙,0731,,五一广场,营盘路210号,景点,古代遗迹,112.979637,28.202435
金井茶乡小镇,湖南,长沙,长沙县,0731,,长沙县,金井镇,景点,更多景点/周边游,113.375465,28.527002
伯爵旅行社,湖南,长沙,长沙,0731,,黄土岭,黄土岭路138号,景点,旅行社,112.982429,28.162469
华天国际旅行社,湖南,长沙,长沙,0731,84443961,东塘,砂子塘街道韶山中路196号,景点,旅行社,112.993882,28.1656
海航乐游,湖南,长沙,长沙,0731,,梓园路/省儿童医院,湘凯石化大厦北50米,景点,旅行社,112.991135,28.176516
九九旅游,湖南,长沙,长沙,0731,180****6631,袁家岭/火车站,车站中路21号凯旋国际A座,景点,旅行社,113.010025,28.192593
科幻魔方夜光5D艺术展,湖南,长沙,长沙,0731,,喜盈门/喜乐地,万家丽中路喜乐地购物三楼,景点,展览馆,113.037219,28.130093
张家界光明国际旅行社,湖南,长沙,长沙,0731,185****8018;158****9199,袁家岭/火车站,车站中路95号三九楚云416,景点,旅行社,113.01066,28.1931
翼虎旅游,湖南,长沙,长沙,0731,189****7333,梦泽园,车站北路228号,景点,旅行社,113.009765,28.210199
浏阳天子湾风景区,湖南,长沙,浏阳,0731,83608360,浏阳市其他,荷花街道西环村天子湾风景区,景点,自然风光,113.637611,28.078264
火神庙,湖南,长沙,长沙,0731,,坡子街,坡子街133号附近,景点,宗教,112.973915,28.190592
华泰旅行社,湖南,长沙,浏阳,0731,88755566,集里街道,金沙北路299号,景点,旅行社,113.617255,28.150163
长沙海航乐游,湖南,长沙,长沙,0731,83887789,南门口,劳动西路128号家润多劳动广场店1楼,景点,旅行社,112.975887,28.178174
海航乐游,湖南,长沙,长沙,0731,83887887,黄土岭,南湖路220号南湖家润多收银台处,景点,旅行社,112.978077,28.165956
海航乐游,湖南,长沙,长沙,0731,83887808,东塘,劳动中路113号家润多赤岗店服务中心旁,景点,旅行社,113.001665,28.165098
中建梅澜坊商业街,湖南,长沙,长沙,0731,85517252,梅溪湖,环湖路与连湖二路交叉口（地铁2号线麓云路站、文化艺术中心站）,景点,观光街区,112.896408,28.190449
关山古镇,湖南,长沙,宁乡市,0731,85919999,宁乡市其他,金洲镇关山村关山旅游社区,景点,古村古镇,112.678513,28.296982
美孚洋行旧址,湖南,长沙,长沙,0731,88882152,橘子洲公园,太平街106号,景点,古代遗迹,112.971672,28.193777
张家界专线,湖南,长沙,长沙,0731,83756111,河西大学城,天马路天马时尚商场202号,景点,旅行社,112.946175,28.167155
鸿铭中心,湖南,长沙,长沙,0731,84160865,窑岭/长岭,韶山北路263号,景点,步行街,113.000504,28.18261
金牌商旅服务信息中心,湖南,长沙,长沙,0731,186****6593,河西大学城,天马安置小区82栋3单元3楼,景点,旅行社,112.951009,28.161959
宝中旅游,湖南,长沙,长沙,0731,88701052,麓谷,谷园路109号建安像素汇一楼西面门面,景点,旅行社,112.892576,28.213736
牧童游乐园,湖南,长沙,长沙,0731,187****6088,新开铺,汽车西站达美D6区内街2楼,景点,主题公园,112.972191,28.142162
亲和力旅游,湖南,长沙,浏阳,0731,83613611,淮川街道,劳动中路57号,景点,旅行社,113.63519,28.14554
灰汤国际旅游度假区,湖南,长沙,长沙,0731,150****5693,银盆岭,金太阳度假村门口,景点,旅行社,112.947021,28.222371
湖南中联国际旅行社,湖南,长沙,浏阳,0731,186****1128,天马路/将军路,圭斋东路175号,景点,旅行社,113.637943,28.144083
海航乐游,湖南,长沙,长沙,0731,,四方坪,车站北路406号延年世纪酒店一楼商务中心106房,景点,旅行社,113.007968,28.232311
象形山,湖南,长沙,宁乡市,0731,,宁乡市其他,达浒镇西临官渡镇潘溪村,景点,自然风光,112.400223,28.032421
五一广场,湖南,长沙,长沙,0731,,五一广场,黄兴中路,景点,更多景点/周边游,112.977341,28.196501
沩山风景名胜区,湖南,长沙,宁乡市,0731,87550989,宁乡市其他,黄材镇石龙洞村,景点,自然风光,112.092415,28.153597
浏阳凤凰峡景区,湖南,长沙,浏阳,0731,4000731009;135****9555,浏阳市其他,龙伏镇石柱峰村,景点,自然风光,113.615623,28.393042
前行美术馆,湖南,长沙,长沙,0731,89907758,司门口,五一大道与西长街交叉口南40米,景点,美术馆,112.971703,28.194681
龙骧汽车南站旅行社,湖南,长沙,长沙县,0731,188****2805,卜蜂莲花星沙店,华润凤凰城一期3栋12楼,景点,旅行社,113.086998,28.251297
中南村,湖南,长沙,长沙,0731,,望城区,湖南省长沙市望城区高塘岭街道,景点,古村古镇,112.813481,28.374611
新大新时代广场,湖南,长沙,长沙,0731,,五一广场,黄兴中路168号肯德基,景点,公园/广场,112.976838,28.197788
老动物园旁,湖南,长沙,长沙,0731,,开福区,德雅路480号,景点,动物园,112.998367,28.215538
森林一号公园,湖南,长沙,长沙,0731,,天际岭,湘府路和万家丽路交界处,景点,公园/广场,113.036743,28.112001
兴苏广场,湖南,长沙,长沙,0731,89716666,体育新城,万家丽中路168号与曲塘路的交汇处东南角,景点,公园/广场,113.03183,28.148491
富基世纪公园,湖南,长沙,长沙,0731,88559999,长沙医学院,普瑞大道二段888号,景点,公园/广场,112.897682,28.294266
钟馗庙,湖南,长沙,长沙,0731,,劳动广场/书院路,钟馗庙巷37号,景点,宗教,112.975357,28.166553
望麓景园,湖南,长沙,长沙,0731,,银盆岭,咸嘉湖路旁,景点,公园/广场,112.951462,28.209908
加加大街,湖南,长沙,长沙,0731,82909889,铁道学院/林科大,韶山南路248号,景点,观光街区,112.996956,28.139334
三只熊冰雪王国,湖南,长沙,长沙,0731,85252111;4008891811,友阿奥特莱斯,西湖大道西湖小区,景点,滑雪场,113.006157,28.041729
雪梅女书画馆,湖南,长沙,长沙,0731,186****9257,开福区,"营盘东路59号,湖南省政协斜对面",景点,美术馆,112.989754,28.203812
鹿芝岭村燕子塘组.观音寺,湖南,长沙,长沙县,0731,86887009,黄兴镇,鹿芝岭燕子塘村G0401,景点,宗教,113.136528,28.101791
皇后森林空中营地,湖南,长沙,浏阳,0731,136****4140,浏阳市其他,大围山国家森林公园西大门向西2公里处,景点,森林公园,114.062439,28.422346
岳麓山抗战文化园,湖南,长沙,长沙,0731,,河西大学城,湖南师范大学二里半岳王亭路,景点,文化公园,112.946045,28.188826
华泰旅行高铁集合点,湖南,长沙,长沙,0731,89747235;189****2776,武广高铁,花侯路长沙南站,景点,旅行社,113.063553,28.146436
巴溪洲,湖南,长沙,长沙,0731,,岳麓区,坪塘街道巴溪洲,景点,自然风光,112.923911,28.069521
湖湘天下国际旅行社,湖南,长沙,长沙,0731,82913366,雨花亭,韶山中路489号,景点,旅行社,112.995758,28.156968
桃花岭景区,湖南,长沙,长沙,0731,,梅溪湖,梅溪湖街道梅溪湖路,景点,公园/广场,112.896797,28.178205
长房八房金街,湖南,长沙,长沙,0731,,银盆岭,观沙路与含光路交汇处东南角,景点,步行街,112.94412,28.23774
万科繁华街,湖南,长沙,长沙,0731,,树木岭,万家丽中路与豆花塘路交叉口东北100米,景点,观光街区,113.034285,28.144033
长沙规划展示馆,湖南,长沙,长沙,0731,82892883,北辰三角洲,滨江文化园内,景点,博物馆,112.980675,28.241938
湖南景域旅游开发有限公司,湖南,长沙,宁乡市,0731,88804108,黄材旅游区,黄才镇沩山国家风景民生区,景点,旅行社,112.138716,28.214377
天河艺术馆,湖南,长沙,长沙,0731,85187586,黄土岭,芙蓉中路三段33号,景点,美术馆,112.985825,28.169718
完美旅程国际旅行社,湖南,长沙,长沙,0731,59219820;180****6778,八一路,五一大道125号铁建精品酒店前邻,景点,旅行社,113.00294,28.19399
华睿研学旅行,湖南,长沙,长沙,0731,82509983,梦泽园,车站北路雍景园2栋B座403,景点,旅行社,113.009891,28.209481
长沙铜官窑国家考古遗址公园,湖南,长沙,长沙,0731,88403667,望城区,铜官街道彩陶源村,景点,古代遗迹,112.83075,28.419989
裕湘纱厂,湖南,长沙,长沙,0731,,银盆岭,潇湘北路,景点,更多景点/周边游,112.96286,28.221312
楚乡情,湖南,长沙,长沙,0731,83589916;83592919,高桥,高桥大市场酒水食品城36栋,景点,公园/广场,113.027313,28.172329
凯途国旅,湖南,长沙,宁乡市,0731,,大润发,花明南路紫金阁工艺礼品行旁,景点,旅行社,112.553734,28.258361
凯途国旅,湖南,长沙,长沙,0731,,汽车东站,远大一路元泰大厦南50米,景点,旅行社,113.048786,28.200366
田汉艺术小镇,湖南,长沙,长沙县,0731,4000009733,长沙县,果园镇黄兴大道,景点,现代小镇,113.183792,28.352892
光明蝶谷・飞鸟乐园,湖南,长沙,长沙,0731,85685966,望城区,光明村坝湾组,景点,动物园,112.71917,28.251219
凯丰种植园,湖南,长沙,浏阳,0731,,浏阳市其他,三口镇金园村浏东公路两侧农业园东行3公里,景点,植物园,113.800807,28.308668
惜字塔,湖南,长沙,长沙,0731,159****8859,望城区,102省道妙村附近,景点,历史建筑,112.940422,28.49946
仙剑瀑布,湖南,长沙,浏阳,0731,,浏阳市其他,社港镇,景点,自然风光,114.056946,28.38184
风光假日旅行社,湖南,长沙,长沙,0731,82520221,人民中路/朝阳路/融圣国际,朝阳路凯通国际城2栋2单元805室,景点,旅行社,113.007767,28.18804
算学馆旧址,湖南,长沙,浏阳,0731,,淮川街道,圭斋东路81号,景点,古代遗迹,113.634811,28.142609
炭河里遗址,湖南,长沙,宁乡市,0731,,黄材旅游区,沩山脚下黄材镇,景点,古代遗迹,112.111122,28.153042
桂林广游国际旅游有限公司,湖南,长沙,长沙,0731,,万家丽北路,马王堆中路30号,景点,旅行社,113.025113,28.195543
新时空旅行社,湖南,长沙,长沙,0731,83587417,晚报大道,长沙晚报上东印象,景点,旅行社,113.019056,28.208116
宝盖寺,湖南,长沙,浏阳,0731,83441769,浏阳市其他,近青山湾,景点,宗教,113.732651,28.38122
崇烈门,湖南,长沙,长沙,0731,,天心阁/白沙井,天心路88号天心公园内,景点,历史建筑,112.982132,28.18519
书堂山欧阳询文化产业园,湖南,长沙,长沙,0731,,望城区,丁字湾街道书堂大道,景点,更多景点/周边游,112.884071,28.398672
景天旅行社,湖南,长沙,长沙,0731,84714778,万家丽北路,荷花路416号景天大酒店6层,景点,旅行社,113.034204,28.191184
骑龙大街,湖南,长沙,长沙,0731,,涉外经济学院,(岳麓梅溪湖北岸)枫林三路与骑龙路交汇处东南角,景点,观光街区,112.88124,28.19614
浏阳市缤纷旅行社,湖南,长沙,浏阳,0731,83685685,行政中心,民俗文化步行街39号,景点,旅行社,113.63056,28.1554
环游假日国际旅行社有限公司,湖南,长沙,长沙,0731,,铁道学院/林科大,韶山南路123号华翼府b座,景点,旅行社,112.995454,28.143754
旅游百事通,湖南,长沙,长沙,0731,88030114,桂花路/车站南路,阿弥岭城南东路42号车站南路,景点,旅行社,113.008511,28.175481
湖南海外旅游,湖南,长沙,长沙,0731,,红星国际会展中心,湘府中路2段517号通程商业广场红星店1层,景点,旅行社,113.01584,28.10986
虹桥国际旅行社,湖南,长沙,长沙,0731,88080111,望城区,文源东路与文源路交叉口北100米,景点,旅行社,112.83008,28.356855
旅游百事通,湖南,长沙,长沙,0731,,银盆岭,岳麓大道355-10号,景点,旅行社,112.933113,28.224203
好易友旅行社,湖南,长沙,长沙,0731,,万家丽北路,马王堆北路64富民楼501室,景点,旅行社,113.025766,28.200586
康辉旅游,湖南,长沙,长沙,0731,84216060,桐梓坡,枫林一路757号共和世家1栋,景点,旅行社,112.931669,28.203366
百事通国际旅行社,湖南,长沙,长沙,0731,88213769,桐梓坡,桐梓坡西路98号金谷大厦1层,景点,旅行社,112.912356,28.219446
旅游百事通华晨世纪营业部,湖南,长沙,长沙,0731,82083404,高桥,华晨世纪广场C座1层,景点,旅行社,113.0282,28.168199
中联国际旅行社,湖南,长沙,宁乡市,0731,87823686,一环北路,春城南路266号,景点,旅行社,112.549171,28.258841
旅游百事通,湖南,长沙,长沙,0731,85566629,芙蓉南路沿线,汇金路199号鄱阳小区丰雅苑3A栋,景点,旅行社,113.014828,28.083518
中国旅行社总社八一路营业厅,湖南,长沙,长沙,0731,88182225,八一路,八一路178号,景点,旅行社,113.00055,28.197712
明城府,湖南,长沙,长沙,0731,,天心阁/白沙井,白沙路,景点,历史建筑,112.982559,28.182962
海顺游乐,湖南,长沙,长沙,0731,152****6766,河西大学城,西湖路灵官渡附0017号近杜甫江阁,景点,游乐场,112.96817,28.179552
起点旅行社有限公司,湖南,长沙,长沙,0731,,红星国际会展中心,湘府东路二段517号红星国际B座2121室,景点,旅行社,113.016756,28.110042
国华旅行社,湖南,长沙,长沙,0731,,湘江世纪城,福城路98号顺天黄金海岸大酒店1层,景点,旅行社,112.985796,28.248796
向日葵国际旅行社公司,湖南,长沙,长沙,0731,,芙蓉南路沿线,芙蓉南路一段368号CTA财富中心18层,景点,旅行社,112.986399,28.135539
梓福园,湖南,长沙,长沙县,0731,138****1334,长沙经济技术开发区,安沙镇,景点,公园/广场,113.10472,28.323962
旅游百事通,湖南,长沙,浏阳,0731,,集里街道,金沙北路720附近,景点,旅行社,113.60704,28.15531
幸福国际旅行社羊角湾网点,湖南,长沙,浏阳,0731,,集里街道,羊角湾街5号,景点,旅行社,113.621247,28.146867
湘辉旅行社,湖南,长沙,长沙,0731,84528869,四方坪,三一大道332号金汇国际大酒店1层,景点,旅行社,113.00832,28.23094
百事通国际旅行社,湖南,长沙,宁乡市,0731,,玉潭镇,龙溪北路4号,景点,旅行社,112.55835,28.2567
雷锋故居,湖南,长沙,长沙,0731,,岳麓区,望城县望城县雷锋镇雷锋村简家塘,景点,名人故居,112.847552,28.206755
天成旅游开发有限公司,湖南,长沙,浏阳,0731,83838456,淮川街道,淮川街道劳动北路123-125号二楼,景点,旅行社,113.629052,28.152662
竹海吊海店,湖南,长沙,长沙,0731,,山语城/金霞,凤亭路七号地2栋,景点,景点/周边游,112.973999,28.285999
太平粮仓,湖南,长沙,长沙,0731,85530558,太平街,太平街99号,景点,人文古迹,112.971603,28.193855
郭亮烈士生平事迹陈列馆,湖南,长沙,长沙,0731,,望城区,书堂大道郭亮故居旁,景点,展览馆,112.848637,28.447947
凯宾斯基国际会议中心,湖南,长沙,长沙,0731,,雨花亭,韶山中路419号长沙顺天凯宾斯基酒店3层,景点,景点/周边游,112.994965,28.158461
金井水库,湖南,长沙,长沙县,0731,,长沙县,邓家冲附近,景点,自然景观,113.410352,28.526826
百事通国际旅行社,湖南,长沙,长沙,0731,84436622,汽车南站,植物园路111号,景点,旅行社,113.016311,28.103739
精彩旅游,湖南,长沙,宁乡市,0731,87842555,金洲大道/一中,金洲大道,景点,旅行社,112.562401,28.27544
佳辉旅游,湖南,长沙,浏阳,0731,,大瑶镇,瑶浏路415附近,景点,旅行社,113.720294,27.985729
旅游百事通,湖南,长沙,长沙县,0731,86291668,长沙县,朱桥社区农贸市场东南侧约290米,景点,旅行社,113.325311,28.172111
戏乡旅游,湖南,长沙,长沙,0731,,望城区,高塘岭街道糟坊街,景点,旅行社,112.810253,28.404123
宝利来旅行社,湖南,长沙,长沙,0731,88122321,麓谷,桐梓坡西路金谷大厦1310室,景点,旅行社,112.885946,28.219315
中湘国旅,湖南,长沙,长沙,0731,,河西大学城,中南大学后湖小区8栋7单元,景点,旅行社,112.937712,28.152602
长沙生态动物园-百鸟乐园,湖南,长沙,长沙,0731,,暮云镇,西湖村芙蓉南路长沙生态动物园百鸟谷内,景点,动物园,113.006565,28.030915
小牛科学馆,湖南,长沙,长沙,0731,,高桥,万家丽中路一段318号5层,景点,科技馆,113.02916,28.180786
汉之振国际旅行社,湖南,长沙,宁乡市,0731,,人人乐,东沩西路293附近,景点,旅行社,112.558069,28.264769
新康辉国际旅行社,湖南,长沙,长沙,0731,,河西大学城,含浦大道与西二环交叉口步步高生活广场F1层,景点,旅行社,112.925507,28.16049
彩虹谷,湖南,长沙,浏阳,0731,83161111,浏阳市其他,浏阳大道德政园1-3号门面,景点,更多景点/周边游,113.639985,28.173349
湖南中铁国际旅行社,湖南,长沙,宁乡市,0731,87057799,玉潭镇,玉潭中路射圃巷28号,景点,旅行社,112.55825,28.256278
旅游百事通,湖南,长沙,长沙,0731,85673666,万家丽北路,马王堆路五一新村C6-8号,景点,旅行社,113.026015,28.193168
神州旅行社,湖南,长沙,长沙,0731,82083736;82274123,窑岭/长岭,韶山北路39号维一星城金牛座601,景点,旅行社,112.996682,28.187662
长沙梦幻沙雕乐园,湖南,长沙,长沙,0731,,梦泽园,车站北路465号烈士公园东门,景点,公园/广场,113.007347,28.211933
湖南卫视旅行社,湖南,长沙,长沙县,0731,82273114;82273124,泉塘/星城国际,漓湘东路星沙华天大酒店斜对面星城国际,景点,旅行社,113.111061,28.228053
石龙洞村,湖南,长沙,宁乡市,0731,,黄材旅游区,宁乡市黄材镇,景点,古村古镇,112.134262,28.202324
中联国际旅行社,湖南,长沙,长沙,0731,82023095,东塘,东塘北站兴威名座大厦20楼1706室,景点,旅行社,112.995279,28.17233
黑麋峰森林公园,湖南,长沙,长沙,0731,88430038;88430518,望城区,桥驿镇,景点,森林公园,113.007927,28.433643
西湖公园,湖南,长沙,长沙,0731,,桐梓坡,西湖街道枫林一路与财院路交叉口东北150米,景点,公园/广场,112.938766,28.209076
灰汤温泉港湾宾馆,湖南,长沙,宁乡市,0731,131****8191,灰汤温泉镇,灰汤镇宁南街对面,景点,温泉,112.340446,27.980907
瞳艺3d错觉艺术馆,湖南,长沙,长沙,0731,,黄兴路步行街,黄兴南路步行商业街西厢南栋A区1层,景点,美术馆,112.97583,28.184839
宝中旅游,湖南,长沙,长沙,0731,82228026,桂花路/车站南路,车站南路606-1号,景点,旅行社,113.010021,28.173754
湖南新世纪旅游,湖南,长沙,长沙,0731,138****8304,罗家嘴/阳光100,黄鹤小区4栋3单元,景点,旅行社,112.940905,28.144316
桔洲公园,湖南,长沙,长沙,0731,,橘子洲公园,桔子洲头2号,景点,公园/广场,112.960602,28.169655
旅游百事通,湖南,长沙,长沙,0731,89721234,太平街,太平老街166号,景点,旅行社,112.97195,28.19469
望月公园,湖南,长沙,长沙,0731,88806592,银盆岭,咸嘉湖路6号,景点,公园/广场,112.952675,28.211557
湖南省地质博物馆,湖南,长沙,长沙,0731,89991350,芙蓉南路沿线,杉木冲西路49号,景点,博物馆,112.982246,28.107456
潮宗街,湖南,长沙,长沙,0731,,中山亭/乐和城,潮宗街,景点,步行街,112.974503,28.203331
博乐汇动漫世界,湖南,长沙,长沙,0731,85680533,南门口,黄兴南路106号2楼,景点,更多景点/周边游,112.976001,28.182
胡耀邦故居,湖南,长沙,浏阳,0731,83782568;83783229,浏阳市其他,中和镇苍坊村,景点,名人故居,113.888412,28.078722
湖南中青旅,湖南,长沙,长沙,0731,,晚报大道,火星街道晚报大道山东印象旁,景点,旅行社,113.018699,28.208289
万家丽世界名人蜡像馆,湖南,长沙,长沙,0731,85909809;89999111,德政园/杨家山,荷花路万家丽国际MALL第11楼,景点,蜡像馆,113.032234,28.191097
宁乡旅游,湖南,长沙,宁乡市,0731,185****0218,宁乡市其他,宁乡大道86号,景点,旅行社,112.568222,28.292064
李富春故居,湖南,长沙,长沙,0731,82230396,五一广场,三兴街40号,景点,名人故居,112.974121,28.192383
桂花公园,湖南,长沙,长沙,0731,85560421,桂花路/左家塘,桂花路97号,景点,公园/广场,113.003845,28.171156
灰汤泰和温泉宾馆,湖南,长沙,宁乡市,0731,87296757;187****7084,灰汤温泉镇,灰汤镇迎宾西路与蒋琬路交界处,景点,温泉,112.333702,27.989012
岳府公园,湖南,长沙,长沙,0731,,市政府,含光路,景点,公园/广场,112.927345,28.235891
滨江新城古樟公园,湖南,长沙,长沙,0731,,观沙岭/茶子山,含光路与滨江景观道交叉口南100米,景点,公园/广场,112.962708,28.237146
施家港水上公园,湖南,长沙,长沙,0731,,观沙岭/茶子山,观沙岭街道潇湘北路和含光路交叉口向南200米,景点,公园/广场,112.959976,28.233707
马艺文馆,湖南,长沙,长沙,0731,83750139,河西大学城,阜埠河路139号锦绣潇湘文化创意产业园,景点,博物馆,112.949409,28.163956
赤马湖体育滑雪,湖南,长沙,浏阳,0731,83826566,浏阳市其他,沙市镇长兴社区266号,景点,滑雪场,113.428024,28.396008
贞观文化旅游有限公司,湖南,长沙,长沙,0731,85361666,望城区,铜官国际陶艺村,景点,旅行社,112.811419,28.452739
沙湾公园,湖南,长沙,长沙,0731,,体育新城,圭塘街道劳动东路南侧,景点,公园/广场,113.037209,28.153418
海航乐游,湖南,长沙,长沙,0731,,湘江世纪城,华润万家湘江世纪城店内老百姓大药房旁,景点,旅行社,112.98014,28.251335
湖南省总工会灰汤温泉职工疗养院,湖南,长沙,宁乡市,0731,82427777;83879999,灰汤温泉镇,灰汤镇将军路2号,景点,温泉,112.347481,27.989504
湖南远大旅游,湖南,长沙,长沙县,0731,84099114,泉塘/星城国际,东六路海德公园维也纳酒店东侧,景点,旅行社,113.112459,28.223039
冬奥广场,湖南,长沙,长沙,0731,,侯家塘,芙蓉中路二段188号贺龙体育中心东广场,景点,公园/广场,112.984825,28.176632
北京市中国旅行社,湖南,长沙,长沙,0731,82738875,四方坪,华府一航线2014号,景点,旅行社,113.000418,28.232748
鸿天康逸温泉山庄,湖南,长沙,宁乡市,0731,87295555;173****6705,灰汤温泉镇,灰汤镇国际旅游度假区,景点,温泉,112.335632,27.994774
湘御明月园,湖南,长沙,长沙,0731,88087999,望城区,069县道,景点,更多景点/周边游,112.813871,28.299311
通程温泉大酒店,湖南,长沙,宁乡市,0731,87108888,金洲大道/一中,金洲大道与宁乡大道交叉口南80米路西,景点,温泉,112.56414,28.273964
小顽国亲子乐园,湖南,长沙,长沙县,0731,86365555;153****4566,长沙县,长黄花镇新江村枞木塘组357号,景点,游乐场,113.187698,28.28241
大河西先导区规划展示馆,湖南,长沙,长沙,0731,89875726,含浦,洋湖街道潇湘南路与福祥路交叉路口往东南约150米（中盈广场东南侧约100米）,景点,博物馆,112.950607,28.122881
同仁里,湖南,长沙,长沙,0731,,五一广场,吉祥巷67号附近,景点,更多景点/周边游,112.974264,28.198723
永盛农民文化广场,湖南,长沙,宁乡市,0731,,宁乡市其他,大成路北100米,景点,公园/广场,112.393875,28.195854
长沙博物馆,湖南,长沙,长沙,0731,82892350;82892360,北辰三角洲,新河三角洲长沙滨江文化园内,景点,博物馆,112.980423,28.241631
三亩地美术馆,湖南,长沙,长沙,0731,,黄兴路步行街,蔡锷南路95明景公寓3层,景点,美术馆,112.979927,28.187445
湖南芙蓉画院,湖南,长沙,长沙,0731,,韭菜园,五一大道389号华美欧大厦10层1001-1002室,景点,美术馆,112.989356,28.194271
优舞特艺术馆,湖南,长沙,浏阳,0731,137****0733,淮川街道,车站路一中北岭望阳巷5号,景点,美术馆,113.629681,28.147811
千龙湖生态旅游度假区,湖南,长沙,长沙,0731,88341888;88342291,望城区,格塘镇千龙湖,景点,更多景点/周边游,112.700798,28.41309
青羊湖,湖南,长沙,宁乡市,0731,,宁乡市其他,沩山乡黄材水库,景点,更多景点/周边游,112.088234,28.153435
百事通国际旅行社有限公司,湖南,长沙,长沙,0731,185****7996,含浦,华润橡树湾三期16栋1203，汪经理18573197996,景点,旅行社,112.922636,28.136246
长沙融城欢动世界,湖南,长沙,长沙,0731,151****4733,友阿奥特莱斯,暮云镇西湖村芙蓉南路,景点,游乐场,113.000847,28.035034
鑫叶休闲服务有限公司,湖南,长沙,长沙,0731,88882558,桂花路/左家塘,曹家坡路68号华韵商厦,景点,旅行社,113.001128,28.173818
中国工艺美术湘绣大师楼,湖南,长沙,长沙,0731,86781333;187****0545,开福区,沙坪湘绣文化广场,景点,美术馆,113.022385,28.353907
湘江,湖南,长沙,长沙,0731,,河西大学城,近湘江大道,景点,自然风光,112.955132,28.15609
湖南省博物馆,湖南,长沙,长沙,0731,84475933;84415833,四方坪,东风路50号,景点,博物馆,112.9935,28.211876
长沙坝塘山水库,湖南,长沙,宁乡市,0731,,宁乡市其他,坝塘镇新龙村,景点,自然景观,112.437706,28.120968
长沙狮子脑水库,湖南,长沙,浏阳,0731,,浏阳市其他,永安镇,景点,自然景观,113.342602,28.31569
长沙横山头水库,湖南,长沙,浏阳,0731,,浏阳市其他,沙市镇任兴村横山头,景点,现代建筑,113.434555,28.39436
长沙泉塘水库,湖南,长沙,浏阳,0731,,浏阳市其他,关口街道,景点,现代建筑,113.664528,28.221039
茶亭水库,湖南,长沙,长沙,0731,,望城区,茶亭镇,景点,现代建筑,112.952141,28.500372
长沙盘古祠,湖南,长沙,浏阳,0731,,浏阳市其他,双田文中路,景点,宗教,113.926066,28.050826
古冲水库,湖南,长沙,长沙,0731,,望城区,黄金园街道,景点,自然景观,112.762245,28.271019
金甲水库,湖南,长沙,长沙县,0731,,长沙县,江背镇,景点,现代建筑,113.359486,28.185573
长沙鸟鸣水库,湖南,长沙,宁乡市,0731,,宁乡市其他,坝塘镇鸟鸣村,景点,现代建筑,112.45784,28.13018
长沙洞阳水库,湖南,长沙,浏阳,0731,,洞阳镇,洞阳镇014县道西,景点,现代建筑,113.427048,28.179609
长沙洞庭水库,湖南,长沙,宁乡市,0731,,宁乡市其他,灰汤镇,景点,现代建筑,112.213676,28.006433
长沙南坑水库,湖南,长沙,浏阳,0731,,浏阳市其他,淳口镇,景点,现代建筑,113.543731,28.289881
洛阳国际牡丹园,湖南,长沙,长沙,0731,,友阿奥特莱斯,南路(生态动物园旁)西湖大道,景点,植物园,113.006247,28.041885
铜官街,湖南,长沙,长沙,0731,,望城区,铜官镇古街,景点,步行街,112.816582,28.451464
茶亭油菜花海,湖南,长沙,长沙,0731,,望城区,茶亭镇九峰山村,景点,自然风光,112.949341,28.492504
中铁国际旅行社,湖南,长沙,长沙,0731,84832260,万家丽北路,万家丽北路三段439号浏阳河畔2栋106门面,景点,旅行社,113.032117,28.208437
金科山水洲国际休闲度假区,湖南,长沙,浏阳,0731,,浏阳市其他,柏加镇金科山水洲国际休闲度假区,景点,自然风光,113.270485,28.018213
湖南快乐之旅国际旅行社红星营业部,湖南,长沙,长沙,0731,182****3450,芙蓉南路沿线,中意一路66号亚商大厦1栋28楼23号,景点,旅行社,113.007065,28.120366
花明楼景区,湖南,长沙,宁乡市,0731,87094027;87094299,宁乡市其他,花明楼镇,景点,名人故居,112.646713,28.034769
华谊兄弟（长沙）电影小镇,湖南,长沙,长沙,0731,4000831777,含浦,坪塘街道星光路6号,景点,影视基地,112.916512,28.07807
浏阳市荷花中学乡村少年宫,湖南,长沙,浏阳,0731,,浏阳市其他,中学路,景点,展览馆,113.639626,28.117506
高正街,湖南,长沙,长沙,0731,,天心阁/白沙井,高正街6号,景点,步行街,112.980667,28.185307
捞刀河刀剪厂门市部,湖南,长沙,长沙,0731,,人民中路/朝阳路/融圣国际,车站中路24,景点,旅行社,113.01103,28.18551
乌山农机专业合作社农机配件门市部,湖南,长沙,长沙,0731,132****8574,望城区,075县道附近,景点,旅行社,112.755199,28.326579
光明松鼠谷,湖南,长沙,长沙,0731,88178585,望城区,白箬铺镇胜和村,景点,动物园,112.721001,28.250874
江西铜鼓天柱峰,湖南,长沙,浏阳,0731,,浏阳市其他,同绥南路41号,景点,自然风光,113.776213,28.326972
雨花区少年宫,湖南,长沙,长沙,0731,84156551,人民中路/朝阳路/融圣国际,人民中路332号鑫泰科技大厦1层,景点,展览馆,112.999207,28.185371
杨开慧故居,湖南,长沙,长沙县,0731,86432888,长沙县,开慧镇开慧村,景点,名人故居,113.209892,28.588732
洛书草堂道观,湖南,长沙,长沙,0731,183****0688,望城区,茶亭镇谭家园村,景点,景点/周边游,112.953331,28.510712
蒲公英旅行社,湖南,长沙,长沙,0731,84422000;182****1230,万家丽北路,荷花路东方新城c组2栋105号,景点,旅行社,113.028477,28.191723
三国体验馆,湖南,长沙,宁乡市,0731,87872380,宁乡市其他,金洲镇关山村关山古镇北80米,景点,展览馆,112.679161,28.297606
宝中旅游,湖南,长沙,长沙,0731,,万家丽国际MALL,万家丽中路一段99号万家丽国际MALLB1层,景点,旅行社,113.03135,28.190971
长沙乐高魅力科技展,湖南,长沙,长沙,0731,,万家丽国际MALL,万家丽中路99号万家丽国际MALL5楼,景点,科技馆,113.031522,28.190482
周洛龙潭风景区,湖南,长沙,浏阳,0731,155****2788,浏阳市其他,社港镇周洛村,景点,自然风光,113.663422,28.426821
丹霞湖,湖南,长沙,浏阳,0731,,浏阳市其他,社港镇丹霞村合家组,景点,自然风光,113.632774,28.460035
纵游天下,湖南,长沙,长沙,0731,132****2479,河西大学城,枫林一路共和世家中国银行旁,景点,旅行社,112.941234,28.200444
盛世乐游旅游社,湖南,长沙,长沙,0731,82294555;187****5216,五里牌,车站北路22号千喜华城8层0812室,景点,旅行社,113.0109,28.19833
长株潭两型社会展览馆,湖南,长沙,长沙,0731,89781188,橘子洲公园,橘子洲头,景点,展览馆,112.960373,28.172575
南洲三农文化展览馆,湖南,长沙,宁乡市,0731,,宁乡市其他,金洲镇南洲村八组14号,景点,展览馆,112.708374,28.336857
湖南党史陈列馆,湖南,长沙,长沙,0731,88349808,望城区,雷锋镇振兴路43号,景点,博物馆,112.845467,28.202833
万家丽文化大观园,湖南,长沙,长沙,0731,,德政园/杨家山,东屯渡街道万家丽中路一段99号-101万家丽国际MALL十一楼,景点,展览馆,113.03138,28.191088
长沙市天心区文化馆,湖南,长沙,长沙,0731,85123451,太平街,太平街153号,景点,美术馆,112.971428,28.194498
湖南革命陵园,湖南,长沙,长沙,0731,85205952,劳动广场/书院路,书院南路451号,景点,烈士陵园,112.967728,28.152494
旅游百事通,湖南,长沙,长沙,0731,183****1155,五一广场,蔡锷中路139号鸿盛大厦20层A2003室,景点,旅行社,112.976115,28.189682
琴岛演艺中心,湖南,长沙,长沙,0731,88838888,五一广场,中山路249号红色剧院内,景点,旅游项目/观光项目,112.978142,28.199867
尖山湖公园,湖南,长沙,长沙,0731,,青山镇/莱茵城,永青路668号,景点,公园/广场,112.872696,28.239304
戴公老庙,湖南,长沙,长沙,0731,,月亮岛,金星北路297号,景点,宗教,112.91481,28.283422
桂园国际度假村,湖南,长沙,浏阳,0731,83900966,浏阳市其他,官渡镇竹联村蔗棚组154号,景点,更多景点/周边游,113.860123,28.351589
乐游国际旅行社,湖南,长沙,长沙,0731,88338263,红星国际会展中心,万家丽中路高桥华润万家超市内,景点,旅行社,113.019203,28.109763
松雅湖国家湿地公园,湖南,长沙,长沙县,0731,86800005,长沙经济技术开发区,东一路与滨湖东路交叉口西北100米,景点,城市公园,113.0924,28.265884
新康戏乡皮影艺术博物馆,湖南,长沙,长沙,0731,,望城区,新裕路34号,景点,博物馆,112.811841,28.403821
书堂山弘文馆,湖南,长沙,长沙,0731,,望城区,铜官街道书堂大道064号,景点,展览馆,112.886902,28.396839
中青旅,湖南,长沙,长沙,0731,153****9655,河西大学城,麓山南路343号,景点,旅行社,112.943311,28.168061
李自健美术馆,湖南,长沙,长沙,0731,88180000,含浦,潇湘南路一段385号,景点,美术馆,112.949005,28.11928
白鹭塔,湖南,长沙,长沙,0731,,含浦,坪塘大道,景点,古村古镇,112.931152,28.12421
洋湖湿地科普馆,湖南,长沙,长沙,0731,,含浦,洋湖路洋湖湿地公园内,景点,科技馆,112.93404,28.12425
湖南海外旅游河西店,湖南,长沙,长沙,0731,,汽车西站/达美D6区,重阳路欣欣新村西侧约40米,景点,旅行社,112.912468,28.211168
长沙古村水库生态园,湖南,长沙,长沙,0731,,望城区,望城古村水库,景点,更多景点/周边游,112.759191,28.273749
飞越丛林户外探险乐园,湖南,长沙,长沙,0731,86781699,开福区,捞刀河镇大明村自明路58号,景点,旅游项目/观光项目,113.011742,28.335445
长沙云顶星河游乐王国,湖南,长沙,长沙,0731,88322229;181****5009,步步高梅溪新天地,枫林三路1099号（步步高?梅溪新天地内B区）,景点,游乐场,112.860023,28.19755
影珠山,湖南,长沙,长沙县,0731,8640001,长沙县,福临镇境内,景点,自然风光,113.187515,28.530725
乌川湖风景区,湖南,长沙,长沙县,0731,,长沙县,江背镇乌川湖风景区,景点,自然风光,113.393852,28.127581
郦城公园,湖南,长沙,长沙,0731,84810666,珠江花城/万国城,盛世路与珠江花城交叉路口往西约260米,景点,公园/广场,112.993995,28.258346
雨花非遗馆,湖南,长沙,长沙,0731,189****0411,红星国际会展中心,洞井街道杉木冲东路与卉园路交叉路口往西约100米,景点,展览馆,113.010727,28.106775
凯途国旅,湖南,长沙,长沙县,0731,,长沙县,通江路西200米,景点,旅行社,113.182179,28.142439
抗日战争纪念园,湖南,长沙,长沙,0731,,银盆岭,银盆岭街道英才园社区1片17栋,景点,纪念公园,112.945873,28.214715
宝中旅游,湖南,长沙,长沙县,0731,86884561,星沙一桥,南山路尚都花园城7,景点,旅行社,113.078224,28.229276
灵瑞寺,湖南,长沙,长沙,0731,88267265,岳麓区,莲花镇龙洞村,景点,宗教,112.75986,28.141676
乐翻天炮城,湖南,长沙,长沙,0731,,芙蓉区,烈士公园游乐场,景点,游乐场,112.994537,28.20681
康辉旅游,湖南,长沙,长沙,0731,,红星国际会展中心,湘府东路459号华润万家3楼,景点,旅行社,113.018776,28.109231
weroilson时尚旅行用品馆,湖南,长沙,长沙,0731,,高桥,环城东路168号f1层,景点,旅行社,113.021045,28.173625
建德旅游景观规划设计有限公司,湖南,长沙,长沙,0731,,芙蓉南路沿线,德思勤城市广场A5栋11F1107/1108室,景点,旅行社,113.009842,28.112952
中旅假日旅行社,湖南,长沙,长沙,0731,,人民中路/朝阳路/融圣国际,左家塘街道人民中路526号,景点,旅行社,113.006341,28.183937
张家界特色游,湖南,长沙,长沙,0731,,武广高铁,花侯路以东长沙南站B1层,景点,旅行社,113.063036,28.147125
湖湘能量谷,湖南,长沙,长沙,0731,85168666,河西大学城,岳麓山爱晚亭北行300米处,景点,更多景点/周边游,112.938385,28.182974
逸画廊,湖南,长沙,长沙,0731,,开福区,营盘东路73号,景点,美术馆,112.990196,28.203756
千里马休闲度假村,湖南,长沙,长沙,0731,86911689,暮云镇,大栗塘,景点,更多景点/周边游,113.025215,28.005886
海航乐游,湖南,长沙,长沙,0731,189****3989,湖南农业大学,东岸街道双杨路东岸梅园小区C区,景点,旅行社,113.059373,28.195243
浏阳市宝盖寺,湖南,长沙,浏阳,0731,83441769,浏阳市其他,古港镇,景点,宗教,113.742767,28.355076
大学生态环境旅游规划中心,湖南,长沙,长沙,0731,,河西大学城,桔子洲街道麓山南路2号湖南大学麓山南路8号,景点,旅行社,112.943848,28.178209
稻花香农耕文化园,湖南,长沙,宁乡市,0731,158****1822,宁乡市其他,双江口镇檀树湾村,景点,动植物园,112.664368,28.330978
东鹜山,湖南,长沙,宁乡市,0731,,灰汤温泉镇,东鹜山,景点,自然风光,112.373993,27.989273
集梦园度假村,湖南,长沙,长沙,0731,82221692,梅溪湖,桃花村董家冲组桃花农家乐前100米,景点,更多景点/周边游,112.902473,28.157932
绣品展销展览馆,湖南,长沙,长沙县,0731,,筑梦园/中南汽车世界,石塘路湘绣城,景点,展览馆,113.066224,28.246578
南无阿弥陀佛,湖南,长沙,长沙,0731,,河西大学城,登高路58号岳麓山国家重点风景名胜区古麓山寺内,景点,更多景点/周边游,112.93502,28.180122
殿神财,湖南,长沙,长沙,0731,,望城步行街,文源中路联诚国际城,景点,人文古迹,112.818771,28.356113
靖港古镇-大裕,湖南,长沙,长沙,0731,,望城区,保健街35号附近,景点,古村古镇,112.791259,28.458069
海普声域・云游谷,湖南,长沙,长沙,0731,,含浦,学士路口裕园商业街,景点,更多景点/周边游,112.898093,28.131363
浏阳市荷花唐洲陈大仙人庙,湖南,长沙,浏阳,0731,83259166,浏阳市其他,许埠尖,景点,宗教,113.660744,28.128811
仙女山,湖南,长沙,宁乡市,0731,,宁乡市其他,湖南省长沙市宁乡市道林镇,景点,自然风光,112.716576,28.044224
长沙生态动物园游乐场,湖南,长沙,长沙,0731,,友阿奥特莱斯,暮云镇芙蓉南路,景点,游乐场,113.000558,28.034687
三珍虎园,湖南,长沙,长沙县,0731,86220258,长沙县,金井镇脱甲村向北许家屋场,景点,动物园,113.343369,28.572447
红旗法治广场,湖南,长沙,长沙,0731,,梓园路/省儿童医院,梓园路131号,景点,广场,112.989059,28.175697
潜伽・长沙潜水旗舰中心,湖南,长沙,长沙,0731,85457600;131****0001,湘江世纪城,经开区 三一魔豆仓 创新中心188号,景点,潜水,112.981361,28.264565
白沙井公园,湖南,长沙,长沙,0731,,贺龙体育场,白沙路26号,景点,公园/广场,112.980576,28.179111
乌山森林生态公园,湖南,长沙,长沙,0731,,望城区,黄金园街道普瑞西路与黄桥大道西南方向,景点,森林公园,112.795723,28.296309
玉潭公园,湖南,长沙,宁乡市,0731,87822705,宁乡市其他,二环南路玉潭公园,景点,公园/广场,112.536888,28.247108
浏阳市三口镇三口少年宫,湖南,长沙,浏阳,0731,,浏阳市其他,同绥北路浏阳市三口乡三口初级中学,景点,展览馆,113.781822,28.341059
晚安家居文化园,湖南,长沙,长沙,0731,89859199,含浦,车塘河路18号,景点,文化公园,112.905388,28.141258
唐家大屋,湖南,长沙,长沙,0731,,井湾子,井湾路阳光在线,景点,人文古迹,113.013199,28.124857
宝中旅游,湖南,长沙,长沙县,0731,187****0283,黄花镇/黄花机场,青园南路2号,景点,旅行社,113.154283,28.175982
大围山,湖南,长沙,长沙,0731,,四方坪,东风路六条巷34号附近,景点,自然景观,112.994537,28.22006
洪山体育公园,湖南,长沙,长沙,0731,177****3577,月湖公园/长沙大学,福元路与东二环交界处西北角,景点,公园/广场,113.017235,28.253166
华天旅游,湖南,长沙,长沙,0731,,高桥,万家丽中路362附近,景点,旅行社,113.028446,28.176872
新景界旅行社,湖南,长沙,长沙,0731,,新开铺,南二环306号兴威华天大酒店27楼,景点,旅行社,112.977011,28.141791
亲和力旅游,湖南,长沙,长沙,0731,,望城步行街,高塘岭大道联诚国际城西门,景点,旅行社,112.818575,28.356467
赛格车,湖南,长沙,长沙县,0731,,筑梦园/中南汽车世界,凉塘西路2号附近,景点,旅行社,113.05975,28.242749
橘子洲江景温泉,湖南,长沙,长沙,0731,,橘子洲公园,橘子洲风景区北端橘子洲沙滩游乐园内,景点,温泉,112.963515,28.201044
帷幕开啦星城蜡像馆,湖南,长沙,长沙,0731,84761800;133****0500,步步高梅溪新天地,枫林三路梅溪湖步步高新天地梅溪大街爱情广场B2-101栋,景点,蜡像馆,112.86142,28.19693
柯柯农艺梦工厂,湖南,长沙,长沙,0731,88340448;135****8789,望城区,靖港镇三桥村望城蔬菜产业示范园,景点,更多景点/周边游,112.721504,28.420258
玫红旅游,湖南,长沙,长沙县,0731,138****7130,星沙通程广场,星沙大市场四区38栋,景点,旅行社,113.078977,28.240237
快游神州自助自驾旅游护照营运中心,湖南,长沙,长沙,0731,,芙蓉区,东二环辅路与纬二路交叉口东南约60米,景点,旅行社,113.020166,28.199736
炭河里青铜文化博物馆,湖南,长沙,宁乡市,0731,81870333,黄材旅游区,黄材镇炭河里青铜文化博物馆,景点,博物馆,112.112686,28.153057
龙伏庭怡草莓园,湖南,长沙,浏阳,0731,,行政中心,环府路,景点,更多景点/周边游,113.643075,28.162824
长沙枫叶游艇俱乐部,湖南,长沙,长沙,0731,89786830;137****3830,观沙岭/茶子山,潇湘北路3段1088号,景点,游艇,112.96505,28.229958
慧润旅游,湖南,长沙,长沙县,0731,86883367,长沙经济技术开发区,松雅湖国际公寓山姆4号,景点,旅行社,113.090679,28.257019
皇龙大峡谷,湖南,长沙,浏阳,0731,83838456;158****4367,浏阳市其他,浏阳古港镇皇龙峡生态旅游区,景点,自然风光,113.718666,28.324217
浔龙河樱花谷,湖南,长沙,长沙县,0731,86207099,长沙县,浔龙河生态艺术小镇内,景点,植物园,113.187172,28.347157
浏阳市烈士陵园,湖南,长沙,浏阳,0731,,浏阳市其他,吾山自然保护区西,景点,烈士陵园,113.589558,28.193318
农科院梅园,湖南,长沙,长沙,0731,,芙蓉区,远大二路1120号,景点,更多景点/周边游,113.100875,28.207425
高家庄饭店,湖南,长沙,长沙,0731,,太平洋服饰广场,老仓街老仓街64号住宅小区西南侧,景点,更多景点/周边游,112.820198,28.366898
永和烈士墓,湖南,长沙,浏阳,0731,,浏阳市其他,永和派出所,景点,烈士陵园,113.85334,28.289143
革命烈士陵园,湖南,长沙,长沙县,0731,,长沙县,双江片区石板村18号,景点,烈士陵园,113.474083,28.570924
烈士童健吾墓,湖南,长沙,长沙,0731,,河西大学城,岳麓山风景名胜区长沙鸟语林东北,景点,古代遗迹,112.934313,28.181683
特色美食七街,湖南,长沙,长沙,0731,189****2575,德政园/杨家山,高桥街道人民东路与冬青路交汇处南100米,景点,夜市,113.025124,28.183023
米米游乐园,湖南,长沙,宁乡市,0731,188****9952,宁乡市其他,一零二县道枫木新城,景点,游乐场,112.270409,28.022688
宏泰坊,湖南,长沙,长沙,0731,,望城区,靖港古镇内,景点,展览馆,112.789482,28.456821
沩源里商业步行街,湖南,长沙,宁乡市,0731,,宁乡市其他,104县道东侧,景点,步行街,111.960823,28.095732
加拿大蒙克顿,湖南,长沙,长沙县,0731,,筑梦园/中南汽车世界,凉塘路中南第二小学东侧约40米,景点,更多景点/周边游,113.071251,28.243454
安贤木雕创作室,湖南,长沙,长沙,0731,135****3839,开福区,捞刀河北路与裕城南路交叉路口往东北约50米,景点,美术馆,112.975838,28.276038
无云亭,湖南,长沙,长沙,0731,,河西大学城,岳麓山风景名胜区云麓峰游乐场,景点,更多景点/周边游,112.932587,28.180328
紫龙湖湿地公园,湖南,长沙,宁乡市,0731,,灰汤温泉镇,龙熙温泉山庄,景点,公园/广场,112.350861,27.992674
洪西体育公园,湖南,长沙,长沙县,0731,177****3577,月湖公园/长沙大学,山月路299号,景点,公园/广场,113.031136,28.260221
清三小城市少年宫,湖南,长沙,长沙,0731,,珠江花城/万国城,筒车坝路与盛世路交叉路口西侧,景点,展览馆,112.997055,28.255648
长沙县北山镇乡村少年宫,湖南,长沙,长沙县,0731,,长沙县,蒿塘西路3号,景点,展览馆,113.024803,28.401915
长沙美之海水母花园,湖南,长沙,长沙,0731,8836069,步步高梅溪新天地,步步高梅溪湖新天地云顶星河游乐王国内,景点,海洋馆,112.860653,28.197751
欧阳询文化艺术中心,湖南,长沙,长沙,0731,,望城区,书堂山欧阳询文化园步行街北50米,景点,展览馆,112.886139,28.396
乐游国际旅行社有限公司,湖南,长沙,长沙,0731,,涉外经济学院,文轩路579号天元涉外景园B区一栋负1层F1015号,景点,旅行社,112.871131,28.206891
都正街,湖南,长沙,长沙,0731,150****7839,黄兴路步行街,天心阁后门,景点,步行街,112.981697,28.187254
vrip・tv科技馆,湖南,长沙,长沙,0731,189****2217,开福万达广场,湘江中路589号开福万达广场3层麦当劳旁边,景点,科技馆,112.970947,28.198353
阳光100凤凰街,湖南,长沙,长沙,0731,88658888,罗家嘴/阳光100,岳麓街道南二环一段518号,景点,观光街区,112.94474,28.139545
万锦国际旅行社,湖南,长沙,长沙,0731,,煌逭/新外滩,潇湘中路58号,景点,旅行社,112.956186,28.195366
途乐旅行社,湖南,长沙,长沙县,0731,157****8151,长沙县,高岭寺西路101号,景点,旅行社,113.195134,28.146154
湘江游轮橘洲之星,湖南,长沙,长沙,0731,85520710,橘子洲公园,橘子洲码头,景点,城市观光,112.96244,28.187187
长沙沙坪小镇,湖南,长沙,长沙,0731,,开福区,沙坪街道X037层,景点,现代小镇,113.022903,28.354502
旅游咨询集散中心,湖南,长沙,长沙,0731,,武广高铁,花侯路以东长沙南站B1F层,景点,旅行社,113.063065,28.145824
宝中国际旅行社,湖南,长沙,长沙,0731,,五里牌,车站北路70号万象企业公馆10层,景点,旅行社,113.012275,28.200484
新康辉国际旅行社,湖南,长沙,长沙,0731,85150288,银盆岭,桐梓坡路234号,景点,旅行社,112.934651,28.218251
湖南海外旅游,湖南,长沙,长沙,0731,,袁家岭/火车站,韶山北路59号,景点,旅行社,112.997177,28.193846
乐水魔方水世界,湖南,长沙,长沙,0731,86678025,开福区,捞刀河街道长沙园林生态园内,景点,水上乐园,113.041176,28.295841
坡子街,湖南,长沙,长沙,0731,,坡子街,坡子街,景点,步行街,112.972801,28.190514
县正街,湖南,长沙,长沙,0731,,黄兴路步行街,县正街,景点,步行街,112.980659,28.18585
森林公园壹号,湖南,长沙,长沙,0731,,井圭路,"(雨花汽车南站)湘府东路二段35号,瓦窑路39号",景点,森林公园,113.037354,28.112045
58众创,湖南,长沙,长沙,0731,4001089058,河西大学城,潇湘中路367号,景点,创意园区,112.951424,28.154945
炭河千古情,湖南,长沙,宁乡市,0731,81870333,黄材旅游区,黄材镇黄材大道,景点,旅游项目/观光项目,112.115311,28.152205
中铁国际旅行社,湖南,长沙,长沙,0731,189****3302;134****3302,含浦,云栖路488号云栖谷住宅小区21栋楼下左栗路临街门店-101号,景点,旅行社,112.906697,28.145697
柳建新刺绣艺术馆,湖南,长沙,长沙,0731,84221186,树木岭,万家丽中路二段539号万科金域华府三期8栋101室,景点,美术馆,113.035095,28.144262
小吴门,湖南,长沙,长沙,0731,84457878,八一桥,建湘路545号,景点,人文古迹,112.984772,28.199059
魔幻水上乐园,湖南,长沙,浏阳,0731,158****3333,浏阳市其他,S20省道梅田湖村,景点,水上乐园,113.746284,28.289328
刘少奇天华调查纪念馆,湖南,长沙,长沙县,0731,,长沙县,深远路,景点,纪念馆,113.18689,28.495025
贝拉小镇,湖南,长沙,长沙,0731,81851111;82925960,望城区,金洲大道光明村贝拉路88号,景点,游乐场,112.717659,28.235828
浏阳冒险岛丛林乐园,湖南,长沙,浏阳,0731,83960111,浏阳市其他,达浒镇浏阳冒险岛丛林乐园,景点,主题乐园,113.924599,28.405621
碧海蓝天温泉,湖南,长沙,长沙,0731,151****4667,树木岭,树木岭路,景点,温泉,113.021461,28.154056
加湘生态运动露营地,湖南,长沙,长沙,0731,189****9781,望城区,黑麋峰国家森林公园内,景点,动植物园,113.009872,28.43306
谢子龙影像艺术馆,湖南,长沙,长沙,0731,88991518,含浦,潇湘南路1段387号,景点,展览馆,112.947105,28.118299
华和国旅,湖南,长沙,长沙,0731,85664948,树木岭,树木岭路348号,景点,旅行社,113.023843,28.148773
麓山树镫记碑,湖南,长沙,长沙,0731,,河西大学城,登高路58号岳麓山国家重点风景名胜区云麓宫内,景点,人文古迹,112.933876,28.177544
太傅楼,湖南,长沙,长沙,0731,,太平街,五一大道与太平街交叉口西南50米太平老街内,景点,人文古迹,112.971909,28.192675
菊花石公馆,湖南,长沙,浏阳,0731,82224666,浏阳市其他,燎原南路82号,景点,展览馆,113.624664,28.161806
星光里,湖南,长沙,长沙,0731,,观沙岭/茶子山,茶子山路与观沙岭路交叉口西50米,景点,步行街,112.955521,28.241391
海水区,湖南,长沙,长沙,0731,,世界之窗/国际会展中心,三一大道501号长沙海底世界极地海洋馆内,景点,自然景观,113.055641,28.232042
碧桂园国际展销中心,湖南,长沙,长沙,0731,,开福万达广场,万达广场c1栋c132室,景点,展览馆,112.972046,28.200989
刘少奇故里干职工值班用房,湖南,长沙,宁乡市,0731,,宁乡市其他,花明楼镇刘少奇故里内,景点,更多景点/周边游,112.64566,28.039295
时代金街,湖南,长沙,长沙,0731,,月亮岛,盛腾路与银星路交叉口东150米,景点,步行街,112.929692,28.27952
超级英雄风车花园,湖南,长沙,长沙,0731,,世界之窗/国际会展中心,三一大道485号长沙世界之窗内,景点,游乐场,113.053078,28.233585
樱花园,湖南,长沙,长沙,0731,,涉外经济学院,枫林三路1015号正北方向100米,景点,植物园,112.867584,28.197878
清风园,湖南,长沙,长沙,0731,,劳动广场/书院路,东瓜山二条巷谊苑小区西南侧约80米,景点,公园/广场,112.975716,28.170443
民警职工之家,湖南,长沙,长沙,0731,,新开铺,湖开路9号附近,景点,展览馆,112.978032,28.144772
中南铁路园,湖南,长沙,长沙,0731,,铁道学院/林科大,韶山南路68号,景点,公园/广场,112.992615,28.139496
畅园,湖南,长沙,长沙,0731,,银盆岭,岳麓大道569号湖南商学院内,景点,植物园,112.920892,28.217883
岳麓农趣谷森林公园口袋博物馆,湖南,长沙,长沙,0731,,含浦,学士街道农趣谷1号（森林公园）,景点,博物馆,112.879071,28.148239
时光游乐园,湖南,长沙,长沙,0731,,五一广场,黄兴中路27号王府井百货7层,景点,更多景点/周边游,112.975784,28.192494
产业扶贫农博园,湖南,长沙,长沙,0731,,涉外经济学院,枫林三路1099号步步高梅溪新天地2层室外步行街,景点,展览馆,112.861519,28.199448
麓南青年街,湖南,长沙,长沙,0731,85466089,河西大学城,岳麓街道清水路与麓山南路交叉口西南角,景点,观光街区,112.931862,28.162865
谷山体育公园,湖南,长沙,长沙,0731,,月亮岛,金甲冲路西50米,景点,公园/广场,112.909081,28.274565
湖南国际会展中心,湖南,长沙,长沙,0731,84838000,月湖公园/长沙大学,浏阳河大桥东金鹰影视文化城,景点,展览馆,113.049515,28.23447
彩陶源村,湖南,长沙,长沙,0731,,望城区,铜官街道,景点,古村古镇,112.85633,28.427957
人在旅途,湖南,长沙,长沙,0731,84311315,天心阁/白沙井,天心路,景点,旅行社,112.982242,28.183942
龙骧浏阳河游船,湖南,长沙,长沙,0731,153****9335,橘子洲公园,橘子洲旅游区游船码头,景点,城市观光,112.960686,28.183969
洋湖湿地公园欢动世界,湖南,长沙,长沙,0731,137****7717,含浦,坪塘大道洋湖湿地公园白鹭塔旁,景点,游乐场,112.931313,28.124166
淘气仔儿童乐园,湖南,长沙,长沙,0731,,芙蓉区,马王堆北路92号大润多超市,景点,游乐场,113.019264,28.193357
北山森林公园,湖南,长沙,长沙县,0731,,长沙县,北山镇晒谷石常家寨,景点,森林公园,113.041527,28.450726
锦绣江南生态农庄,湖南,长沙,长沙县,0731,139****4238,长沙县,江背镇下贯冲秋江线南100米,景点,动植物园,113.276131,28.13216
艺韵斋艺术馆,湖南,长沙,浏阳,0731,150****1244,开心广场,礼花路太悦城中环金街二栋二楼,景点,美术馆,113.62059,28.161133
新高桥,湖南,长沙,长沙县,0731,153****8696,星沙通程广场,星沙商业步行街商13栋8号附近,景点,步行街,113.084465,28.241629
大山冲森林公园,湖南,长沙,长沙县,0731,,长沙县,大山冲森林公园,景点,森林公园,113.30455,28.410976
湘江游轮,湖南,长沙,长沙,0731,153****9335,北辰三角洲,三馆一厅旅游码头,景点,城市观光,112.9814,28.243015
亿嘉商旅,湖南,长沙,浏阳,0731,83699449,集里街道,金沙北路717号,景点,旅行社,113.606976,28.154846
湘莲荷花种植观赏园,湖南,长沙,长沙,0731,19967216009;19967218283,开福区,捞建路与东二环交叉口西200米路北,景点,植物园,113.014284,28.281002
桔子洲街道综合文化站,湖南,长沙,长沙,0731,82366609,河西大学城,潇湘中路122号,景点,展览馆,112.954933,28.187922
湖南第一师范教工活动中心,湖南,长沙,长沙,0731,,涉外经济学院,益吾路,景点,展览馆,112.869553,28.198278
黄方书画艺术展示中心,湖南,长沙,长沙县,0731,,星沙通程广场,开元中路132号附近,景点,展览馆,113.079436,28.250836
长沙市高新区乡村少年宫,湖南,长沙,长沙,0731,,望城区,长沙高新区雷锋小学,景点,展览馆,112.843224,28.205198
北极狐,湖南,长沙,长沙,0731,,世界之窗/国际会展中心,三一大道501号长沙海底世界极地海洋馆内,景点,更多景点/周边游,113.055779,28.232088
讲堂,湖南,长沙,长沙,0731,,伍家岭/开福寺,开福寺路136号古开福寺内,景点,宗教,112.977715,28.224703
浏阳市邦尼休闲旅游基地,湖南,长沙,浏阳,0731,,浏阳市其他,石灰嘴村梅园片大湾组194号,景点,旅行社,113.82946,28.049391
巴马长寿文化体验馆,湖南,长沙,长沙,0731,,运达中央广场,茂华禧都会C栋110室,景点,展览馆,113.037895,28.165888
城市岛,湖南,长沙,长沙,0731,,涉外经济学院,环湖路与连湖六路交叉口南150米,景点,现代建筑,112.885704,28.181984
赤大袋鼠,湖南,长沙,长沙,0731,,暮云镇,西湖村芙蓉南路长沙生态动物园步行展示区内,景点,动物园,113.004766,28.030584
黄兴南区步行商业街E区,湖南,长沙,长沙,0731,,黄兴路步行街,黄兴南路423号,景点,步行街,112.976051,28.189335
福林门,湖南,长沙,宁乡市,0731,,宁乡市其他,白马桥正农路98号,景点,更多景点/周边游,112.55304,28.243977
长沙市芙蓉区东岸街道文化站,湖南,长沙,长沙,0731,,湖南农业大学,望龙新城A21栋正东方向70米,景点,展览馆,113.075111,28.194393
田汉文化园,湖南,长沙,长沙县,0731,84067689,长沙县,果园镇,景点,纪念公园,113.208618,28.321314
香颂娱乐活动中心,湖南,长沙,长沙,0731,,铁道学院/林科大,韶山南路与香樟路交叉口东北200米,景点,展览馆,113.002296,28.137367
中南林业科技大学学生活动中心,湖南,长沙,长沙,0731,,铁道学院/林科大,文源街道韶山南路498号,景点,展览馆,112.99633,28.134354
三国战车,湖南,长沙,宁乡市,0731,,宁乡市其他,金洲镇关山旅游社区关山古镇内,景点,更多景点/周边游,112.677864,28.296741
康辉旅游,湖南,长沙,长沙县,0731,186****4054,长沙经济技术开发区,107国道中国邮政旁,景点,旅行社,113.082318,28.322396
湖南省购物放心街,湖南,长沙,长沙,0731,158****1078,五里牌,远大一路三湘大市场,景点,观光街区,113.016991,28.201311
宝中旅游,湖南,长沙,长沙县,0731,86910689,长沙经济技术开发区,星沙华润置地广场7栋107室,景点,旅行社,113.114222,28.245842
创意车街,湖南,长沙,长沙县,0731,,长沙经济技术开发区,湘龙街道中南汽车世界C15栋,景点,观光街区,113.06234,28.232382
明远水景喷泉,湖南,长沙,长沙,0731,,天际岭,时代阳光大道395号附近,景点,温泉,113.036194,28.097132
阿公岭,湖南,长沙,宁乡市,0731,,宁乡市其他,澳洲北路附近,景点,自然景观,112.638988,28.276618
直角大羚羊,湖南,长沙,长沙,0731,,暮云镇,芙蓉南路四段729号,景点,更多景点/周边游,113.011068,28.032128
宝贝收藏艺术馆,湖南,长沙,长沙,0731,,观沙岭/茶子山,滨江景观道渔人商业广场,景点,美术馆,112.963882,28.231667
湖南快乐之旅国际旅行社有限公司,湖南,长沙,长沙,0731,186****2471,袁家岭/火车站,东二环一段1139号湖南国际商务中心3层323-305号,景点,旅行社,113.01745,28.1947
中国国旅湖南国旅国际旅行社,湖南,长沙,长沙,0731,85220731,劳动广场/书院路,赤岭路272号,景点,旅行社,112.976377,28.150887
云台山茶旅集团中域蓉城营业部,湖南,长沙,长沙,0731,,天心区,城南西路28号长沙市芙蓉中路与城南路交汇处,景点,旅行社,112.985379,28.183269
长沙国防教育馆,湖南,长沙,长沙,0731,88165506,雷锋镇,雷锋镇振兴路42号雷锋纪念馆内,景点,博物馆,112.844819,28.205302
金云商街,湖南,长沙,长沙,0731,,望城区,南区931靶场路百姓日杂超市旁,景点,观光街区,112.900355,28.365096
浏阳宝中旅游国际旅行社有限公司柏加网点,湖南,长沙,浏阳,0731,182****8601,浏阳市其他,金明街娇兰佳人南30米,景点,旅行社,113.237916,28.051316
欧阳予倩生平陈列室,湖南,长沙,浏阳,0731,,天马路/将军路,予倩路9号,景点,陈列馆,113.639748,28.140219
樱花村,湖南,长沙,长沙,0731,,南门口,南墙湾巷与登仁桥巷交叉口西100米,景点,特色乡村,112.975883,28.184048
中联国旅,湖南,长沙,长沙,0731,,芙蓉南路沿线,新开路与紫薇路交叉口东南100米,景点,旅行社,112.985343,28.140027
雨花区井湾子街道井湾子社区道德讲堂,湖南,长沙,长沙,0731,,井湾子,井湾路356号,景点,展览馆,113.013847,28.122629
刘少奇法治思想陈列室,湖南,长沙,宁乡市,0731,,宁乡市其他,花明楼镇炭子冲人民法院花明楼人民法庭附近,景点,陈列馆,112.650414,28.03894
清风竹苑,湖南,长沙,浏阳,0731,,浏阳市其他,大围山国家森林公园栗木桥景区内,景点,更多景点/周边游,114.090851,28.422213
湖南省中青旅游,湖南,长沙,长沙,0731,88885280,天际岭,万家丽中路228号中天瑞景10栋1-2门面,景点,旅行社,113.038338,28.111914
天心公园-游客服务中心,湖南,长沙,长沙,0731,,天心阁/白沙井,人民西路294号,景点,公园/广场,112.982986,28.186264
树袋熊童画艺术馆,湖南,长沙,长沙,0731,177****8529,罗家嘴/阳光100,兰亭湾畔二期麓山兰亭实验小学正对面二楼,景点,美术馆,112.947853,28.136745
老泉遗风,湖南,长沙,长沙,0731,135****4778,黄兴路步行街,白果园31号,景点,自然景观,112.977966,28.188929
凯途国旅,湖南,长沙,长沙县,0731,,泉塘/星城国际,漓湘东路18号昌和商业中心1层,景点,旅行社,113.111221,28.225935
石梁村,湖南,长沙,宁乡市,0731,,宁乡市其他,长沙市宁乡市,景点,古村古镇,112.210281,28.050245
长沙红星国际会展中心-2号馆,湖南,长沙,长沙,0731,,红星国际会展中心,杉木冲东路融程花园酒店南侧约150米,景点,展览馆,113.012939,28.106827
大学生创业街,湖南,长沙,长沙,0731,,铁道学院/林科大,韶山南路576号,景点,观光街区,113.001791,28.131661
长沙国际金融中心艺术廊,湖南,长沙,长沙,0731,,五一广场,国际金融中心,景点,美术馆,112.976974,28.192532
长房香榭丽街,湖南,长沙,长沙,0731,,雨花区,湘府东路,景点,观光街区,113.056058,28.120658
湖南省中青旅国际旅行社有限公司,湖南,长沙,长沙县,0731,151****8319,长沙经济技术开发区,海伦春天38栋105号,景点,旅行社,113.12489,28.239986
湖南省中青旅劳动西路营业部,湖南,长沙,长沙,0731,84881616;84881606,贺龙体育场,回龙山巷湖南贺龙体育馆小区北侧,景点,旅行社,112.983331,28.176311
三馆一厅,湖南,长沙,长沙,0731,82892600,北辰三角洲,晴岚路滨江文化园内,景点,博物馆,112.978508,28.240381
湖南省中青旅,湖南,长沙,长沙,0731,139****2861,河西大学城,白云路99号正北方向90米,景点,旅行社,112.938403,28.197653
湖南百事通国际旅行社,湖南,长沙,长沙,0731,,四方坪,喻家冲华府地产609室,景点,旅行社,113.006258,28.229378
尚都汇亚洲风情美食街,湖南,长沙,长沙县,0731,186****9985,星沙一桥,板仓南路18号附近,景点,步行街,113.077721,28.228621
娄底市湘中国际旅行社有限公司长沙营业部,湖南,长沙,长沙,0731,,五里牌,车站北路1号千喜华城710,景点,旅行社,113.011276,28.198051
李维汉事迹陈列馆,湖南,长沙,长沙县,0731,,长沙县,茶香北路35号附近,景点,陈列馆,113.338911,28.462432
象行为驯化展示馆,湖南,长沙,长沙,0731,,暮云镇,西湖村芙蓉南路长沙生态动物园内,景点,博物馆,113.003762,28.030502
河西师大教工活动中心,湖南,长沙,长沙,0731,,河西大学城,上游中路湖南师范大学,景点,展览馆,112.948128,28.18849
青少年梦想广场,湖南,长沙,浏阳,0731,,浏阳市其他,同绥中路73号附近,景点,更多景点/周边游,113.778694,28.334471
古潭村,湖南,长沙,长沙,0731,,岳麓区,长沙市岳麓区,景点,古村古镇,112.664839,28.151559
长沙雄云,湖南,长沙,长沙,0731,,望城区,赤岗路与高星大道交叉口东南200米,景点,自然景观,112.835553,28.304933
婚庆公园游客服务中心,湖南,长沙,长沙,0731,,浏阳河风光带,东屯渡街道荷花路682号,景点,公园/广场,113.046684,28.190725
陨石馆,湖南,长沙,长沙,0731,,望城区,庐江社区,景点,博物馆,112.793087,28.459767
浏阳经开区城市规划展示馆,湖南,长沙,浏阳,0731,,浏阳工业园,康平路105-号楼附近,景点,陈列馆,113.397186,28.220394
工夫画廊,湖南,长沙,宁乡市,0731,153****7398,金洲大道/一中,绿地新天地4-104号,景点,美术馆,112.549,28.27407
大湖山,湖南,长沙,宁乡市,0731,,灰汤温泉镇,灰汤镇,景点,自然景观,112.349236,27.990067
湖南力威泵阀设备有限公司-会议中心,湖南,长沙,长沙,0731,,井圭路,洞井路南城印象附近（珑Z台附近）,景点,展览馆,113.02169,28.119291
湖南华运旅行社有限责任公司万科城店,湖南,长沙,长沙,0731,82233388,珠江花城/万国城,福元西路万科城13栋110号,景点,旅行社,112.995833,28.248043
湘豫玫瑰大峡谷,湖南,长沙,浏阳,0731,,浏阳市其他,河背村附近,景点,自然景观,113.562915,28.29964
苏托垸规划方案展馆,湖南,长沙,长沙,0731,,开福区,北二环附近,景点,陈列馆,112.998083,28.290753
戏剧人物蜡像馆,湖南,长沙,长沙,0731,,望城区,新裕路75号正东方向200米,景点,蜡像馆,112.811985,28.403865
佛光普照,湖南,长沙,长沙,0731,,河西大学城,学宫门正街72-73号附近,景点,人文古迹,112.972324,28.184344
桂花树小学-新苗城市少年宫,湖南,长沙,长沙,0731,,桂花路/左家塘,桂花树街191号附近,景点,展览馆,113.006805,28.178038
湖南省中青旅泰禹家园营业部,湖南,长沙,长沙,0731,85631569,喜盈门/喜乐地,香月路泰禹家园3期10栋2号,景点,旅行社,113.040909,28.12355
湖南乐游国际旅行社,湖南,长沙,长沙,0731,,高桥,马王堆南路259号汇达大厦2120室格灵岛玩具筷乐江南楼上,景点,旅行社,113.025636,28.176203
古麓山寺-法物流通处,湖南,长沙,长沙,0731,,河西大学城,登高路58号岳麓山国家重点风景名胜区古麓山寺内,景点,宗教,112.93425,28.179991
国储商业街,湖南,长沙,长沙,0731,,袁家岭/火车站,解放东路38号国储城市天地11层,景点,观光街区,113.009094,28.192196
海南乐游国旅火车站营业部,湖南,长沙,长沙,0731,,袁家岭/火车站,车站中路21号凯旋国际B座18层,景点,旅行社,113.010483,28.192383
七彩万象红木艺术馆,湖南,长沙,长沙,0731,,德政园/杨家山,东二环一段1065号铭威大厦北栋一楼,景点,美术馆,113.018173,28.190914
冬林府,湖南,长沙,长沙,0731,,太平街,太平街85号,景点,人文古迹,112.971703,28.193674
蒿山森林运动公园,湖南,长沙,浏阳,0731,,浏阳市其他,沙市镇蒿山,景点,公园/广场,113.406014,28.326599
萌肉之家植物园,湖南,长沙,浏阳,0731,189****4691,浏阳市其他,金沙南路杨家弄村李家排,景点,植物园,113.642624,28.108135
廉政文化园,湖南,长沙,长沙县,0731,,大众传媒,天华北路徐特立公园西北侧,景点,文化公园,113.080315,28.257275
湖南农业大学-麻文化展示馆,湖南,长沙,长沙,0731,,湖南农业大学,丹桂路与致远路交叉口西100米附近,景点,展览馆,113.083152,28.177742
楚尧艺术馆,湖南,长沙,宁乡市,0731,87011515,金洲大道/一中,花明北路中源凝香华都110号门面,景点,美术馆,112.555695,28.273607
潇湘奇石馆,湖南,长沙,长沙,0731,,开福区,东风路22号长沙烈士公园西门,景点,展览馆,112.992195,28.209972
何南熏墓,湖南,长沙,宁乡市,0731,,宁乡市其他,沙田乡杓子冲,景点,人文古迹,112.035536,28.043387
易雄墓,湖南,长沙,浏阳,0731,,浏阳市其他,枨冲镇将军洞,景点,烈士陵园,113.569836,27.976048
陶汝鼐墓,湖南,长沙,宁乡市,0731,,宁乡市其他,龙凤山乡弓箭村小官坊虎形山,景点,人文古迹,112.633613,28.06098
欧阳玄墓,湖南,长沙,浏阳,0731,,浏阳市其他,天马路与文兴路交叉口东50米,景点,古代遗迹,113.640892,28.127766
许光达故居,湖南,长沙,长沙县,0731,,黄兴镇,黄兴镇许光达故居,景点,名人故居,113.090097,28.136154
火车头文化公园,湖南,长沙,长沙,0731,,河西大学城,殷家冲路与湘江中路交叉路口东南方向100米,景点,文化公园,112.962134,28.147731
陶承故居,湖南,长沙,长沙,0731,,望城区,靖港古镇,景点,名人故居,112.790981,28.458171
兰圃,湖南,长沙,长沙,0731,,河西大学城,登高路58号,景点,更多景点/周边游,112.932565,28.176444
曾国藩靖港水战遗址,湖南,长沙,长沙,0731,88306970;88302868,望城区,靖港镇,景点,人文古迹,112.792974,28.456435
赵汝愚墓,湖南,长沙,长沙,0731,,南门口,妙高峰北麓青山祠,景点,人文古迹,112.973824,28.178652
解忧谷,湖南,长沙,长沙,0731,180****7100,河西大学城,月湖路冰宇长沙瓶装燃气南50米,景点,博物馆,112.924096,28.195336
珊瑚缸,湖南,长沙,长沙,0731,,世界之窗/国际会展中心,三一大道501号长沙海底世界极地海洋馆内,景点,更多景点/周边游,113.055794,28.232101
一道湾,湖南,长沙,浏阳,0731,,浏阳市其他,新安南路浏阳市第四中学西北侧约40米,景点,自然景观,113.884567,28.346247
塞纳春天整装生活艺术馆,湖南,长沙,长沙,0731,,伍家岭/开福寺,芙蓉中路二段101-22号,景点,美术馆,112.989326,28.232527
升降平台,湖南,长沙,长沙,0731,85041653,汽车南站,洞和路雨花机电市场-C区,景点,更多景点/周边游,113.014992,28.092981
金刚鹦鹉,湖南,长沙,长沙,0731,,暮云镇,西湖村芙蓉南路长沙生态动物园内,景点,动物园,113.00722,28.031195
安米莉棉麻艺术馆,湖南,长沙,宁乡市,0731,,人人乐,花明北路161号,景点,美术馆,112.555046,28.26363
少年帮艺术馆,湖南,长沙,长沙,0731,183****2014,汽车东站,农园路,景点,美术馆,113.049982,28.203422
蓝色海洋,湖南,长沙,长沙县,0731,,长沙经济技术开发区,星沙街东一路128号,景点,海洋馆,113.091377,28.252263
leyou乐游旅游,湖南,长沙,长沙,0731,,湘江世纪城,金泰路199号世纪金源购物中心2层,景点,旅行社,112.979981,28.250871
沩山千手千眼观音文化公园,湖南,长沙,宁乡市,0731,,宁乡市其他,沩山山腰毗卢峰下密印寺内,景点,文化公园,111.970161,28.17767
田汉故居,湖南,长沙,长沙县,0731,,长沙县,田家F茅坪,景点,名人故居,113.205995,28.320035
集里街道办事处综合文化站,湖南,长沙,浏阳,0731,,集里街道,淮洲西街浏阳市三联工业学校西北侧约190米,景点,展览馆,113.613152,28.150545
明城广场,湖南,长沙,长沙县,0731,84061588,星沙一桥,天华中路79号,景点,公园/广场,113.081291,28.236343
新城社区综合文化服务中心,湖南,长沙,宁乡市,0731,,宁乡市其他,新城大市场7栋106室正北方向200米,景点,展览馆,112.544164,28.280794
员工区域,湖南,长沙,长沙,0731,,芙蓉南路沿线,杉木冲西路9号湖南省科学技术馆A馆F1层,景点,科技馆,112.985657,28.107546
游客服务中心,湖南,长沙,长沙,0731,,天际岭,森林植物园北门,景点,公园/广场,113.032272,28.109234
节庆岛,湖南,长沙,长沙,0731,,梅溪湖,梅溪湖街道梅溪湖景区,景点,自然景观,112.909363,28.194172
欢乐水世界,湖南,长沙,浏阳,0731,137****8470,浏阳市其他,金沙南路348号,景点,水上乐园,113.639519,28.122257
麓谷星球水上乐园,湖南,长沙,长沙,0731,85452661,麓谷,桐梓坡西路362号保利・麓谷体育公园内（近地铁6号线麓谷体育公园站5号口）,景点,水上乐园,112.88483,28.2203
龙溪谷溯溪漂流,湖南,长沙,浏阳,0731,153****3868;159****7601,浏阳市其他,淳口镇向坪村,景点,漂流,113.570197,28.301667
贡园,湖南,长沙,长沙县,0731,,长沙经济技术开发区,特立东路109号附近,景点,公园/广场,113.089411,28.254641
湖南省中国国际旅行社,湖南,长沙,长沙,0731,153****2899,高桥,万家丽中路一段358号上河国际商业广场A栋7024房,景点,旅行社,113.028437,28.176857
望仙公园,湖南,长沙,长沙县,0731,,长沙经济技术开发区,松雅湖中学,景点,公园/广场,113.097733,28.252989
梅溪欢乐城,湖南,长沙,长沙,0731,88327896,涉外经济学院,麓谷街道枫林三路1123号附近,景点,游乐场,112.862488,28.198278
长沙铜官窑古镇,湖南,长沙,长沙,0731,88106666,望城区,铜官街道铜官窑路1号,景点,古村古镇,112.837252,28.409486
百年招银林,湖南,长沙,长沙,0731,,河西大学城,麓山路82号岳麓山风景名胜区,景点,更多景点/周边游,112.932663,28.182915
圣经学校旧址,湖南,长沙,长沙,0731,,韭菜园,韭菜园路省政府二院三号办公楼,景点,古代遗迹,112.99054,28.193047
光明大观园游客服务中心,湖南,长沙,长沙,0731,,望城区,贝拉路与金洲大道交叉口西南约80米,景点,公园/广场,112.726364,28.241594
开慧双拥社区公园,湖南,长沙,长沙,0731,,识字岭,芙蓉中路与人民中路交汇处,景点,公园/广场,112.987213,28.186876
冬岛,湖南,长沙,长沙,0731,,开福区,湖南烈士公园冬岛,景点,自然景观,113.001756,28.209706
炭河冰雪王国,湖南,长沙,宁乡市,0731,87909168,黄材旅游区,黄祖沩公路炭河古城,景点,滑雪场,112.116051,28.155355
鲸图出行,湖南,长沙,长沙,0731,,武广高铁,长沙南站,景点,更多景点/周边游,113.06297,28.146791
刘墓,湖南,长沙,浏阳,0731,,浏阳市其他,金刚镇将金庄村军村民组,景点,古代遗迹,113.686363,27.904884
一级广场,湖南,长沙,长沙,0731,,开福区,东风路22号,景点,更多景点/周边游,112.992989,28.206394
大围山西溪磐石大峡谷,湖南,长沙,浏阳,0731,155****8088,浏阳市其他,张坊镇田溪村西北方向约163公里,景点,自然风光,114.144691,28.381302
韭菜园路古玩文化街,湖南,长沙,长沙,0731,,韭菜园,韭菜园路129号,景点,步行街,112.988884,28.194592
湖南天天国际旅行社有限公司,湖南,长沙,浏阳,0731,,淮川街道,浏阳大道与车站东路交叉口西北100米,景点,旅行社,113.631773,28.153022
湖南省中青旅,湖南,长沙,长沙,0731,14789788808,望城区,枫林三路步步高梅溪新天地负1楼,景点,旅行社,112.846502,28.200242
永安捞刀河广场,湖南,长沙,浏阳,0731,,永安镇,中和西街北150米,景点,公园/广场,113.287062,28.218001
国际美育,湖南,长沙,长沙,0731,139****5189,喜盈门/喜乐地,新河路悠游小镇S7栋,景点,博物馆,113.034772,28.128772
爱心广场,湖南,长沙,长沙,0731,,中山亭/乐和城,学宫街与民主东街交叉口东南150米,景点,公园/广场,112.979858,28.204708
湖南省国旅,湖南,长沙,长沙,0731,153****6156,桐梓坡,桐梓坡西路138号长房时代城21栋122-35-1号,景点,旅行社,112.909926,28.219726
绿地广场,湖南,长沙,长沙,0731,,橘子洲公园,橘子洲北东南方向70米,景点,公园/广场,112.964432,28.201542
东湖村文化广场,湖南,长沙,长沙,0731,,湖南农业大学,东湖四组物流园内,景点,公园/广场,113.098946,28.18342
柳樱广场,湖南,长沙,长沙,0731,,橘子洲公园,橘子洲头2号橘子洲景区,景点,公园/广场,112.964928,28.20402
鹿宅,湖南,长沙,宁乡市,0731,,春城万象/步行街,步行街与民兴路交叉口西南方向80米,景点,历史建筑,112.553329,28.249262
绿色森林,湖南,长沙,宁乡市,0731,189****1388,南站,龙江路与二环南路交叉路口往东北约50米,景点,森林公园,112.550926,28.234905
滨江休闲公园,湖南,长沙,长沙,0731,189****2766,观沙岭/茶子山,观沙岭街道福元路大桥西侧,景点,公园/广场,112.961001,28.253491
修域,湖南,长沙,长沙,0731,,友阿奥特莱斯,暮南路北塘商业城西北侧约140米,景点,科技馆,112.980553,28.02449
享受明天巴马长寿文化体验馆,湖南,长沙,宁乡市,0731,,人人乐,新康中路559号,景点,展览馆,112.549782,28.269133
走进印象派・100年数字回顾艺术大展,湖南,长沙,长沙,0731,137****8249,开福区,营盘中路19号省展览馆北厅一、二楼,景点,展览馆,112.989627,28.204447
长沙市小古道巷小学城市少年宫,湖南,长沙,长沙,0731,,黄兴路步行街,小古道巷62号附近,景点,展览馆,112.977219,28.185122
岳麓区岳麓街道阳光社区综合文化服务中心,湖南,长沙,长沙,0731,,罗家嘴/阳光100,黄鹤路阳光100国际新城-西区,景点,展览馆,112.940847,28.142407
东业广场,湖南,长沙,长沙,0731,,芙蓉区,远大二路与星沙大道,景点,公园/广场,113.083851,28.206146
国学文化广场,湖南,长沙,长沙,0731,,望城步行街,高塘岭大道联诚花园内,景点,公园/广场,112.822144,28.359716
长沙市望城区城乡规划展示厅,湖南,长沙,长沙,0731,,郭亮中路,宝粮中路65号,景点,博物馆,112.817825,28.350124
五行艺术藏馆,湖南,长沙,长沙,0731,,望城区,湘江大道景观道与郭亮路交叉口西北100米,景点,美术馆,112.814447,28.451137
汤里温泉,湖南,长沙,长沙,0731,,桂花路/左家塘,曙光中路338号,景点,温泉,113.001038,28.170246
国网湖南省电力有限公司电能替代与节能服务展示厅,湖南,长沙,长沙,0731,,窑岭/长岭,韶山北路388号,景点,展览馆,112.995918,28.174807
湖南中铁国旅,湖南,长沙,浏阳,0731,,洞阳镇,牛泸路173号,景点,旅行社,113.40935,28.208079
长沙市非物质文化遗产展示馆,湖南,长沙,长沙,0731,84111906;88666595,橘子洲公园,橘子洲橘洲客栈,景点,博物馆,112.960353,28.171455
洋湖体育公园,湖南,长沙,长沙,0731,,含浦,坪塘大道洋湖路,景点,公园/广场,112.935839,28.119757
玫瑰园,湖南,长沙,长沙,0731,181****8997,天际岭,时代阳光大道红星花卉市场中区十四号,景点,植物园,113.03344,28.096994
花岗岩球状风化体,湖南,长沙,浏阳,0731,,浏阳市其他,大围山国家森林公园栗木桥景区内,景点,更多景点/周边游,114.089283,28.420192
南山草原,湖南,长沙,长沙,0731,,麓谷,文轩路与谷园路交叉口东150米,景点,自然景观,112.893913,28.211632
携程旅游,湖南,长沙,长沙,0731,,银盆岭,北辰三角洲E4区,景点,旅行社,112.983651,28.233742
联旅旅游有限公司公司,湖南,长沙,宁乡市,0731,155****2928,灰汤温泉镇,灰汤镇华天路与蒋琬街交汇处,景点,旅行社,112.354207,27.978377
湖南省展览馆会议中心,湖南,长沙,长沙,0731,155****1978,开福区,营盘东路19号正东方向50米,景点,展览馆,112.988976,28.205139
横幅刻碑修墓,湖南,长沙,宁乡市,0731,130****2403,宁乡市其他,人民政府东南侧约120米,景点,人文古迹,112.500452,28.305162
119消防社区花园,湖南,长沙,长沙,0731,,芙蓉南路沿线,书香路658号东北方向50米,景点,公园/广场,112.973847,28.114707
长沙山水洲城旅行社有限公司,湖南,长沙,长沙县,0731,86883131,长沙经济技术开发区,天华路1号星隆国际广场2211,景点,旅行社,113.082923,28.245403
时代靳江小镇,湖南,长沙,宁乡市,0731,,宁乡市其他,双大路,景点,现代小镇,112.672577,27.968678
气味博物馆,湖南,长沙,浏阳,0731,4008081936,步行街,九方北正西商场二楼LA221室,景点,博物馆,113.63237,28.136547
洪山寺,湖南,长沙,长沙,0731,,开福区,洪山街道山鹰潭（毗邻湖南广电中心）,景点,宗教,113.030267,28.259237
鹤轩,湖南,长沙,宁乡市,0731,,宁乡市其他,正农北路与正农路交叉口西北100米,景点,动物园,112.552895,28.244249
湖南文化广场投资开发有限公司,湖南,长沙,长沙,0731,,窑岭/长岭,韶山北路139号湖南文化大厦B座21层2116室,景点,公园/广场,112.997685,28.189645
火烈鸟,湖南,长沙,长沙,0731,,河西大学城,登高路58号岳麓山国家重点风景名胜区长沙鸟语林内,景点,更多景点/周边游,112.932831,28.178717
富士通展示中心,湖南,长沙,长沙,0731,186****9698,劳动广场/书院路,书院路10号蓝湾国际广场A座22楼05-09室,景点,展览馆,112.971268,28.165558
原始次森林,湖南,长沙,浏阳,0731,,浏阳市其他,青云观附近船底窝景区内,景点,森林公园,114.110126,28.409096
业主活动中心,湖南,长沙,长沙,0731,,芙蓉南路沿线,湘府中路383号附近,景点,展览馆,112.993835,28.111135
陶吧艺术馆,湖南,长沙,长沙,0731,,湖南农业大学,京珠西辅道与人民东路交叉路口往西北约100米,景点,美术馆,113.060661,28.19212
悦享旅游驿站,湖南,长沙,长沙县,0731,,长沙县,青山铺富强路296号,景点,旅行社,113.164883,28.462013
莫奈画艺,湖南,长沙,长沙,0731,,喜盈门/喜乐地,万家丽中路三段36号喜盈门・范城时尚购物中心F8层,景点,美术馆,113.034691,28.13302
洛克公园,湖南,长沙,长沙,0731,,梅溪湖,梅澜坊商业街3栋西南方向20米,景点,公园/广场,112.895317,28.18973
第九战区司令部战时指挥所,湖南,长沙,长沙,0731,,河西大学城,岳麓山,景点,人文古迹,112.93663,28.180378
去哪儿旅行,湖南,长沙,长沙,0731,,袁家岭/火车站,车站中路267号,景点,旅行社,113.011077,28.194532
温馨夕阳旅游,湖南,长沙,长沙,0731,,万家丽北路,万家丽99号万家丽国际购物广场负2楼C13号,景点,旅行社,113.032055,28.190405
深圳新明扬国际旅行社有限公司,湖南,长沙,长沙,0731,,万家丽北路,万家丽中路139号,景点,旅行社,113.030302,28.188402
湖南长沙湘辉旅行社,湖南,长沙,长沙,0731,150****5815,五一广场,五一广场五一大道701号,景点,旅行社,112.973974,28.194924
广州市良辰美景国际旅行社有限公司,湖南,长沙,长沙,0731,,开福万达广场,万达总部国际,景点,旅行社,112.971246,28.201686
易旅,湖南,长沙,长沙,0731,,开福万达广场,万达・总部国际C2,景点,旅行社,112.971035,28.201945
长沙悦行天下旅游服务有限公司,湖南,长沙,长沙,0731,,开福万达广场,万达・总部国际C2,景点,旅行社,112.970961,28.202451
沙坪湘绣博物馆,湖南,长沙,长沙,0731,86783333,开福区,沙坪街73号,景点,博物馆,113.022148,28.354776
欧亚国际旅行社,湖南,长沙,长沙,0731,,五一广场,顺星桥巷131号,景点,旅行社,112.980099,28.199423
长桥公园,湖南,长沙,长沙县,0731,,泉塘/星城国际,泉塘街道东七路与远大二路交叉口东50米,景点,公园/广场,113.118988,28.212557
广州美亚电子商务国际旅行社有限公司,湖南,长沙,长沙,0731,,河西大学城,坡子街152号,景点,旅行社,112.972871,28.189931
春华山抗战纪念园,湖南,长沙,长沙县,0731,135****9845,长沙县,春华镇政府西北,景点,纪念馆,113.252182,28.278573
春华渡槽,湖南,长沙,长沙县,0731,,长沙县,029县道春华山村,景点,高空观景,113.256395,28.265455
长沙失恋博物馆,湖南,长沙,长沙,0731,177****9974,太平街,黄兴路步行街D区5楼恋爱天台01号,景点,展览馆,112.976166,28.18741
康辉旅游,湖南,长沙,长沙,0731,,开福万达广场,中山路万达广场C1栋,景点,旅行社,112.971351,28.201431
生机创业街,湖南,长沙,长沙,0731,,湖南农业大学,对山路与科教路交叉口西北100米,景点,观光街区,113.086813,28.186608
北辰滨江公园,湖南,长沙,长沙,0731,,银盆岭,新河街道湘江北路与秋月路交叉口西150米,景点,公园/广场,112.976226,28.233782
湖南中国国际旅行社,湖南,长沙,长沙,0731,,树木岭,雨花亭街道圭塘路新星小区北门众星苑2栋8号,景点,旅行社,113.027277,28.143627
宝中旅游,湖南,长沙,长沙,0731,137****8881,万家丽北路,嘉雨路与望河路交叉路口往南约100米,景点,旅行社,113.035944,28.205585
花田厝鲜花艺术小镇,湖南,长沙,长沙县,0731,82956916,长沙县,路口镇杨西冲村景然科普基地,景点,旅游项目/观光项目,113.247725,28.398807
乐游旅游,湖南,长沙,长沙县,0731,,卜蜂莲花星沙店,星沙大道178号万象汇B1层,景点,旅行社,113.086515,28.248805
宝中旅游,湖南,长沙,长沙,0731,89701520,湘江世纪城,金泰路199号世纪金源购物中心B1层,景点,旅行社,112.97997,28.25014
禾・美术馆,湖南,长沙,长沙,0731,,涉外经济学院,枫林三路1099号步步高梅溪新天地A4栋1层,景点,美术馆,112.862213,28.197115
宝中旅游,湖南,长沙,长沙,0731,,芙蓉南路沿线,芙蓉南路bobo天下城南侧玉兰路兰亭h岛4栋,景点,旅行社,112.984761,28.133051
旅游百事通,湖南,长沙,长沙县,0731,,黄兴镇,唱吧量贩式KTV,景点,旅行社,113.124968,28.128335
华盛乐园,湖南,长沙,浏阳,0731,83372298,浏阳市其他,淳口镇鸭头村杨柳冲渔楼公路南500米,景点,主题公园,113.501236,28.343143
寻淮洲故居,湖南,长沙,浏阳,0731,138****7271,浏阳市其他,淮洲村黄狮塘,景点,纪念馆,113.59375,28.445353
乔江书院,湖南,长沙,长沙,0731,,望城区,上河街093号,景点,古村古镇,112.736229,28.505491
三贤祠,湖南,长沙,长沙,0731,,望城区,乔口镇衣铺街4号,景点,人文古迹,112.735761,28.504921
