名称,省份,真实城市,市县区,区号,电话,区域,地址,大分类,小分类,经度,纬度
原山西省博物馆,山西,太原,太原,0351,2029436,柳巷商业区,起凤街与五一广场交叉口西120米路北,景点,博物馆,112.571701,37.861698
卧虎山公园,山西,太原,太原,0351,3074066,动物园,涧河路,景点,公园/广场,112.574142,37.907372
迎泽公园,山西,太原,太原,0351,2022622,迎泽大街,迎泽大街218号,景点,城市公园,112.56134,37.853542
白云寺,山西,太原,太原,0351,7181555,迎泽区,郝庄镇南十方街45号,景点,宗教,112.595436,37.834381
迎泽观音庙,山西,太原,太原,0351,,柳巷商业区,水西关东街北200米,景点,宗教,112.557648,37.865749
太山龙泉寺,山西,太原,太原,0351,6779658,蒙山大佛景区,晋源街道太古路太山景区风峪沟沙河北岸,景点,宗教,112.442589,37.751068
董寿平美术馆,山西,太原,太原,0351,6020730,晋祠公园,晋祠博物馆晋溪书院东侧,景点,美术馆,112.441872,37.708118
文庙,山西,太原,太原,0351,,柳巷商业区,文庙巷3号,景点,宗教,112.579689,37.865494
崛围山,山西,太原,太原,0351,4030140,尖草坪区,市区西北汾河西岸呼延村附近,景点,自然风光,112.444656,37.967026
学府公园,山西,太原,太原,0351,,高新科技产业区,学府街中段,景点,公园/广场,112.572693,37.809975
蒙山大佛景区,山西,太原,太原,0351,6159898;6862502,蒙山大佛景区,罗城街道寺底村,景点,宗教,112.447067,37.780666
山西省工艺美术馆,山西,太原,太原,0351,4042375,桃园路,迎泽大街328号,景点,美术馆,112.546867,37.858364
东湖醋园,山西,太原,太原,0351,4424648;5626445,杏花岭区,马道坡26号,景点,陈列馆,112.595993,37.87862
太原动物园,山西,太原,太原,0351,3074953,动物园,东山马路2号,景点,动物园,112.585876,37.910946
晋商博物院,山西,太原,太原,0351,5223262,解放路,府东街101号,景点,博物馆,112.562653,37.874081
龙潭公园,山西,太原,太原,0351,5278589,万达/龙潭商业中心,城坊街28号,景点,公园/广场,112.553856,37.882351
漪汾公园,山西,太原,太原,0351,6283262,漪汾街,千峰北路茂华小区附近,景点,公园/广场,112.519096,37.880142
晋祠公园,山西,太原,太原,0351,2149649,晋祠公园,晋祠镇晋祠公园,景点,园林,112.448776,37.705666
二龙山,山西,太原,太原,0351,,中北大学,上兰村,景点,自然风光,112.433235,38.01582
晋祠博物馆,山西,太原,太原,0351,7225727;2149649,晋祠公园,晋祠镇晋祠村,景点,古代遗迹,112.441689,37.708813
山西省体育博物馆,山西,太原,太原,0351,138****2970,迎泽公园,双塔西街40号,景点,博物馆,112.56263,37.845261
新闻国际旅行社,山西,太原,太原,0351,2524880;186****2320,并州路,双塔寺街124号山西日报社,景点,旅行社,112.574898,37.845413
文瀛公园,山西,太原,太原,0351,4066351,柳巷商业区,柳巷街道海子边东街28号,景点,公园/广场,112.569954,37.864956
太原天主堂,山西,太原,太原,0351,3107178,万达/龙潭商业中心,解放路178号,景点,宗教,112.562607,37.883881
清真古寺,山西,太原,太原,0351,2027142,解放路,解放路20号,景点,宗教,112.560585,37.863892
晋祠路展览馆,山西,太原,太原,0351,,下元商业中心,晋祠路一段40号,景点,博物馆,112.529457,37.855625
晋阳古城遗址,山西,太原,太原,0351,,蒙山大佛景区,晋源镇古城营村,景点,古代遗迹,112.476509,37.740219
牺盟会委员会旧址,山西,太原,太原,0351,,五一路,精营东边街17号,景点,古代遗迹,112.57608,37.874359
关帝庙,山西,太原,太原,0351,4130936,解放路,庙前街36号,景点,宗教,112.557739,37.867798
山西国民师范旧址革命活动纪念馆,山西,太原,太原,0351,3071923,北大街,坝陵桥街道五一路276号,景点,纪念馆,112.574142,37.885914
火神庙,山西,太原,清徐县,0351,,南门商圈,赵家街28号职工子弟小学,景点,宗教,112.347603,37.611515
中华傅山园,山西,太原,太原,0351,4047001,中北大学,西村新兰路,景点,更多景点/周边游,112.46209,38.007908
山西省科学技术馆,山西,太原,太原,0351,6869850;6869817,长风商务区,广经路17号,景点,科技馆,112.535606,37.803661
新城文化活动中心,山西,太原,太原,0351,,迎新街,新城村东街208号,景点,展览馆,112.545303,37.951637
中西广场,山西,太原,太原,0351,,下元商业中心,迎泽西大街79号太原理工大学迎西校区,景点,公园/广场,112.520522,37.859942
天龙山石窟,山西,太原,太原,0351,6349668,晋源区,天龙山腰,景点,自然风光,112.385814,37.737594
赵树理旧居,山西,太原,太原,0351,,府东街,南华门15号,景点,名人故居,112.57489,37.873058
艺术博物馆,山西,太原,太原,0351,,柳巷商业区,柳巷街道起凤街1号,景点,博物馆,112.572266,37.861778
南寨公园,山西,太原,太原,0351,,尖草坪区,新兰路133号,景点,公园/广场,112.53241,37.978378
凯撒国际旅游有限公司,山西,太原,太原,0351,6189028,长风西街,长风西街99号,景点,旅行社,112.506645,37.822129
晋阳旅行社,山西,太原,太原,0351,3059111,柳巷商业区,西羊市街中段丽阳商城南都司街中奥名邸608室,景点,旅行社,112.556491,37.867252
湿地公园,山西,太原,太原,0351,,森林公园,滨河东路森林公园南门对面,景点,公园/广场,112.533356,37.898598
杜交曲镇综合文化站,山西,太原,娄烦县,0351,,娄烦县其他,S215杜交曲镇人民政府北侧,景点,展览馆,111.94162,38.042549
马家庄乡文化站,山西,太原,娄烦县,0351,,娄烦县其他,委,景点,展览馆,111.633698,38.010578
高君宇故居纪念馆,山西,太原,娄烦县,0351,,娄烦县其他,215省道,景点,纪念馆,111.869469,38.166195
三教寺,山西,太原,娄烦县,0351,,娄烦县其他,南山公路与广场西路交叉口东150米,景点,宗教,111.799316,38.060684
娄烦森林公园,山西,太原,娄烦县,0351,,娄烦县其他,娄烦镇公安局交通警察大队直属中队对面,景点,森林公园,111.80172,38.058762
龙泉寺,山西,太原,阳曲县,0351,,阳曲县其他,二零八国道,景点,宗教,112.646439,38.029915
阳曲公园,山西,太原,阳曲县,0351,,阳曲公园,新阳西大街与首邑西路交叉口西约120米,景点,公园/广场,112.661751,38.057129
阳曲圣母庙,山西,太原,阳曲县,0351,,阳曲县其他,东黄水小学东北侧约140米,景点,宗教,112.791097,38.071277
关帝庙,山西,太原,阳曲县,0351,,阳曲县其他,正大街阳曲县大盂镇大盂中心小学西南侧约250米,景点,景点/周边游,112.722969,38.172421
大王庙,山西,太原,阳曲县,0351,,阳曲县其他,314省道,景点,宗教,112.805008,38.04871
罗贯中纪念馆,山西,太原,清徐县,0351,,北城,晋白线,景点,纪念馆,112.362175,37.62484
清徐县烈士陵园,山西,太原,清徐县,0351,,清徐县中心城区,清源镇北营京昆高速公路,景点,烈士陵园,112.354271,37.636097
香岩寺,山西,太原,清徐县,0351,,清徐县其他,G5京昆高速入口,景点,宗教,112.321621,37.630781
严香寺,山西,太原,清徐县,0351,,清徐县其他,G5京昆高速,景点,宗教,112.303635,37.629181
关岳庙,山西,太原,清徐县,0351,,清徐县其他,中大街与西大街交叉口西50米,景点,宗教,112.322013,37.502483
北大街真武庙,山西,太原,清徐县,0351,,清徐县其他,北大街109号,景点,宗教,112.394142,37.594062
清泉寺,山西,太原,清徐县,0351,,清徐县其他,清徐中心部,景点,宗教,112.348351,37.641506
狐突庙,山西,太原,清徐县,0351,,清徐县其他,迎宾大街,景点,宗教,112.31105,37.623989
葡萄公园,山西,太原,清徐县,0351,,清徐县其他,中国信合马峪信用社斜对面,景点,公园/广场,112.329735,37.62236
清徐圣母庙,山西,太原,清徐县,0351,,清徐县其他,向阳东街王答乡郝村村民委员会北侧约200米,景点,宗教,112.475067,37.618248
孙宗祠堂,山西,太原,清徐县,0351,,清徐县其他,桃园小学,景点,宗教,112.293937,37.639717
白衣庵,山西,太原,清徐县,0351,,南门商圈,延昌街14号,景点,宗教,112.34819,37.606422
老爷庙,山西,太原,清徐县,0351,,清徐县中心城区,欢庆街东1巷8号,景点,宗教,112.342983,37.602114
清徐天主堂,山西,太原,清徐县,0351,,清徐县其他,幸福路东100米,景点,宗教,112.319298,37.603996
清徐三官庙,山西,太原,清徐县,0351,,清徐县其他,008乡道北50米,景点,宗教,112.245452,37.586032
葡峰山庄,山西,太原,清徐县,0351,130****3592;187****9616,清徐县其他,马峪乡西迎南风村,景点,森林公园,112.310402,37.65451
山西美术馆,山西,太原,太原,0351,,桃园路,迎泽大街376号,景点,美术馆,112.542358,37.858128
南宫收藏文化广场,山西,太原,太原,0351,159****4101,迎泽公园,迎泽大街248号,景点,公园/广场,112.556618,37.858486
青旅商务旅行社有限公司,山西,太原,太原,0351,,火车站,桥东街道迎泽南街鼎元时代中心A-804室,景点,旅行社,112.580792,37.858272
世纪百合旅行社有限公司,山西,太原,太原,0351,,柳巷商业区,广场北街美特好广场写字楼10楼1012室,景点,旅行社,112.574768,37.862908
友谊之旅旅行社,山西,太原,太原,0351,,柳巷商业区,广场北街美特好广场写字楼8楼813室,景点,旅行社,112.574766,37.862906
新华旅行社,山西,太原,太原,0351,,并州北路,并州东街,景点,旅行社,112.58553,37.852719
岚海旅游有限公司,山西,太原,太原,0351,,迎泽公园,华宜大厦C区8层,景点,旅行社,112.554161,37.845294
天缘旅行社,山西,太原,太原,0351,,柳巷商业区,广场北街美特好广场写字楼9楼902室,景点,旅行社,112.57476,37.862909
解州关公铜像,山西,太原,太原,0351,187****1912,桃园路,水西关南街15号,景点,更多景点/周边游,112.543839,37.862286
环球旅游公司,山西,太原,太原,0351,,并州路,青年东街2号信广大厦4楼418号,景点,旅行社,112.571267,37.853187
大觉寺,山西,太原,太原,0351,,迎泽区,长风东街与枣园东路交叉口西北方向190米,景点,宗教,112.633505,37.819999
视觉空间美术馆,山西,太原,太原,0351,,柳巷商业区,解放路26号新星大世界4楼,景点,美术馆,112.560806,37.864929
双塔花园,山西,太原,太原,0351,,火车站,双塔一马路,景点,公园/广场,112.592369,37.859867
龙王山风景区,山西,太原,太原,0351,,迎泽区,乌金山国家森林公园南门,景点,自然风光,112.776886,37.881696
迎泽基督教堂,山西,太原,太原,0351,,柳巷商业区,桥头街78号,景点,宗教,112.568993,37.867535
兰奇神像博物馆,山西,太原,太原,0351,,客运东站,五龙口南巷131号,景点,博物馆,112.610458,37.862556
南海子公园,山西,太原,太原,0351,4082674,柳巷商业区,水西门南二巷,景点,公园/广场,112.553452,37.86219
孟家井瓷窑遗址,山西,太原,太原,0351,,迎泽区,孟家井村1号近,景点,古代遗迹,112.694906,37.879709
红马国旅,山西,太原,太原,0351,4161508,迎泽公园,青年路5号青年路游泳馆旁边,景点,旅行社,112.566055,37.854164
中侨旅行社,山西,太原,太原,0351,,柳巷商业区,柳巷南路86号东晋大厦300室,景点,旅行社,112.567526,37.864808
松庄公园,山西,太原,太原,0351,,客运东站,松庄路2号,景点,公园/广场,112.62104,37.858532
鹰联航空旅行社,山西,太原,太原,0351,4193993,并州路,并州北路31号,景点,旅行社,112.57183,37.855692
宝华国旅,山西,太原,太原,0351,2521677,并州路,并州北路19号,景点,旅行社,112.572247,37.856927
友谊国旅,山西,太原,太原,0351,,并州路,并州北路76号,景点,旅行社,112.57138,37.849152
康辉国旅,山西,太原,太原,0351,7779927,南内环街,南内环街1号,景点,旅行社,112.584597,37.840367
书业诚旧址,山西,太原,太原,0351,,鼓楼街,靴巷30号,景点,古代遗迹,112.56369,37.868984
铁路国际旅行社,山西,太原,太原,0351,4173607,朝阳街,公寓路16号附近,景点,旅行社,112.587196,37.857516
古藏经楼,山西,太原,太原,0351,,迎泽公园,迎泽公园内,景点,宗教,112.562599,37.853611
革命历史陈列馆,山西,太原,太原,0351,,五一路,五一路276号,景点,陈列馆,112.574493,37.886257
西海子公园,山西,太原,太原,0351,4082674,新建路,新建路与桃园二巷交汇处,景点,公园/广场,112.552254,37.870533
海内外国旅,山西,太原,太原,0351,,万达/龙潭商业中心,新建北路182号柳溪大厦B座一层,景点,旅行社,112.550213,37.887373
鼓楼世纪广场,山西,太原,太原,0351,,鼓楼街,鼓楼街33号,景点,广场,112.564919,37.871651
友谊国旅,山西,太原,太原,0351,139****5351,万达/龙潭商业中心,胜利西街新建路口程家村往东50米,景点,旅行社,112.551625,37.893455
龙铁国旅,山西,太原,太原,0351,2780928;3789584,并州北路,迎泽大街45号,景点,旅行社,112.579202,37.860532
新华德加画廊,山西,太原,太原,0351,137****6164,万达/龙潭商业中心,府西街2号外文书店6层,景点,美术馆,112.560539,37.872482
宝林寺,山西,太原,太原,0351,4433192,杏花岭区,大东关街35号,景点,宗教,112.588003,37.874127
九龙仙境,山西,太原,太原,0351,,杏花岭区,G55二广高速附近,景点,自然风光,112.592677,37.951476
矿机俱乐部旧址,山西,太原,太原,0351,,动物园,矿机医院西侧,景点,古代遗迹,112.576965,37.902954
山西教育旅行社,山西,太原,太原,0351,2168758;2881708,万达/龙潭商业中心,东头道巷3号楼,景点,旅行社,112.566946,37.886978
鸿泰国旅,山西,太原,太原,0351,,火车站,五龙口街66号,景点,旅行社,112.594741,37.865161
太原市旅游咨询集散中心,山西,太原,太原,0351,5628888,高新科技产业区,南中环街体育路口,景点,旅行社,112.570707,37.794209
远大国旅,山西,太原,太原,0351,,高新科技产业区,体育路千禧・锦绣苑21栋底商,景点,旅行社,112.569681,37.795091
幸运乐游国际旅行社,山西,太原,太原,0351,7182020,坞城路,坞城路75号,景点,旅行社,112.584287,37.803048
宝莲寺,山西,太原,太原,0351,,通达街,昌盛街40号,景点,宗教,112.572311,37.735001
华夏行国际旅行社,山西,太原,太原,0351,,长风街,体育路249号,景点,旅行社,112.570311,37.814141
康宁街真武庙,山西,太原,太原,0351,,康宁街,孟家街17号,景点,宗教,112.57225,37.740112
秀石园,山西,太原,太原,0351,,长风街,长风东南环桥,景点,公园/广场,112.54599,37.816238
武圣寺,山西,太原,太原,0351,,小店区,316省道,景点,宗教,112.562048,37.613973
康辉国旅,山西,太原,太原,0351,7263321,人民路,人民北路59号,景点,旅行社,112.568123,37.737469
圪塔营极乐寺,山西,太原,太原,0351,,小店区,103省道南50米,景点,宗教,112.579533,37.718013
万景国旅,山西,太原,太原,0351,182****4962,省体育中心,平阳路时尚女装旁,景点,旅行社,112.552273,37.833343
祈福寺,山西,太原,太原,0351,,富士康,庆云街,景点,宗教,112.594635,37.742504
小店龙天庙,山西,太原,太原,0351,,小店区,刘家堡乡208国道南100米,景点,宗教,112.507621,37.674581
慈航吩,山西,太原,太原,0351,,长风街,长风街131号,景点,宗教,112.550131,37.818501
西吴北极宫,山西,太原,太原,0351,,坞城路,坞城南路169号,景点,宗教,112.581917,37.787167
亲贤友谊之旅,山西,太原,太原,0351,,省体育中心,长风大街113号亲贤千禧大厦,景点,旅行社,112.569875,37.819675
汾东丽人街,山西,太原,太原,0351,,人民路,人民北路46号,景点,步行街,112.568581,37.7384
大自然旅行社,山西,太原,太原,0351,,长风街,长风街29号鑫地写字楼513室,景点,旅行社,112.578732,37.817952
奶奶庙,山西,太原,太原,0351,,小店区,G208,景点,宗教,112.553847,37.717877
康民园,山西,太原,太原,0351,,人民路,人民北路31号-39号,景点,公园/广场,112.566536,37.742458
普益寺,山西,太原,太原,0351,,蒙山大佛景区,晋祠路388号,景点,宗教,112.493294,37.759163
西寨北极宫,山西,太原,太原,0351,,红灯笼体育场,西寨正街太原西寨公园,景点,宗教,112.529289,37.766174
怡圆寺,山西,太原,太原,0351,,晋祠公园,晋祠路599号,景点,宗教,112.44666,37.714616
晋源文庙,山西,太原,太原,0351,,晋祠公园,晋源东街北50米,景点,宗教,112.488717,37.727701
董菇圣母庙,山西,太原,太原,0351,,蒙山大佛景区,新晋祠路与滨湖街交叉口西南角,景点,宗教,112.4991,37.785076
街心公园,山西,太原,太原,0351,,蒙山大佛景区,晋祠路352号,景点,公园/广场,112.487724,37.765621
晋门寺,山西,太原,太原,0351,,晋祠公园,府正街与昌安街交叉口西北50米,景点,宗教,112.491577,37.702374
晋源三官庙,山西,太原,太原,0351,,长风商务区,新晋祠路吴家堡小区南吴家堡小区南,景点,宗教,112.521871,37.790281
晋源龙天庙,山西,太原,太原,0351,,晋祠公园,晋源街道新晋祠路,景点,宗教,112.484707,37.722889
华塔寺,山西,太原,太原,0351,,晋祠公园,039省道华塔寺,景点,宗教,112.461647,37.728958
花塔关帝庙,山西,太原,太原,0351,,晋祠公园,G5京昆高速（太原市晋源区晋祠镇花塔村卫生所西）,景点,宗教,112.460304,37.723572
结义庙,山西,太原,太原,0351,,晋祠公园,晋阳大道北大寺小学南侧,景点,宗教,112.455994,37.706264
金桥街游园,山西,太原,太原,0351,,柴村,柴村迎宾南路与希望东街交叉口,景点,公园/广场,112.490829,37.93784
观光国旅,山西,太原,太原,0351,3145558,北宫,恒山路452号西南方向60米,景点,旅行社,112.561374,37.919604
妙明寺,山西,太原,太原,0351,,尖草坪区,大同路319号,景点,宗教,112.519748,37.964565
妙吉祥寺,山西,太原,太原,0351,3937889,尖草坪区,新店街新店村,景点,宗教,112.566124,37.95018
渣山公园,山西,太原,太原,0351,,大同路,大同路72号,景点,公园/广场,112.548706,37.900829
清凉寺,山西,太原,太原,0351,,尖草坪区,新兰路,景点,宗教,112.513001,37.984151
西乡文体活动站,山西,太原,太原,0351,,尖草坪区,权新线西乡人民政府东北侧约130米,景点,展览馆,112.5326,38.023927
梗阳城郊森林公园,山西,太原,太原,0351,,万柏林区,柴化线与迎宾路交叉路口往南约100米,景点,森林公园,112.432145,37.930465
窦大夫寺,山西,太原,太原,0351,,中北大学,烈石路,景点,宗教,112.43976,38.01122
祭园,山西,太原,太原,0351,,尖草坪区,G55二广高速附近,景点,更多景点/周边游,112.586071,37.953331
河捞湾公园,山西,太原,太原,0351,,万柏林区,南寒街道西矿街418号,景点,公园/广场,112.444157,37.847292
四季风旅游,山西,太原,太原,0351,155****8388,千峰北路,千峰南路四季风旅游门市部（今秀西沟南50米）,景点,旅行社,112.518133,37.870733
万景国旅,山西,太原,太原,0351,6338122,下元商业中心,南内环西街19号,景点,旅行社,112.519644,37.843732
玉门河公园,山西,太原,太原,0351,6180121,漪汾街,和平北路80号,景点,公园/广场,112.507759,37.866966
广善寺,山西,太原,太原,0351,,万柏林区,柴化线,景点,宗教,112.384704,37.923764
居贤观,山西,太原,太原,0351,,万柏林区,上庄街88号,景点,宗教,112.45887,37.887577
华严寺,山西,太原,太原,0351,,太原科技大学,瓦流路瓦流村西小2楼东3号,景点,宗教,112.485641,37.868675
万柏林天主堂,山西,太原,太原,0351,,兴华街,兴华西街,景点,宗教,112.484337,37.886974
天主教修道院,山西,太原,太原,0351,159****3162,万柏林区,上庄街下庄村村委会,景点,宗教,112.463352,37.879167
万柏林真武庙,山西,太原,太原,0351,,迎泽西大街,G2001太原绕城高速,景点,宗教,112.468714,37.855624
南社天主堂,山西,太原,太原,0351,6221985,太原科技大学,南社街,景点,宗教,112.477303,37.873516
达海国际旅游公司,山西,太原,太原,0351,,万柏林区,西铭路77号,景点,旅行社,112.441839,37.861541
海航乐游,山西,太原,太原,0351,,万柏林区,西矿街418号,景点,旅行社,112.443955,37.847895
太平洋国旅,山西,太原,太原,0351,6071205,和平南路,义井西一里,景点,旅行社,112.507601,37.823351
万柏林观音寺,山西,太原,太原,0351,,万柏林区,G2001太原绕城高速,景点,宗教,112.486612,37.835665
黄坡烈士陵园,山西,太原,太原,0351,6105018,长风西街,德育路,景点,烈士陵园,112.486107,37.825005
隆盛寺,山西,太原,太原,0351,,漪汾街,后北屯东八条6号,景点,宗教,112.521805,37.869476
港中旅国际,山西,太原,太原,0351,6171168,下元商业中心,迎泽西大街公元时代城B座二层,景点,旅行社,112.513443,37.859103
青春缤秀园,山西,太原,太原,0351,,下元商业中心,桥西路南,景点,公园/广场,112.531242,37.856865
观音堂,山西,太原,太原,0351,,下元商业中心,西矿街129号,景点,宗教,112.49543,37.859837
山西地质博物馆,山西,太原,太原,0351,4069643,漪汾街,望景路9号,景点,博物馆,112.532166,37.867451
睦联坡烈士陵园,山西,太原,古交市,0351,,古交市其他,219省道附近,景点,烈士陵园,112.002989,37.782459
和谐公园,山西,太原,古交市,0351,,古交市其他,草辛线,景点,公园/广场,112.08847,37.803425
上雁门公园,山西,太原,古交市,0351,,镇城底,镇城底镇上雁门桥与104省道交叉口西北150米,景点,公园/广场,112.054588,37.959827
河口圣母庙,山西,太原,古交市,0351,,河口镇,曹河线古交市河口镇河口中心小学校西南侧,景点,宗教,112.22039,37.925014
古交遗址,山西,太原,古交市,0351,,古交市中心城区,学府路古交一中南门西南侧约90米,景点,古代遗迹,112.162315,37.901794
千佛古寺,山西,太原,古交市,0351,,古交市中心城区,义学路4号新闻大楼正西方向70米,景点,宗教,112.172997,37.903637
哈哈乐儿童成长乐园,山西,太原,太原,0351,,南内环街,营盘街道建设南路351号山姆士超市内,景点,游乐场,112.585625,37.836758
富通山庄,山西,太原,太原,0351,,下元商业中心,榆次北外环中段王杜村东,景点,更多景点/周边游,112.49052,37.84434
森林公园,山西,太原,太原,0351,3551684,森林公园,滨河东路与北中环街交叉口北100米,景点,森林公园,112.533798,37.909554
鑫泽国际旅行社,山西,太原,太原,0351,5655701,铜锣湾,奶生堂与羊市街交叉路口往北约100米,景点,旅行社,112.559547,37.869438
万景国际旅行社,山西,太原,太原,0351,186****3733,学府街,学府街202号（省委党校东侧）,景点,旅行社,112.574699,37.80756
铁路国旅,山西,太原,太原,0351,,坞城路,财经大学华商学院东侧,景点,旅行社,112.582982,37.769352
中国国旅,山西,太原,太原,0351,159****5034,亲贤街,亲贤北街28号太航大酒店西楼大厅内,景点,旅行社,112.576794,37.8235
荣国旅游,山西,太原,太原,0351,7345888-806,亲贤街,亲贤北街78号飞云公寓11层1111室,景点,旅行社,112.554497,37.824165
山西来客国际旅行社,山西,太原,太原,0351,6650688,兴华街,兴华街49号大西客运商务楼1层右侧,景点,旅行社,112.515932,37.887452
宝华国旅,山西,太原,太原,0351,2521665,万达/龙潭商业中心,北大街杏花岭四中旁,景点,旅行社,112.557327,37.888531
宝华国旅,山西,太原,太原,0351,2521662,高新科技产业区,学府街如一坊对面,景点,旅行社,112.563886,37.807865
新闻国际旅行社,山西,太原,太原,0351,,万达/龙潭商业中心,新民二条,景点,旅行社,112.572928,37.878168
春秋国旅,山西,太原,太原,0351,3250151,迎新街,迎新东一条,景点,旅行社,112.536507,37.955387
尚艺轩艺术中心,山西,太原,太原,0351,7070651,省体育中心,长风街军民路口,景点,美术馆,112.574832,37.817022
宝中旅游,山西,太原,太原,0351,3921900,尖草坪区,江阳化工厂,景点,旅行社,112.475185,37.956085
千禧世纪广场,山西,太原,太原,0351,,省体育中心,长风街115号长风街长治路口,景点,公园/广场,112.562691,37.818153
凯撒旅游,山西,太原,太原,0351,5268080,万达/龙潭商业中心,府西街69号山西国际贸易中心B座1510室,景点,旅行社,112.557308,37.874208
东方国旅,山西,太原,太原,0351,4069903,长风街,长风桥东,景点,旅行社,112.551738,37.816128
百合生态园,山西,太原,太原,0351,6153000,万柏林区,上庄街建宏工贸公司旁,景点,动植物园,112.461315,37.894005
大寺荷风苑,山西,太原,太原,0351,,晋祠公园,晋祠镇迎宾路北口转盘附近,景点,更多景点/周边游,112.456955,37.708633
和园,山西,太原,太原,0351,,长风商务区,长风商务区,景点,更多景点/周边游,112.5336,37.797707
太原鸿天翔国际旅行社有限公司,山西,太原,太原,0351,8237077,长风街,亲贤北街,景点,旅行社,112.557464,37.823558
小店基督教堂,山西,太原,太原,0351,7180307,小店区,富康街康宁美郡小店,景点,宗教,112.573804,37.745041
贾府宗祠,山西,太原,清徐县,0351,,清徐县其他,东高白村,景点,宗教,112.249613,37.588853
涧河公园,山西,太原,娄烦县,0351,,文化广场,娄烦镇滨河路,景点,公园/广场,111.794754,38.06419
莲花台土雕群风景区,山西,太原,太原,0351,181****2444,尖草坪区,中北大学北,景点,景点/周边游,112.442619,38.023338
盆景园,山西,太原,太原,0351,,桃园路,小环路5号,景点,公园/广场,112.546295,37.841797
彭真生平暨中共太原支部旧址纪念馆,山西,太原,太原,0351,4064687,解放路,文瀛公园内,景点,纪念馆,112.570244,37.863995
四达沟生态恢复景区,山西,太原,太原,0351,,万柏林区,西铭街道杜儿坪街142号,景点,自然风光,112.408661,37.846554
太山景区,山西,太原,太原,0351,6779658,蒙山大佛景区,风峪沟沙河北岸,景点,自然风光,112.444267,37.750378
泰山庙,山西,太原,太原,0351,,鼓楼街,二市场31号,景点,宗教,112.565941,37.868958
王靖国公馆旧址,山西,太原,太原,0351,,万达/龙潭商业中心,西华门6号,景点,古代遗迹,112.569702,37.873604
文峰塔,山西,太原,古交市,0351,,古交市其他,阴家沟村附近,景点,历史建筑,112.095993,37.928391
文源楼,山西,太原,清徐县,0351,5555572,清徐县中心城区,文源路中段21号,景点,历史建筑,112.354218,37.604942
欣欣国旅,山西,太原,太原,0351,,并州北路,迎泽大街与桥东街北二巷交叉口旁,景点,旅行社,112.580727,37.859905
延圣寺,山西,太原,太原,0351,7955910,小店区,孙家寨村委会,景点,宗教,112.531246,37.696141
怡心园,山西,太原,清徐县,0351,,清徐县中心城区,环湖路与通湖路交叉口北50米,景点,公园/广场,112.356636,37.607174
竹林院,山西,太原,清徐县,0351,,清徐县其他,王宗祠东侧,景点,自然景观,112.307835,37.545105
金牛森林公园,山西,太原,古交市,0351,,古交市中心城区,义学路附近,景点,森林公园,112.175552,37.899281
华景彩灯,山西,太原,太原,0351,5240098,长风西街,长风大街煤炭交易中心6#,景点,旅游项目/观光项目,112.535545,37.816746
房屋公园,山西,太原,太原,0351,,客运东站,五龙口街南50米,景点,公园/广场,112.60891,37.86496
关帝祠,山西,太原,阳曲县,0351,,阳曲县其他,康西公路南150米,景点,宗教,112.30635,38.221664
关圣寺,山西,太原,太原,0351,7942001,红灯笼体育场,龙城大街南侧、滨河东路以东、平阳路以西,景点,宗教,112.560471,37.773403
阳曲观音庙,山西,太原,阳曲县,0351,,阳曲县其他,近郊西岔线,景点,宗教,112.550967,38.079547
清徐观音寺,山西,太原,清徐县,0351,,清徐县其他,新堡胜利街,景点,宗教,112.333617,37.542747
清徐基督教堂,山西,太原,清徐县,0351,,南门商圈,市楼西街11号,景点,宗教,112.346497,37.6147
武氏宗祠,山西,太原,太原,0351,,晋祠公园,晋祠公园外,景点,宗教,112.454201,37.706085
柳子沟,山西,太原,太原,0351,137****5581,晋源区,晋祠镇窑头村,景点,自然风光,112.392197,37.716579
山西友谊国旅,山西,太原,太原,0351,130****8412,万达/龙潭商业中心,胜利街300号国防培训中心,景点,旅行社,112.561664,37.878484
店头古堡,山西,太原,太原,0351,6949368,蒙山大佛景区,古城营村,景点,人文古迹,112.429321,37.753162
长江村小广场,山西,太原,太原,0351,,杏花岭区,G55二广高速出口,景点,更多景点/周边游,112.615843,37.886163
友谊国旅总部,山西,太原,太原,0351,2024440,迎泽公园,青年路,景点,旅行社,112.56383,37.85716
西山万亩生态园,山西,太原,太原,0351,,万柏林区,红沟靶场路南寒康乐小区南,景点,动植物园,112.461037,37.83176
太原太重国际旅游有限公司,山西,太原,太原,0351,6190618,下元商业中心,前进路32号太重宾馆内,景点,旅行社,112.505585,37.863392
晋之美旅行社,山西,太原,太原,0351,5246114,平阳路,平阳路与亲贤街交叉口尚领世家0401室,景点,旅行社,112.553101,37.824351
万景国旅,山西,太原,太原,0351,,并州北路,并州东街与并州东街南二巷交叉口,景点,旅行社,112.580882,37.851402
春秋国旅,山西,太原,太原,0351,186****7598,蒙山大佛景区,旧晋祠路董如村对面,景点,旅行社,112.49052,37.78362
春秋国旅,山西,太原,太原,0351,7130405,太榆路/太原南站,黄陵路9号,景点,旅行社,112.609713,37.782391
春秋国旅,山西,太原,太原,0351,186****7598,晋祠公园,天龙山公路旁十字路口往西50米,景点,旅行社,112.440471,37.700971
春秋国旅,山西,太原,太原,0351,186****7598,万达/龙潭商业中心,五一路264号,景点,旅行社,112.573742,37.884964
春秋国旅,山西,太原,太原,0351,2342774;186****7598,小店区,体育馆,景点,旅行社,112.5689,37.75069
春秋国旅,山西,太原,太原,0351,134****7796,尖草坪区,兴华北街和风小区1号楼3单元101室,景点,旅行社,112.518601,37.893031
春秋国旅,山西,太原,太原,0351,3083767;134****7796,万达/龙潭商业中心,旱西门西9号楼,景点,旅行社,112.548698,37.881748
阿育王塔,山西,太原,太原,0351,,晋祠公园,晋源二中（岗乱线南310米）,景点,人文古迹,112.495636,37.73867
山西SAFE动漫游戏嘉年华,山西,太原,太原,0351,,长风西街,中国煤炭交易中心,景点,展览馆,112.534004,37.816872
昆明中国国际旅行社,山西,太原,太原,0351,135****1272,朝阳街,双塔东街129号,景点,旅行社,112.591564,37.855064
滨河公园,山西,太原,太原,0351,,北大街,北大街与北沙河北沿岸交叉口西南100米,景点,公园/广场,112.541954,37.887077
太原丽景假日商务国际旅行社,山西,太原,太原,0351,4150678;8209168,火车站,迎泽大街27号万邦国际8层0835号,景点,旅行社,112.581695,37.860967
晋祠农场水上嘉年华,山西,太原,太原,0351,4061715,晋源区,新晋祠路王郭村20号,景点,水上乐园,112.4322,37.68275
九龙国际旅游度假区,山西,太原,太原,0351,4000351699,小店区,黄陵街道民航路五龙沟黄河文化产业影视基地,景点,更多景点/周边游,112.680688,37.792746
清徐葡峰山庄,山西,太原,清徐县,0351,130****3592;187****9616,清徐县其他,西迎南风村,景点,森林公园,112.310402,37.65451
追梦,山西,太原,太原,0351,,下元商业中心,千峰路与西矿街交叉口西100米,景点,人文古迹,112.51757,37.858524
狄仁杰文化公园,山西,太原,太原,0351,7041579,建南汽车站,狄村街81号,景点,公园/广场,112.581955,37.831696
宝华国旅万水体验店,山西,太原,太原,0351,2521660,晋祠路,南内环西街与新晋祠路交叉口万水澜亭西南侧底商（新晋祠路口）,景点,旅行社,112.530083,37.836399
宝华国旅,山西,太原,太原,0351,2521668;8888886,迎泽公园,新建南路好利来旁（市工商局北侧）,景点,旅行社,112.551903,37.840912
宝华国旅,山西,太原,太原,0351,2521663,长风街,体育路与亲贤街交叉口阳光大厦一层,景点,旅行社,112.569733,37.824284
宝华国旅,山西,太原,太原,0351,2525677,迎泽公园,解放南路少年宫门面,景点,旅行社,112.557961,37.856152
宝华国旅,山西,太原,太原,0351,2525688,长风街,政务大厅南侧,景点,旅行社,112.55148,37.81717
宝华国旅,山西,太原,太原,0351,2525655,下元商业中心,迎泽西大街106号,景点,旅行社,112.515732,37.857372
信成旅行社,山西,太原,太原,0351,155****1818,火车站,迎泽大街万邦国际大厦15层1520室,景点,旅行社,112.581467,37.860909
红马国旅,山西,太原,太原,0351,5609002,迎泽西大街,南内环西街万水澜庭出入境大厅南侧3号底商,景点,旅行社,112.490942,37.858958
绿植生态园,山西,太原,太原,0351,,尖草坪区,柴村镇呼延村汾河西堤底3号,景点,动植物园,112.460773,37.983834
中国旅行社,山西,太原,太原,0351,8262666,兴华街,兴华北小区西6号楼南数一层5号,景点,旅行社,112.515335,37.888908
远航国旅,山西,太原,太原,0351,3333313,柳巷商业区,五一路铜锣湾国际公寓B座,景点,旅行社,112.573515,37.869315
山西商务国旅,山西,太原,太原,0351,6260456,和平路,和平北路嘉怡国际丽都城39号,景点,旅行社,112.509797,37.879926
不二寺,山西,太原,阳曲县,0351,,德祥百货,首邑西路72号,景点,宗教,112.666199,38.051937
晋缘国旅,山西,太原,太原,0351,4222510,柳巷商业区,柳巷新立达商务写字楼10层1029室,景点,旅行社,112.567645,37.865813
晋缘国旅,山西,太原,太原,0351,7030691,高新科技产业区,创业街27号时代广场208室,景点,旅行社,112.55807,37.803312
友谊国际旅行社,山西,太原,太原,0351,181****2819,坞城路,真武路恒大绿洲东区31号楼3单元201,景点,旅行社,112.579413,37.746733
东方国旅,山西,太原,太原,0351,139****6570,北大街,胜利桥东宿舍30-3-38号,景点,旅行社,112.54821,37.888283
五一广场,山西,太原,太原,0351,,五一广场,迎泽大街,景点,广场,112.573715,37.86145
崛围山生态园,山西,太原,太原,0351,,尖草坪区,崛围山下,景点,动植物园,112.444479,37.967008
菜园广场,山西,太原,太原,0351,,南内环街,体育路17号,景点,公园/广场,112.568825,37.833045
杨家堡堂区,山西,太原,太原,0351,,平阳路,平阳路和长风街交叉口平阳景苑小区6号楼19层正北方向70米,景点,宗教,112.549316,37.820557
山西新闻国际旅行社,山西,太原,太原,0351,3186631,北大街,解放北路机车宿舍澡堂对面,景点,旅行社,112.561821,37.894401
辰锦欢乐谷,山西,太原,太原,0351,3059111,杏花岭区,中涧河乡长沟新村东北侧,景点,主题公园,112.608703,37.939304
山西中北国际旅游有限公司,山西,太原,太原,0351,5246286;5246120,火车站,双塔北路119号双北小区底商,景点,旅行社,112.590983,37.849683
北宫花园,山西,太原,太原,0351,,北宫,解放北路94号,景点,公园/广场,112.564369,37.911827
山西春秋国际旅行社,山西,太原,太原,0351,6183155,并州路,营盘街道体育北街24号同苑小区9号楼3单元,景点,旅行社,112.571167,37.835278
迎泽区美术馆,山西,太原,太原,0351,,柳巷商业区,开化寺街开化寺古玩市场三层东侧楼梯口,景点,美术馆,112.564545,37.864845
和平公园,山西,太原,太原,0351,,千峰南路,长风西街街道千峰南路附近,景点,公园/广场,112.515106,37.837582
山西国际展览中心,山西,太原,太原,0351,6829865,长风西街,长风西街6号,景点,展览馆,112.532463,37.814228
龙山,山西,太原,太原,0351,2536328,晋祠公园,龙山滑雪场西,景点,自然景观,112.434174,37.733795
财大公园,山西,太原,太原,0351,,坞城路,晋阳街与科学路交叉口东南100米,景点,公园/广场,112.589608,37.785297
迪斯尼嘉年华狂欢节,山西,太原,太原,0351,,晋祠公园,晋祠公园南门,景点,主题公园,112.448889,37.707579
兰源古槐,山西,太原,太原,0351,,中北大学,滨河东路与新兰路交汇处东200米,景点,古村古镇,112.44192,38.00897
御庭华府商业街,山西,太原,太原,0351,,五一路,上马街与五一路交叉口东约100米,景点,展览馆,112.575439,37.867985
东方国旅,山西,太原,太原,0351,3123383,北宫,柏杨树街2号太钢医院对面,景点,旅行社,112.569327,37.919669
东方国旅,山西,太原,太原,0351,136****0688,并州路,南内环街121号6幢1单元1层2号,景点,旅行社,112.573382,37.839252
四季风旅游,山西,太原,太原,0351,155****0511,晋源区,039省道宝玲布业旁,景点,旅行社,112.388916,37.652776
东方国旅,山西,太原,古交市,0351,130****4987,青年路,大川东路四小旁,景点,旅行社,112.169945,37.904064
采摘威特庄园一日游,山西,太原,太原,0351,158****4994,迎泽区,东太堡宏盛花园a座504室,景点,旅行社,112.593584,37.823484
山西东方国旅,山西,太原,太原,0351,,北宫,尖草坪街道解放北路279号北宫花园内,景点,旅行社,112.564339,37.911519
山西铁路国旅,山西,太原,太原,0351,,下元商业中心,元街道气化街财政税务专科学校图书馆对面,景点,旅行社,112.516572,37.853307
东方国旅,山西,太原,太原,0351,186****9891,长风商务区,和平南路267号,景点,旅行社,112.506201,37.816139
旅游百事通,山西,太原,清徐县,0351,,清徐县中心城区,凤仪街凤仪苑小区底商,景点,旅行社,112.367178,37.611998
山西东方国旅吴家堡店,山西,太原,太原,0351,135****5256,长风商务区,吴家堡小区B区6号楼102室,景点,旅行社,112.522671,37.796161
东方国旅,山西,太原,太原,0351,,坞城路,坞城南路西吴苑西区7号楼,景点,旅行社,112.583793,37.783974
山西东方国旅,山西,太原,太原,0351,180****1110,杏花岭区,尖草坪街85号晋安南苑门面房,景点,旅行社,112.574371,37.915151
上海月亮街,山西,太原,太原,0351,3146087;134****2736,恒山路,恒山路小食品批发市场2号,景点,步行街,112.557678,37.927773
东方国旅,山西,太原,太原,0351,3535808,旱西关,旱西门街三桥小区西9号楼三单元3号,景点,旅行社,112.556519,37.877842
山西东方国旅,山西,太原,太原,0351,3860818,迎新街,迎新南一巷新城小区北门底商,景点,旅行社,112.539799,37.953559
东方国旅,山西,太原,太原,0351,132****0055,兴华街,永乐苑小区翡翠苑8号楼2单元永乐苑物业1层,景点,旅行社,112.524402,37.882334
红马国旅,山西,太原,太原,0351,4680456,朝阳街,郝庄正街15号B座怡华酒店内鑫东方北楼,景点,旅行社,112.593985,37.853655
山西东方国旅,山西,太原,太原,0351,,昌盛西街,昌盛西街六旦昌盛鲜花婚庆旁,景点,旅行社,112.571681,37.735321
友谊国旅,山西,太原,太原,0351,158****4360,迎泽西大街,新矿院路与移村北街交叉口东北50米,景点,旅行社,112.523362,37.855792
东方国旅,山西,太原,太原,0351,138****4859,杏花岭区,敦化南路19号新居苑门口,景点,旅行社,112.591922,37.876082
美吉乐儿童乐园,山西,太原,古交市,0351,150****6868,马兰镇,马兰矿利民小区后门正对面二楼,景点,游乐场,112.036667,37.847977
华夏行国际旅行社有限公司,山西,太原,太原,0351,,千峰南路,大王路西50米,景点,旅行社,112.527008,37.846008
万字楼,山西,太原,太原,0351,,柳巷商业区,海子边东街28号,景点,人文古迹,112.571404,37.865536
茶坊庙,山西,太原,太原,0351,,杏花岭区,（232县道北）,景点,宗教,112.72901,37.935302
九龙庙,山西,太原,太原,0351,,蒙山大佛景区,运城河津市紫金山麓,景点,宗教,112.496178,37.743908
东方国旅,山西,太原,太原,0351,,蒙山大佛景区,晋祠路369号,景点,旅行社,112.484838,37.764943
通海旅行社,山西,太原,太原,0351,6085111,和平南路,和平南路192号,景点,旅行社,112.509702,37.831472
海峡旅行社有限公司,山西,太原,太原,0351,7024951,高新科技产业区,振兴街11号五峰国际9层12室,景点,旅行社,112.560403,37.799382
世达国际旅行社,山西,太原,太原,0351,7896890,南内环街,南内环街98-2号财富国际大厦9层9010室,景点,旅行社,112.566187,37.838397
尚游汇山西环境国旅,山西,太原,太原,0351,8339006,长风街,华德中心广场A-103,景点,旅行社,112.54887,37.81822
钢新旅行社,山西,太原,太原,0351,,北宫,解放北路86,景点,旅行社,112.56328,37.90934
东方国旅,山西,太原,太原,0351,181****2252,亲贤街,北园街17号商铺,景点,旅行社,112.556181,37.826151
万景国旅,山西,太原,太原,0351,6699841;133****4565,万柏林区,丽华西路丽华苑4号门口,景点,旅行社,112.534243,37.822033
中国国旅,山西,太原,太原,0351,186****0185;3136188,北宫,车站街与解放北路交叉口南,景点,旅行社,112.563301,37.916961
山西海外旅行社,山西,太原,太原,0351,,平阳路,平阳路8号海悦酒店1层北侧,景点,旅行社,112.552781,37.836171
东方国旅代理点,山西,太原,清徐县,0351,,清徐县中心城区,镇大东街14号附近,景点,旅行社,112.358999,37.601459
春秋国旅,山西,太原,太原,0351,139****4448,兴华街,兴华北街康洁洗衣旁,景点,旅行社,112.522645,37.891185
佛光禅寺,山西,太原,太原,0351,7942001,红灯笼体育场,范家堡村龙城大街,景点,宗教,112.560539,37.773289
光达旅行社,山西,太原,太原,0351,6129661,万柏林区,西矿街413号,景点,旅行社,112.444411,37.848101
环九洲旅行社,山西,太原,太原,0351,5263196,亲贤街,亲贤北街117号金地广场2单元8层,景点,旅行社,112.549427,37.823857
达海国旅,山西,太原,清徐县,0351,5726665,清徐县中心城区,美锦大街74附近,景点,旅行社,112.351974,37.600414
呼延村,山西,太原,太原,0351,,尖草坪区,呼延村当铺,景点,古村古镇,112.461243,37.972084
中国国际旅行社,山西,太原,太原,0351,,小店区,真武路62号,景点,旅行社,112.577181,37.748341
太原锦程国旅,山西,太原,太原,0351,,火车站,迎泽大街27号万邦国际8层0809号,景点,旅行社,112.581678,37.860628
万景国旅,山西,太原,太原,0351,,长风街,文化街1-2号,景点,旅行社,112.560646,37.81596
龙之旅国际,山西,太原,太原,0351,,北宫,解放北路165附近,景点,旅行社,112.561696,37.919406
西山旅行社,山西,太原,太原,0351,2593882,万柏林区,杜儿坪街南50米大虎峪村委会附近,景点,旅行社,112.420111,37.840491
东方国旅,山西,太原,太原,0351,5269599,杏花岭区,五龙口街铁路宿舍北区1号楼,景点,旅行社,112.592997,37.864987
东方国旅,山西,太原,太原,0351,,迎泽西大街,迎泽西大街西华苑2期北区1幢101号,景点,旅行社,112.477016,37.853147
岚海国旅,山西,太原,太原,0351,2304262,太榆路/太原南站,黄陵路32号附近,景点,旅行社,112.608647,37.779477
山西幸运国际旅行社,山西,太原,古交市,0351,,古城街,古城街7号附近,景点,旅行社,112.176311,37.908393
天马国旅,山西,太原,太原,0351,134****2341,万柏林区,西矿街419号,景点,旅行社,112.448953,37.850573
春秋国旅,山西,太原,太原,0351,131****7752,万柏林区,西矿街河捞湾公园对面朝北小区一楼,景点,旅行社,112.444164,37.847954
东方国旅,山西,太原,太原,0351,2590268,晋祠路,万水澜庭3号楼底商1号,景点,旅行社,112.530277,37.836337
友谊国际旅游,山西,太原,太原,0351,187****8333,万柏林区,西矿中巷与西矿街交汇处西南角2层,景点,旅行社,112.459242,37.853949
七苦山,山西,太原,太原,0351,,晋源区,京昆高速,景点,自然景观,112.37373,37.653716
山西文华国旅,山西,太原,太原,0351,186****0658,长风街,寇庄西路180号国强酒店7楼,景点,旅行社,112.557903,37.814085
旅游招待所,山西,太原,太原,0351,,太榆路/太原南站,许坦东街30号,景点,旅行社,112.61863,37.801301
春秋国旅,山西,太原,太原,0351,,寇庄西路,王村北街赐得利旁,景点,旅行社,112.55304,37.830647
东方国旅,山西,太原,太原,0351,,并州路,并州南路107号航鹰大厦402室,景点,旅行社,112.580162,37.822752
东方国旅,山西,太原,太原,0351,,杏花岭区,金刚里西区4幢1单元2号,景点,旅行社,112.5443,37.88263
山西省中国青年旅行社,山西,太原,太原,0351,7776720,并州北路,并州北路27号地矿宾馆一层,景点,旅行社,112.572253,37.856763
康辉国旅,山西,太原,太原,0351,3955379,府东街,畅通达大厦府西街10号,景点,旅行社,112.55857,37.872732
友谊国旅,山西,太原,太原,0351,7236420;155****0773,长风街,长风街132号,景点,旅行社,112.554038,37.817118
伏龙寺,山西,太原,太原,0351,,长风西街,义井街与西中环路交叉口东120米,景点,宗教,112.499916,37.818386
万景国旅,山西,太原,太原,0351,6582428,下元商业中心,千峰南路大王小区27幢4号2层,景点,旅行社,112.519584,37.843744
民俗博物馆,山西,太原,太原,0351,2029496,五一路,文庙街道五一路文庙巷40号,景点,博物馆,112.579842,37.865551
天怡山生态乐园,山西,太原,太原,0351,3196111,尖草坪区,果树厂绿果路76号,景点,水上乐园,112.55423,37.999489
春秋国旅,山西,太原,太原,0351,3962528,杏花岭区,钢中路69号2层,景点,旅行社,112.574277,37.9197
卡通爱儿童乐园,山西,太原,太原,0351,135****5434,五一广场,柳巷铜锣湾4号馆老鼠街3层c16室,景点,游乐场,112.57009,37.86865
饮马河公园,山西,太原,太原,0351,4082674,旱西关,旱西门街,景点,公园/广场,112.552643,37.87632
红马国旅,山西,太原,太原,0351,2233766,并州北路,桥东街道迎泽大街77号15幢1层3-2号,景点,旅行社,112.5773,37.857964
友谊国旅,山西,太原,太原,0351,158****1237,杏花岭区,三桥街道,景点,旅行社,112.546048,37.86957
山西友谊国旅,山西,太原,太原,0351,3533603,新建路,解放北路开化寺街87号华宇商贸写字楼12层,景点,旅行社,112.547493,37.878162
龙隐温泉度假酒店,山西,太原,太原,0351,6352777;6187666,长风商务区,神泉街神堂沟温泉度假村内,景点,温泉,112.48439,37.799866
凯撒旅游,山西,太原,太原,0351,8369966,亲贤街,亲贤北街79号茂业天地B1层B1011室,景点,旅行社,112.566841,37.823826
水泉寨公园,山西,太原,古交市,0351,5141981,古交市中心城区,金牛大街52号,景点,公园/广场,112.172661,37.906349
墨艺苑,山西,太原,太原,0351,4042107,桃园路,迎泽大街399号,景点,公园/广场,112.539833,37.859375
太原双塔革命烈士陵园,山西,太原,太原,0351,186****8617,迎泽区,双塔南巷19号,景点,烈士陵园,112.598985,37.84463
春秋国旅,山西,太原,太原,0351,4042258,长风街,平阳路街道学府街109-1号正西方向120米,景点,旅行社,112.559985,37.807791
“穿越龙城”恐龙展,山西,太原,太原,0351,5240098,长风西街,长风桥西中国（太原）煤炭交易中心,景点,展览馆,112.537514,37.817253
ace动漫游戏博览会,山西,太原,太原,0351,186****7912;186****1270,平阳路,平阳路平阳景苑9号楼4单元2602室,景点,博物馆,112.549515,37.820087
太平洋国旅,山西,太原,太原,0351,5611990;156****7844,杏花岭区,五龙口街黑土巷北区4号楼南侧,景点,旅行社,112.589653,37.864903
弗蕾斯公园,山西,太原,太原,0351,2507806,尖草坪区,迎新北巷3号,景点,公园/广场,112.529474,37.956542
兰亭御养生会所,山西,太原,太原,0351,2729808,长风街,长风桥东华德广场E座1012号,景点,更多景点/周边游,112.548967,37.818673
乐宝堡儿童游乐园,山西,太原,太原,0351,,解放路,亲贤北街龙华大悦城三层,景点,游乐场,112.560692,37.864964
金刚堰,山西,太原,太原,0351,,北大街,北大街与金刚堰路交叉口西南150米,景点,更多景点/周边游,112.546646,37.886444
卧龙山纪念园接待中心,山西,太原,太原,0351,,尖草坪区,新兰路与迎新北四巷交叉口北150米,景点,旅行社,112.540042,37.977322
春秋国旅,山西,太原,太原,0351,2593635,并州路,大营盘南内环街121号6幢1单元1层2号,景点,旅行社,112.573442,37.839242
三国演义城,山西,太原,清徐县,0351,,北城,城北2公里的清泉湖畔,景点,更多景点/周边游,112.360352,37.626854
龙泉山庄游泳馆,山西,太原,太原,0351,6342211;6342070,长风商务区,神堂沟3栋,景点,游乐场,112.486305,37.800582
变形金刚主题乐园,山西,太原,太原,0351,2727127,红灯笼体育场,山西体育中心红灯笼体育场东区,景点,主题乐园,112.536308,37.757969
大佛寺,山西,太原,太原,0351,158****1669,尖草坪区,新晋祠路与滨湖街交叉口西南角,景点,宗教,112.440559,37.997437
天地坛,山西,太原,太原,0351,,府东街,杏花岭街道,景点,更多景点/周边游,112.570374,37.871548
中华万宝园,山西,太原,太原,0351,,坞城路,坞城南路56号与龙城大街交汇处,景点,游乐场,112.585493,37.775138
悟圆寺,山西,太原,太原,0351,,晋祠公园,晋祠路599号怡圆寺附近,景点,宗教,112.446419,37.714268
五龙祠,山西,太原,太原,0351,,中北大学,通顺街,景点,宗教,112.449951,38.006313
阳曲慈仁寺,山西,太原,阳曲县,0351,,阳曲县其他,慈仁寺,景点,宗教,112.731765,38.171435
清徐县王宗祠,山西,太原,清徐县,0351,,清徐县其他,王宗祠东侧,景点,宗教,112.307159,37.545319
姆指山万亩桃花园,山西,太原,太原,0351,2307091,迎泽区,247县道北50米,景点,公园/广场,112.727338,37.867109
五龙城郊森林公园,山西,太原,太原,0351,,小店区,长风东街,景点,森林公园,112.666344,37.829681
华辰农耕园,山西,太原,太原,0351,7955368,小店区,北格镇张花村（晋龙集团太原饲料有限公司斜对面）,景点,更多景点/周边游,112.567123,37.624657
山西商务国旅太钢店,山西,太原,太原,0351,188****5892,北宫,龙城花园小区J10周周国旅,景点,旅行社,112.564834,37.914524
蚕宝宝旅游网,山西,太原,太原,0351,186****5111,南内环街,南内环街南三巷师苑小区B座109室,景点,旅行社,112.547275,37.835925
西门庄园,山西,太原,阳曲县,0351,5561826,阳曲县其他,泥屯镇东青善村,景点,动植物园,112.538588,38.053201
东湖公园,山西,太原,清徐县,0351,,清徐县中心城区,美锦大街46--北2号,景点,公园/广场,112.355339,37.609646
北京途乐国际旅行社,山西,太原,太原,0351,2949477,长风街,长风东街35号长风领袖5号楼5-901室,景点,旅行社,112.605109,37.818739
采薇花开,山西,太原,太原,0351,6285151,杏花岭区,小返乡水沟村,景点,更多景点/周边游,112.627558,37.944898
四季风旅行社,山西,太原,太原,0351,152****1330;135****6413,迎泽西大街,西矿街134号,景点,旅行社,112.495983,37.86128
太原市博物馆,山西,太原,太原,0351,4222173,长风商务区,广经路13号,景点,博物馆,112.533508,37.805256
柳巷街,山西,太原,太原,0351,,柳巷商业区,柳巷商圈大濮村,景点,步行街,112.564964,37.872803
晋阳街公园,山西,太原,太原,0351,,山西财经大学,晋阳街财大南校门东侧路南,景点,公园/广场,112.58918,37.785942
华夏广场,山西,太原,太原,0351,,千峰南路,南内环西街66号,景点,公园/广场,112.520197,37.839763
东方国旅,山西,太原,太原,0351,182****7500,小店区,小刘线,景点,旅行社,112.538615,37.642265
太原龙泉寺,山西,太原,太原,0351,,长风商务区,神泉街西200米,景点,宗教,112.474213,37.808708
启力门市,山西,太原,娄烦县,0351,,亲亲百货,娄烦镇娄烦二中对面,景点,旅行社,111.808587,38.072001
程景旅游有限公司,山西,太原,太原,0351,,长风街,坞城北街41号,景点,旅行社,112.566594,37.815904
商务国旅,山西,太原,太原,0351,3693131,和平南路,和平南路与南内环交叉口往北100米路东,景点,旅行社,112.511693,37.846043
山西晋尧之家农业特产博览园,山西,太原,太原,0351,186****7518,小店区,太茅路282号,景点,更多景点/周边游,112.478503,37.641056
美伊琳水科技馆,山西,太原,太原,0351,4008617886,杏花岭区,职工新街街道敦化南路47号,景点,科技馆,112.591243,37.880733
盛世金典艺术馆,山西,太原,太原,0351,130****0182,府东街,府东街省眼科医院东100米巴黎大街东区,景点,美术馆,112.565651,37.871716
闽韵古镇,山西,太原,太原,0351,,长风街,长风街128-3号,景点,古村古镇,112.556023,37.816983
杜儿坪矿文化活动中心,山西,太原,太原,0351,,万柏林区,杜儿坪街60号,景点,展览馆,112.399123,37.830883
山西水工局文体活动中心,山西,太原,太原,0351,,小店区,亲贤北街92号,景点,展览馆,112.554515,37.820735
神爱世人,山西,太原,太原,0351,,漪汾街,漪汾街139号附近,景点,宗教,112.519775,37.875645
十二生肖,山西,太原,太原,0351,,柳巷商业区,帽儿巷与柴市巷交叉口北100米,景点,人文古迹,112.562321,37.868691
马兰矿滨河广场,山西,太原,古交市,0351,,马兰镇,安兴街古交市第十小学校西南侧约50米,景点,公园/广场,112.040459,37.851051
基督教堂,山西,太原,太原,0351,,长风商务区,义井街南三巷化二建小区,景点,宗教,112.509011,37.812071
鑫泽国旅,山西,太原,太原,0351,,万柏林区,建筑北巷与西铭路交叉口东南150米,景点,旅行社,112.454145,37.854475
晋源区高级职业中学,山西,太原,太原,0351,,晋祠公园,晋源街道新晋祠路588号,景点,景点/周边游,112.488899,37.727703
星河城展示中心,山西,太原,太原,0351,,尖草坪区,向阳镇大同路公园湾小区,景点,展览馆,112.52356,37.97607
东方国旅赛马场门市部,山西,太原,太原,0351,138****6768,赛马场,迎春街赛马场万民药房往西,景点,旅行社,112.591042,37.882282
武财神,山西,太原,太原,0351,,柳巷商业区,帽儿巷壹吃三羊汤馆,景点,宗教,112.562568,37.870908
义井公园,山西,太原,太原,0351,,长风商务区,义井街南3巷4号,景点,公园/广场,112.512482,37.811424
紫林醋工业园,山西,太原,清徐县,0351,5731909,清徐县其他,太茅路高花段550号,景点,更多景点/周边游,112.434608,37.537285
六味斋云梦坞景区,山西,太原,清徐县,0351,2792560;134****5095,清徐县其他,徐沟镇南尹村208国道西侧,景点,文化公园,112.462502,37.552929
太原食品街,山西,太原,太原,0351,180****3360,柳巷商业区,食品街11号,景点,步行街,112.562195,37.870022
龙华寺,山西,太原,太原,0351,134****0783,长风商务区,南屯村安居街中段,景点,宗教,112.520569,37.812653
蒙牛乳业（太原）工业园,山西,太原,太原,0351,,富士康,西温庄乡山西综改示范区太原唐槐园区唐槐南路正阳街口,景点,创意园区,112.598572,37.72279
天主教,山西,太原,太原,0351,,晋源区,西仁线,景点,宗教,112.37961,37.65679
娄烦镇综合文化站,山西,太原,娄烦县,0351,,亲亲百货,君宇图书馆,景点,展览馆,111.817513,38.076046
锦言斋晋作红木博物馆,山西,太原,太原,0351,,小店区,滨河东路98号附近,景点,博物馆,112.543202,37.810442
商务国旅,山西,太原,太原,0351,139****6331,迎泽公园,解放南路,景点,旅行社,112.558672,37.857002
汾河景区,山西,太原,太原,0351,3439506,万柏林区,下元街道汾河两侧,景点,自然风光,112.534111,37.847942
西华门,山西,太原,太原,0351,,尖草坪区,土堂村,景点,宗教,112.440545,37.997393
童子寺燃灯塔,山西,太原,太原,0351,,晋祠公园,西南20公里龙山上,景点,宗教,112.414444,37.745541
友谊国际旅行社,山西,太原,太原,0351,2509961,杏花岭区,桃园二巷8号,景点,旅行社,112.546121,37.86964
小天美艺术馆,山西,太原,太原,0351,,解放路,北中环街北150米,景点,美术馆,112.556488,37.901768
去哪儿,山西,太原,太原,0351,150****2713,万柏林区,矿务局红绿灯往北100米西铭路11号院(410小区)31号楼,景点,旅行社,112.454181,37.854511
支前纪念馆,山西,太原,阳曲县,0351,,阳曲县其他,侯村乡店子底村,景点,纪念馆,112.691696,37.971745
庙碉,山西,太原,太原,0351,,杏花岭区,杨家峪街道山庄头村,景点,宗教,112.635,37.901212
盈科旅游,山西,太原,太原,0351,136****9683,万柏林区,河龙湾公园新居底商6号,景点,旅行社,112.441637,37.846416
太原东方宝贝王乐园,山西,太原,太原,0351,186****9287,朝阳街,朝阳街东方红负一层,景点,主题公园,112.590111,37.854519
太原汾河景区,山西,太原,太原,0351,3439506,万柏林区,柴村桥到迎宾桥南2公里,景点,城市公园,112.540855,37.820734
天丽欢乐嘉年华,山西,太原,太原,0351,,晋源区,晋祠镇窑头村天丽公园,景点,游乐场,112.391131,37.716276
太原老车文化博物馆,山西,太原,太原,0351,2371110;2229222,坞城路,正阳街36号,景点,博物馆,112.590858,37.72131
驻跸园,山西,太原,阳曲县,0351,,阳曲火车站,新阳东街阳光佳苑北侧,景点,公园/广场,112.680107,38.0583
南屯门楼,山西,太原,太原,0351,,长风商务区,新晋祠路71号丽水苑4号楼1单元,景点,人文古迹,112.526955,37.814499
泰杰研发展示中心,山西,太原,太原,0351,,小马,发展路与赛鼎街交叉口西北50米,景点,展览馆,112.556351,37.786968
晋祠游客中心,山西,太原,太原,0351,,晋祠公园,晋祠公园内,景点,公园/广场,112.452232,37.705654
街心公园,山西,太原,太原,0351,,迎泽西大街,西矿街,景点,公园/广场,112.516541,37.858463
沙沙哗啦海洋馆,山西,太原,太原,0351,7531891;158****5941,学府街,学府街132号华宇百花谷2层,景点,海洋馆,112.546844,37.806995
昌宁公园,山西,太原,太原,0351,,晋祠公园,贞观街晋源区政府南侧,景点,公园/广场,112.475632,37.71093
阳光温泉公馆,山西,太原,太原,0351,6078866,南中环街,新晋祠路288号阳光汾河湾4号楼101号,景点,温泉,112.534889,37.792965
城隍庙,山西,太原,太原,0351,,万达/龙潭商业中心,城坊街与解放路交叉口西北100米,景点,宗教,112.561188,37.88232
三清观,山西,太原,太原,0351,155****9781,迎泽区,郝庄镇新沟村马庄水库北,景点,宗教,112.642226,37.83225
嘉思图艺术馆,山西,太原,太原,0351,,长风西街,长风西街1号丽华大厦A座2层,景点,美术馆,112.536247,37.818779
明秀寺,山西,太原,太原,0351,,晋源区,晋祠镇王郭村西北部,景点,宗教,112.441014,37.68181
凤颐谷,山西,太原,太原,0351,6653600,晋源区,金胜镇冶峪河快速路田家沟村,景点,更多景点/周边游,112.455994,37.804958
解放汤泉,山西,太原,太原,0351,3190888,万达/龙潭商业中心,解放路149号,景点,温泉,112.56147,37.881145
世博山西馆,山西,太原,太原,0351,,蒙山大佛景区,绕城高速,景点,展览馆,112.46283,37.7659
兰亭,山西,太原,太原,0351,3042269,北肖墙,北肖墙北肖墙小区,景点,自然景观,112.568146,37.885567
量子科技体验馆,山西,太原,太原,0351,19934913993,人民路,人民北路84号,景点,科技馆,112.568695,37.738522
小西沟文旅康养小镇,山西,太原,太原,0351,8306166,小店区,长分东街东延五龙生态森林公园内,景点,现代小镇,112.65963,37.82733
南宫大礼堂,山西,太原,太原,0351,,迎泽公园,迎泽大街248号,景点,景点/周边游,112.557053,37.858452
山西省防空防灾体验馆,山西,太原,太原,0351,,杏花岭区,大东关街道红沟北街10号附近,景点,科技馆,112.594466,37.872416
主角电影艺术馆,山西,太原,太原,0351,,客运东站,经园路五龙湾山水庭院10号楼2单元-403室,景点,美术馆,112.611046,37.872379
神奇的轮胎乐园,山西,太原,太原,0351,,动物园,东山马路2号太原动物园内,景点,游乐场,112.574287,37.90757
国师街社区居民文化活动站,山西,太原,太原,0351,,山大二院,国师街17号国师街,景点,展览馆,112.57106,37.875832
中青旅山西国际旅行社有限公司,山西,太原,太原,0351,8211206;8211111,平阳路,金茂国际大厦B座20层F室,景点,旅行社,112.551897,37.837517
太原解放战役陈列馆,山西,太原,太原,0351,,长风西街,长风西街鑫金港尾气检测线院内正西方向60米,景点,陈列馆,112.488015,37.824455
新晋商国旅,山西,太原,太原,0351,,恒山路,恒山路30号附近,景点,旅行社,112.55716,37.93485
晋祠博物馆-讲解服务,山西,太原,太原,0351,,晋祠公园,晋祠公园晋祠博物馆,景点,博物馆,112.443001,37.708748
太原市旅游服务中心,山西,太原,太原,0351,4166390,新建路,新建路59省农机招待所五层,景点,旅行社,112.5504,37.867767
山西焦炭发展史陈列馆,山西,太原,太原,0351,,晋祠路,晋祠路一段57号,景点,陈列馆,112.530512,37.846882
振江核雕艺术馆,山西,太原,太原,0351,,迎泽西大街,迎泽西大街居然之家河西店建材馆B1层,景点,美术馆,112.482174,37.85583
畅游景致国旅,山西,太原,太原,0351,,南中环街,南中环街521号中环水岸小二层,景点,旅行社,112.549022,37.794152
城晋驿村史展览馆,山西,太原,阳曲县,0351,,阳曲县其他,城晋驿东南方向180米,景点,展览馆,112.713379,38.091644
盆景中心展览馆,山西,太原,太原,0351,,南内环街,小环路与老军营西巷交叉口东北50米,景点,陈列馆,112.546448,37.841274
山西省民俗博物馆分馆,山西,太原,太原,0351,,大营盘,体育路7号,景点,博物馆,112.568695,37.835823
商务国旅,山西,太原,太原,0351,186****9796,杏花岭区,红沟北街26号9幢12号,景点,旅行社,112.590214,37.876234
桃南西二巷文化长廊,山西,太原,太原,0351,,桃园路,桃园南路53号,景点,更多景点/周边游,112.545799,37.848419
店头古村,山西,太原,太原,0351,,蒙山大佛景区,晋源街道太古路,景点,古村古镇,112.427837,37.753477
贵都大自然趣味蜡像馆,山西,太原,太原,0351,,柳巷商业区,柳巷南路19号贵都世纪广场F6层,景点,美术馆,112.567637,37.864085
山西君湘旅行社,山西,太原,太原,0351,,坞城路,迎泽大街8号,景点,旅行社,112.581224,37.792774
红河谷茶文化街,山西,太原,太原,0351,,长风街,长风街与平阳景苑交叉口,景点,步行街,112.561186,37.819806
山西岚海国旅,山西,太原,太原,0351,139****3272,亲贤街,亲贤北街58号怡和广场12层1205室,景点,旅行社,112.568165,37.822875
乐悠悠旅行,山西,太原,太原,0351,137****7355,并州北路,并州北路16号,景点,旅行社,112.573082,37.857044
傅公祠,山西,太原,太原,0351,,杏花岭区,多马巷12号附近,景点,更多景点/周边游,112.565437,37.879247
大原北部现代农业公园,山西,太原,太原,0351,,尖草坪区,向阳镇太原北部现代农业公园,景点,公园/广场,112.493721,37.97826
太原龙山景区,山西,太原,太原,0351,2536328,晋祠公园,晋祠镇西镇村龙山景区,景点,自然风光,112.43623,37.70785
望月楼,山西,太原,太原,0351,,晋祠公园,晋祠公园内,景点,人文古迹,112.447175,37.706055
宝华国旅,山西,太原,太原,0351,8888886,小店区,太原经济技术开发区电子街1006号恒大影城二楼东南方向90米,景点,旅行社,112.577236,37.749676
旅游百事通,山西,太原,太原,0351,,坞城路,太原经济技术开发区富康街,景点,旅行社,112.580403,37.745279
红马国旅,山西,太原,太原,0351,2157952,小店区,小店街道富康街b-21号,景点,旅行社,112.574637,37.745067
商务国旅,山西,太原,太原,0351,4239219,平阳路,平阳路29-4号,景点,旅行社,112.552296,37.833366
东方国旅,山西,太原,太原,0351,137****8824,平阳路,平阳西一巷育翠苑,景点,旅行社,112.548779,37.832529
红马国旅,山西,太原,太原,0351,134****6377,北大街,三桥街道北大街195号锦江之星1层底商,景点,旅行社,112.549978,37.892778
醋窖,山西,太原,太原,0351,,杏花岭区,马道坡街26号东湖醋园内,景点,人文古迹,112.595081,37.879481
鹦鹉馆,山西,太原,太原,0351,,动物园,东山马路2号太原动物园内,景点,动物园,112.578407,37.91058
仙翁阁,山西,太原,太原,0351,,晋祠公园,晋祠镇晋祠公园内,景点,人文古迹,112.44649,37.707841
待凤轩,山西,太原,太原,0351,,晋祠公园,晋祠镇晋祠公园晋祠博物馆内,景点,更多景点/周边游,112.441597,37.71003
去哪儿旅行,山西,太原,太原,0351,,长治路,寇庄北街11号,景点,旅行社,112.563889,37.836826
蓝水园温泉度假酒店,山西,太原,太原,0351,4298888,下元商业中心,后王街5号（煤炭博物馆晋祠路往南走100米右转即到）,景点,温泉,112.528349,37.851468
山西博物院文创空间,山西,太原,太原,0351,,长风商务区,长兴路华润万象城T601-T602,景点,博物馆,112.527981,37.807632
起亚立体展厅,山西,太原,太原,0351,,小马,平阳南路88号小马大昌汽贸园,景点,展览馆,112.553932,37.782379
环境国旅,山西,太原,阳曲县,0351,,阳曲火车站,东北街74号,景点,旅行社,112.679234,38.061514
四季风旅游,山西,太原,太原,0351,,杏花岭区,解放北路75号406幢附近,景点,旅行社,112.561946,37.897844
摄乐桥,山西,太原,太原,0351,,尖草坪区,尖草坪北街与摄乐街交界处,景点,现代建筑,112.518724,37.922884
太原金桥公园,山西,太原,太原,0351,,柴村,金桥西街与和平北路交叉口,景点,公园/广场,112.501211,37.936732
进出口品牌展示体验中心,山西,太原,太原,0351,,富士康,大昌路,景点,科技馆,112.607148,37.746518
中国国旅,山西,太原,太原,0351,,新建路,庙前街道桃园三巷杏林四条1号第四件门面房,景点,旅行社,112.545997,37.869687
中港航空国旅,山西,太原,太原,0351,137****6617,坞城路,太原经济技术开发区唐明路1号,景点,旅行社,112.588253,37.741553
红马国旅,山西,太原,太原,0351,159****8051,平阳路,平阳路44-4号,景点,旅行社,112.553027,37.829727
山西东方国旅,山西,太原,太原,0351,138****7023,平阳路,平阳路街道平阳路172号省检察院对面,景点,旅行社,112.546898,37.822815
腾邦旅游,山西,太原,太原,0351,,山西财经大学,新庄社区龙城2011底商73号,景点,旅行社,112.602587,37.775957
三晋文旅有限公司,山西,太原,太原,0351,,长风街,太榆路50号晋龙捷泰办公楼5层,景点,旅行社,112.589495,37.815405
旅游百事通,山西,太原,太原,0351,,迎泽区,双塔北路与永祚西街交叉口西50米,景点,旅行社,112.590972,37.849632
融合富环境国旅,山西,太原,阳曲县,0351,,德祥百货,商贸新街44号,景点,旅行社,112.674098,38.057388
鼓楼街道府东社区综合文化服务中心,山西,太原,太原,0351,,府东府西商业街,府东街125号,景点,展览馆,112.566512,37.873951
太原市青少年活动中心,山西,太原,太原,0351,4227492,府西街,府西街110号青年宫四层,景点,展览馆,112.540859,37.872949
国府书画院,山西,太原,太原,0351,,府西街,半坡东街与府西街交叉口南50米,景点,美术馆,112.556122,37.873119
太原市小店区营盘街道长治路一社区综合文化服务中心,山西,太原,太原,0351,,长治路,长治路33号,景点,展览馆,112.560573,37.835546
格林梦美术馆,山西,太原,太原,0351,186****7376,迎新街,迎新南一巷童星幼儿园东100米来悦市场北门对面,景点,美术馆,112.539507,37.953738
晋阳湖大型水上实景演艺・如梦晋阳,山西,太原,太原,0351,8286666,蒙山大佛景区,环湖东路与健康南街交汇处晋阳湖剧场,景点,旅游项目/观光项目,112.516186,37.752766
同程旅游VIP服务中心,山西,太原,太原,0351,7287300,武宿机场,机场快速路武宿国际机场T2航站楼2层,景点,旅行社,112.63484,37.75464
盈科旅游,山西,太原,太原,0351,,并州北路,迎泽南街29号,景点,旅行社,112.579317,37.858776
旅游百事通,山西,太原,太原,0351,,昌盛西街,昌盛西街音乐广场14号东面,景点,旅行社,112.570857,37.735777
星耀体育公园,山西,太原,太原,0351,153****4842,红灯笼体育场,长治路大汇嘉园生态园,景点,城市公园,112.566395,37.756171
山西商务国旅,山西,太原,太原,0351,186****3171,迎泽西大街,前进路21号,景点,旅行社,112.504181,37.854292
皇城相府国际旅行社,山西,太原,太原,0351,,和平路,玉河街21号,景点,旅行社,112.506246,37.868997
清徐县非物质文化遗产综合传习中心,山西,太原,清徐县,0351,,清徐县中心城区,文源路与梗阳西街交叉口西北200米,景点,展览馆,112.341541,37.614211
盈科旅游,山西,太原,太原,0351,,迎泽西大街,迎泽西大街370号海唐广场1栋1-2商铺1011号,景点,旅行社,112.477119,37.854879
晋源区山西省体育主题公园,山西,太原,太原,0351,,晋祠公园,晋源街,景点,公园/广场,112.465082,37.717979
去哪儿旅行,山西,太原,太原,0351,138****5134,小店区,长风南街2巷22号,景点,旅行社,112.550148,37.811218
美丽石岛,山西,太原,太原,0351,131****9717,北大街,北大街天天家园,景点,科技馆,112.579948,37.888302
偏桥沟风情小镇,山西,太原,太原,0351,,万柏林区,杜儿坪街偏桥沟村,景点,现代小镇,112.342598,37.804256
福福山温泉山庄,山西,太原,古交市,0351,,青年路,古交福福山庄,景点,温泉,112.175877,37.907107
宝华国旅,山西,太原,太原,0351,152****7700,万柏林区,杜儿坪街道九院东路美特好超市,景点,旅行社,112.443592,37.859312
山西远景旅行社有限公司,山西,太原,太原,0351,,亲贤街,小店亲贤亲贤北街太航世纪东座603室,景点,旅行社,112.576096,37.824302
龙城寺,山西,太原,太原,0351,,和平南路,和平南路192号,景点,宗教,112.51183,37.829846
华日殿堂,山西,太原,太原,0351,,迎泽西大街,铁东路居然之家内,景点,景点/周边游,112.482272,37.858734
山西晨晖旅行社有限公司,山西,太原,太原,0351,,漪汾街,望景路9号滨河花苑8号楼1层,景点,旅行社,112.530361,37.868251
红马国旅,山西,太原,太原,0351,139****1525,双塔西街,双塔西街70号,景点,旅行社,112.550992,37.845312
东方国旅,山西,太原,太原,0351,5288924,下元商业中心,和平南路59号小区,景点,旅行社,112.51634,37.841585
太平洋国旅,山西,太原,太原,0351,189****2253,新建路,桃园南路西里三条7号东南方向10米,景点,旅行社,112.542805,37.845635
慈云寺,山西,太原,太原,0351,,迎泽区,朝阳街,景点,宗教,112.621994,37.854334
驴妈妈旅游网,山西,太原,太原,0351,,新建路,新建路桃园四巷2号水利厅晋利商店,景点,旅行社,112.550698,37.867118
乐游旅游,山西,太原,太原,0351,186****9163,北大街,新建路170号附近,景点,旅行社,112.550943,37.887493
旅游百事通,山西,太原,太原,0351,,通达街,太原经济技术开发区万豪诚品,景点,旅行社,112.577494,37.728744
景美国际,山西,太原,太原,0351,,双塔西街,双塔西街49-1新视界A座506室,景点,旅行社,112.560608,37.845038
风格凯德嘉温泉酒店,山西,太原,清徐县,0351,5955666,清徐县其他,紫林路仁义村,景点,温泉,112.335002,37.625278
途牛旅游,山西,太原,太原,0351,,体育路,体育南路世纪花苑北区E座一楼底商,景点,旅行社,112.568903,37.803713
山西宝华国旅,山西,太原,太原,0351,2764521,南内环街,并州南路12号,景点,旅行社,112.573651,37.836761
东方国旅,山西,太原,清徐县,0351,183****1622,清徐县中心城区,清源路宏达小区北侧约50米,景点,旅行社,112.362615,37.608675
东篱公园,山西,太原,太原,0351,,山西财经大学,龙城大街龙城天悦北侧,景点,公园/广场,112.597466,37.77285
晋阳美术馆,山西,太原,太原,0351,176****9100,迎泽公园,迎泽大街南宫古玩城文化楼308-311号,景点,美术馆,112.557462,37.857652
春秋国旅,山西,太原,太原,0351,187****7732,建设南路,建设南路山姆士底商,景点,旅行社,112.585665,37.836192
失恋博物馆,山西,太原,太原,0351,,亲贤街,营盘街道体育西路亲贤北街189号,景点,博物馆,112.565483,37.824013
商务国旅,山西,太原,太原,0351,,平阳路,平阳路108-2号,景点,旅行社,112.556709,37.81586
驴妈妈旅游网,山西,太原,太原,0351,,坞城路,坞城路16号今辰文苑一层,景点,旅行社,112.584214,37.813546
携程旅游,山西,太原,太原,0351,153****0306,南中环街,体育南路锦绣苑21号楼,景点,旅行社,112.569747,37.79514
携程旅游,山西,太原,太原,0351,152****6403,坞城路,坞城东街18号太原铁路机械学校底商,景点,旅行社,112.585369,37.812479
大汇嘉园生态园,山西,太原,太原,0351,2368636,红灯笼体育场,家家园装饰城东,景点,动植物园,112.566399,37.756042
乐游旅游,山西,太原,太原,0351,,平阳路,平阳路13号,景点,旅行社,112.552215,37.836715
大三藏寺,山西,太原,阳曲县,0351,,阳曲县其他,三藏寺,景点,宗教,112.420631,38.237591
浮来青国际旅行社,山西,太原,太原,0351,,下元商业中心,大众街太原市万柏林区下元街道大众街社区北侧约30米,景点,旅行社,112.514713,37.849033
乐游旅游,山西,太原,太原,0351,,小马,恒大翡翠华庭底商,景点,旅行社,112.557193,37.786027
清泽园,山西,太原,太原,0351,,下元商业中心,迎泽西大街79号太原理工大学迎西校区,景点,更多景点/周边游,112.522962,37.860282
龙潭公园-笑水廊,山西,太原,太原,0351,,龙潭公园,龙潭商业中心北仓巷龙潭公园,景点,更多景点/周边游,112.555054,37.883304
乐乐美术馆,山西,太原,太原,0351,159****9121,羊市街,羊市街123号,景点,美术馆,112.560146,37.868099
龙潭公园-龙吟岛,山西,太原,太原,0351,,龙潭公园,龙潭公园内,景点,更多景点/周边游,112.552342,37.879922
新城广场,山西,太原,太原,0351,,晋祠公园,贞观街19附近,景点,公园/广场,112.477365,37.714488
太原方特东方神画,山西,太原,阳曲县,0351,4001660006,阳曲县其他,华强中路1号,景点,游乐场,112.651382,38.045571
天主堂,山西,太原,古交市,0351,,镇城底,雁门路,景点,宗教,112.059157,37.957617
河滩公园,山西,太原,太原,0351,,尖草坪区,中北大学附近汾河湾上,景点,公园/广场,112.441602,38.006183
乐游旅游,山西,太原,太原,0351,,杏花岭区,五龙口街83号附近,景点,旅行社,112.603177,37.865345
如意湖,山西,太原,古交市,0351,,古交市其他,镇城底镇阴家沟村,景点,公园/广场,112.098748,37.935589
迎泽公园牡丹芍药园,山西,太原,太原,0351,,迎泽公园,南沙河北沿岸,景点,公园/广场,112.563345,37.850935
乔万选旧居,山西,太原,清徐县,0351,,南门商圈,市楼西街基督教堂旁,景点,纪念馆,112.346874,37.614764
上海花树国际旅行社,山西,太原,太原,0351,153****9515,解放路,钟楼街53号,景点,旅行社,112.561538,37.871058
天主堂,山西,太原,太原,0351,,北宫,涧河路与东山马路交叉路口往西南约200米,景点,宗教,112.568626,37.907913
太原市历史建筑永兴路11号民居,山西,太原,太原,0351,,北肖墙,永兴路11号,景点,人文古迹,112.567052,37.885192
金宝贝换装自拍馆,山西,太原,太原,0351,8782225,小店区,华宇百花谷商场4层西区,景点,更多景点/周边游,112.546808,37.806958
东旭中央公园,山西,太原,太原,0351,,南内环街,营盘街道南内环与体育西路交汇处恒地大厦楼下东旭中央公园,景点,公园/广场,112.56488,37.838242
太原动物园-西南2门,山西,太原,太原,0351,,杏花岭区,卧虎山快速路与敦化坊路交叉口东北50米,景点,动植物园,112.573279,37.907519
旅游百事通,山西,太原,太原,0351,,迎新街,迎新街八楼十字路口,景点,旅行社,112.537092,37.956062
基督教古寨堂,山西,太原,太原,0351,,晋祠公园,乾阳街,景点,宗教,112.497624,37.710604
古县城-段氏宗祠,山西,太原,太原,0351,,晋祠公园,镇东大街34号,景点,人文古迹,112.490154,37.727084
大雄宝殿,山西,太原,太原,0351,,晋祠公园,晋祠镇晋祠公园晋祠博物馆内,景点,人文古迹,112.439626,37.707306
山西省第三人民医院-院史展览馆,山西,太原,太原,0351,,省三院,山西省第三人民医院,景点,展览馆,112.598594,37.888594
"70,80年代展厅",山西,太原,阳曲县,0351,,阳曲县其他,青龙古镇内,景点,展览馆,112.630666,38.024466
龙潭公园-西门广场,山西,太原,太原,0351,,龙潭公园,新建路140号附近,景点,广场,112.551505,37.881575
楼凰园,山西,太原,太原,0351,,人民路,人民北路与汾东北路交叉口东南100米,景点,公园/广场,112.564484,37.75008
鹏博瑞翔旅行社,山西,太原,太原,0351,,通达街,永丰路19东北60米,景点,旅行社,112.573858,37.727832
天门关,山西,太原,太原,0351,,尖草坪区,康西公路南50米,景点,人文古迹,112.456256,38.064554
望景楼,山西,太原,太原,0351,,迎泽公园,迎泽大街218号迎泽公园内,景点,人文古迹,112.555894,37.84724
家庭温泉,山西,太原,太原,0351,,杏花岭区,五龙口街93西80米,景点,温泉,112.602178,37.865497
携程旅游,山西,太原,太原,0351,,杏花岭区,东涧河村东涧河小学北100米,景点,旅行社,112.592161,37.918561
中国国旅,山西,太原,太原,0351,,迎泽区,五龙口街49号正南方向80米,景点,旅行社,112.590774,37.864128
和平时代商业街,山西,太原,太原,0351,7069991,和平路,和平北路23号,景点,观光街区,112.510329,37.862199
人口文化园,山西,太原,太原,0351,,并州路,太航职工文化馆对面,景点,更多景点/周边游,112.578469,37.821341
偏桥沟主题文化园,山西,太原,太原,0351,2358719,万柏林区,杜儿坪街道马圪台,景点,现代小镇,112.344356,37.803686
五柒六美术馆,山西,太原,太原,0351,,火车站,朝阳街39号同至人购物中心F3层,景点,美术馆,112.596119,37.856669
国韵艺术馆,山西,太原,太原,0351,,坞城路,太原经济技术开发区坞城南路与庆云街交叉路口往南约200米,景点,美术馆,112.584869,37.740299
汾河景区-出入口,山西,太原,太原,0351,,桃园路,庙前街道滨河西路(近滨河东路)太原汾河景区内,景点,更多景点/周边游,112.539201,37.869311
飞酷蹦床主题公园,山西,太原,太原,0351,8782225;137****8297,省体育中心,营盘街道体育路山西体育场院内羽毛球馆内东北角1号,景点,主题乐园,112.565629,37.830314
天主堂,山西,太原,阳曲县,0351,,阳曲县其他,原太高速公路,景点,宗教,112.63062,38.014899
梨园春,山西,太原,太原,0351,,蒙山大佛景区,滨河东路太原汾河景区内,景点,更多景点/周边游,112.536385,37.78957
宫至凤呈祥主题馆,山西,太原,太原,0351,6598888,晋祠公园,城桐封东路1号,景点,展览馆,112.485916,37.727592
猫咪博物馆,山西,太原,太原,0351,4001186319,省体育中心,永康街与体育路交口西南角茂业天地二期5层,景点,展览馆,112.568461,37.825594
关帝庙,山西,太原,太原,0351,,柳巷商业区,西校尉营路校尉营小学旁,景点,宗教,112.565434,37.867094
福茂沙场,山西,太原,太原,0351,,杏花岭区,钢中路西150米,景点,更多景点/周边游,112.58301,37.921686
迎泽公园-北入口广场,山西,太原,太原,0351,,迎泽公园,迎泽大街218号迎泽公园内,景点,公园/广场,112.562162,37.858977
娄烦・汾河牡丹园,山西,太原,娄烦县,0351,,娄烦县其他,罗马线,景点,植物园,111.871466,38.063236
三角地游园,山西,太原,太原,0351,,下元商业中心,迎泽西大街与千峰北路交叉口西北角,景点,公园/广场,112.516532,37.858468
山西青铜博物馆,山西,太原,太原,0351,,长风商务区,广经路13号,景点,博物馆,112.53351,37.805256
携程旅游清徐四通路营业部,山西,太原,清徐县,0351,150****2299;136****3999,清徐县中心城区,四通路2号门面房,景点,旅行社,112.351533,37.597043
博学广场,山西,太原,太原,0351,,武宿机场,西温庄乡太榆路武宿机场南山西大学商务学院,景点,公园/广场,112.660019,37.746234
新濠国际展示中心,山西,太原,太原,0351,,红灯笼体育场,城南逸居住宅小区西区,景点,展览馆,112.575089,37.7542
梦幻世界,山西,太原,太原,0351,,动物园,东山马路2号太原动物园内,景点,游乐场,112.585969,37.910269
古城遗址,山西,太原,太原,0351,,龙潭公园,北大街与新建路交叉口东南200米,景点,人文古迹,112.552004,37.886904
冬园,山西,太原,太原,0351,,千峰南路,千峰南路125号太原和平公园四季花园,景点,更多景点/周边游,112.517309,37.836659
青龙古镇阳峰游乐场,山西,太原,阳曲县,0351,157****3124;186****4656,阳曲县其他,青龙古镇明代古地道对面,景点,游乐场,112.63116,38.02474
春秋国旅,山西,太原,太原,0351,,中北大学,X256与通顺街交叉口西南50米,景点,旅行社,112.455066,38.006809
九洲国旅,山西,太原,太原,0351,139****6366,客运东站,红沟中街,景点,旅行社,112.609123,37.870014
方特游乐场,山西,太原,阳曲县,0351,,阳曲县其他,黄寨镇阳兴大道,景点,游乐场,112.650759,38.045633
东街村段氏宅院,山西,太原,太原,0351,,晋祠公园,晋源东街北50米,景点,人文古迹,112.488178,37.727698
云顶山景区,山西,太原,娄烦县,0351,,娄烦县其他,独石河村,景点,更多景点/周边游,111.606087,37.881752
天主堂,山西,太原,清徐县,0351,,清徐县其他,当中街,景点,宗教,112.363764,37.555134
浮来青旅行社,山西,太原,太原,0351,,兴华街,兴华北小区附近,景点,旅行社,112.521341,37.890901
鹏博瑞翔旅行社,山西,太原,古交市,0351,,当中街,桃园街道南坪街8西北50米,景点,旅行社,112.168674,37.910068
登山怀远,山西,太原,太原,0351,,迎泽公园,迎泽大街218号迎泽公园内,景点,更多景点/周边游,112.558861,37.84951
高峰入云,山西,太原,太原,0351,,迎泽公园,迎泽大街218号迎泽公园内,景点,更多景点/周边游,112.559181,37.8512
勐乐山,山西,太原,太原,0351,,长风西街,长风西街街道远大凤玺湾一期,景点,自然景观,112.518135,37.817993
花篮主题公园,山西,太原,清徐县,0351,,清徐县其他,一支桥与紫林路交叉路口往西北约100米,景点,公园/广场,112.38003,37.60519
东方国旅,山西,太原,太原,0351,182****8814,胜利街,胜利街451号,景点,旅行社,112.555698,37.888478
飞龙阁,山西,太原,太原,0351,,晋祠公园,晋祠公园内,景点,人文古迹,112.447834,37.705814
晋溪书院北展厅,山西,太原,太原,0351,,晋祠公园,晋祠镇晋祠公园晋祠博物馆内,景点,展览馆,112.441118,37.708598
步行街,山西,太原,太原,0351,,漪汾街,千峰北路10号南90米,景点,步行街,112.523885,37.86387
太原古县城,山西,太原,太原,0351,6598888,晋祠公园,晋源北外环街与晋源东外环路交叉口东南角,景点,古村古镇,112.485917,37.727593
火柴盒广场,山西,太原,太原,0351,,太原科技大学,千峰北路与永乐北街交叉路口往东南约100米,景点,公园/广场,112.519046,37.881516
天主堂,山西,太原,太原,0351,,长风商务区,晋祠路292号圣湖万年花城西南,景点,宗教,112.503457,37.792566
劫尘画廊,山西,太原,太原,0351,166****1056,北美新天地N1,晋阳街88号兴业大厦1006室南,景点,美术馆,112.567712,37.787953
旅游百事通,山西,太原,太原,0351,155****6631,迎泽区,五龙口街56号,景点,旅行社,112.590796,37.864534
文化广场,山西,太原,太原,0351,,解放路,东仓巷11号附近,景点,公园/广场,112.563947,37.880637
康培城郊森林公园,山西,太原,太原,0351,,蒙山大佛景区,G2001,景点,森林公园,112.4668,37.769662
平安国旅,山西,太原,太原,0351,,体育路,体育路403号,景点,旅行社,112.568826,37.799206
玫瑰园,山西,太原,太原,0351,2022622,迎泽公园,迎泽大街218号迎泽公园内,景点,植物园,112.561059,37.851447
盈科旅游,山西,太原,太原,0351,,大同路,名都街与北中环街交叉路口往北约150米,景点,旅行社,112.55588,37.901654
太原市规划展示馆,山西,太原,太原,0351,130****3602,红灯笼体育场,新晋祠路晋阳湖公园内,景点,陈列馆,112.508266,37.759059
中国国旅,山西,太原,太原,0351,185****9494,和平路,玉河街193号楼1号,景点,旅行社,112.507072,37.869252
吕梁野山坡,山西,太原,太原,0351,,并州路,并州南路41号西70米,景点,更多景点/周边游,112.571799,37.834326
中国国旅,山西,太原,太原,0351,186****3946,兴华街,永乐北街永乐苑小区北门东50米路南底商,景点,旅行社,112.523134,37.882314
青龙古镇-紫塞牌坊,山西,太原,阳曲县,0351,,阳曲县其他,青龙古镇内,景点,人文古迹,112.632119,38.026673
前庄天主堂,山西,太原,古交市,0351,,古交市其他,五寨线北50米,景点,宗教,111.8342,37.844441
旧岁遗痕,山西,太原,阳曲县,0351,,阳曲县其他,青龙古镇内,景点,人文古迹,112.63075,38.025087
景美国旅,山西,太原,太原,0351,136****5857,双塔西街,双塔西街新视界A座506室,景点,旅行社,112.559421,37.845995
明泰大师塔,山西,太原,阳曲县,0351,,阳曲县其他,西盘威村260县道宝严禅院,景点,历史建筑,112.740086,38.049418
摩诘美术馆,山西,太原,太原,0351,,蒙山大佛景区,滨河东路与龙城北街交叉路口往北约200米,景点,美术馆,112.537384,37.780369
绿洲植物景区,山西,太原,太原,0351,,龙潭公园,龙潭公园,景点,植物园,112.554526,37.884357
红马国旅,山西,太原,太原,0351,138****1014,南内环街,新建南路139号工商培训中心,景点,旅行社,112.552014,37.839355
千佛阁,山西,太原,阳曲县,0351,,阳曲县其他,青龙古镇内,景点,人文古迹,112.632139,38.026276
途牛旅游,山西,太原,太原,0351,,晋祠路,大王路,景点,旅行社,112.530072,37.836342
天下谷,山西,太原,太原,0351,,迎泽西大街,文兴路与迎泽西北环桥交叉路口往东约100米,景点,更多景点/周边游,112.531121,37.860271
红马国旅,山西,太原,太原,0351,180****2939,长风街,平阳路街道长风街长治路口北美新天地2号楼15层1505室,景点,旅行社,112.561513,37.816003
润墨堂,山西,太原,太原,0351,,红灯笼体育场,昌盛西街汇丰国际,景点,美术馆,112.555547,37.735757
天主堂,山西,太原,古交市,0351,,古交市其他,古岔线北50米,景点,宗教,111.785103,37.884493
长沟平安公园,山西,太原,太原,0351,,杏花岭区,长沟村,景点,公园/广场,112.616153,37.936732
津湾少儿影视基地,山西,太原,太原,0351,5639309,长治路,亲贤百万庄园东区19排4号,景点,影视基地,112.562497,37.811844
灯山楼,山西,太原,阳曲县,0351,,阳曲县其他,青龙古镇内,景点,更多景点/周边游,112.63066,38.024102
泡温泉,山西,太原,清徐县,0351,,清徐县其他,紫林路,景点,温泉,112.335179,37.625459
晋地宝藏标本园,山西,太原,太原,0351,,漪汾街,滨河西路山西地质博物馆东南广场,景点,人文古迹,112.533001,37.866801
绿园,山西,太原,太原,0351,,北宫,尖草坪街道花园国际大酒店内,景点,公园/广场,112.56053,37.90974
一号山,山西,太原,太原,0351,,大同路,大同路北36号太原市森林公园内,景点,更多景点/周边游,112.533821,37.916489
天主教太原教区六合村天主堂,山西,太原,清徐县,0351,,清徐县中心城区,启迪街与星光路交叉口西北100米,景点,宗教,112.327293,37.610219
隆恩寺,山西,太原,太原,0351,,晋祠公园,凤城西街21号西北30米,景点,宗教,112.48383,37.728754
山西大学会议室,山西,太原,太原,0351,151****6115,坞城路,北营街道,景点,景点/周边游,112.584749,37.805931
太山飞越山西360极限飞球,山西,太原,太原,0351,134****0592,蒙山大佛景区,太古路太山风景区大游客服务中心,景点,旅游项目/观光项目,112.45764,37.74332
太原植物园,山西,太原,太原,0351,6995666,蒙山大佛景区,晋阳大道与太古路交叉口西北角,景点,植物园,112.473745,37.746364
交通安全宣传主题公园,山西,太原,太原,0351,,新建路,新建路与桃园二巷交叉口东南50米,景点,公园/广场,112.551456,37.871126
金牛步行街-7入口,山西,太原,古交市,0351,,古交市中心城区,通顺巷与金牛大街交叉口南50米,景点,步行街,112.169731,37.911111
帝王宫,山西,太原,太原,0351,,千峰南路,大王路西200米,景点,人文古迹,112.524891,37.836461
三郎洞原生态旅游景点,山西,太原,阳曲县,0351,,阳曲县其他,六固村,景点,更多景点/周边游,112.306457,38.261434
中北大学龙山公园,山西,太原,太原,0351,,中北大学,上兰街道中北大学内,景点,公园/广场,112.441051,38.014592
中国共产党太原历史展览馆,山西,太原,太原,0351,,迎泽公园,迎泽大街迎泽公园内,景点,展览馆,112.56324,37.851288
晋阳里滨湖商业街,山西,太原,太原,0351,,蒙山大佛景区,金胜镇贾家庄村,景点,观光街区,112.51564,37.750454
青年旅游,山西,太原,太原,0351,,长风商务区,旧晋祠路2段186号西80米,景点,旅行社,112.513131,37.809615
仙海岛海洋生活馆,山西,太原,太原,0351,,桃园路,水西关南街26号附近,景点,海洋馆,112.543213,37.862095
国华艺术博物馆,山西,太原,太原,0351,,长治路,山西世贸中心a座9层国华艺术博物馆,景点,博物馆,112.561174,37.820494
去哪儿旅行,山西,太原,太原,0351,131****9433,尖草坪区,兴华北街和风小区一幢一层底商,景点,旅行社,112.517912,37.892933
圣心大殿,山西,太原,阳曲县,0351,,阳曲县其他,民营阳曲二区金聚猫建材有限公司前面红沟村,景点,更多景点/周边游,112.743593,38.025753
携程旅游,山西,太原,古交市,0351,,金牛大街,金牛大街62东北100米,景点,旅行社,112.177326,37.904426
旅游百事通,山西,太原,太原,0351,7062872,亲贤街,亲贤北街28号,景点,旅行社,112.57771,37.824108
东岳殿,山西,太原,太原,0351,,富士康,庆云街19正东方向160米,景点,景点/周边游,112.611686,37.743296
慕云山,山西,太原,太原,0351,,尖草坪区,上兰村西北,景点,自然风光,112.442552,38.037982
太原得善民俗文化有限公司 晋阳卧龙山,山西,太原,太原,0351,150****8912,省三院,枣园小区北区,景点,旅行社,112.603966,37.893604
新青龙大酒店-会议室,山西,太原,太原,0351,,寇庄西路,南内环街128号,景点,景点/周边游,112.557846,37.838456
唱经楼,山西,太原,太原,0351,,鼓楼街,鼓楼街33号,景点,历史建筑,112.565208,37.871231
街心公园,山西,太原,阳曲县,0351,,德祥百货,中心镇新阳东街21号新阳广场,景点,公园/广场,112.667992,38.055683
山西省晋商文化博物馆,山西,太原,太原,0351,,蒙山大佛景区,滨河西路与环湖北路交叉口东北,景点,博物馆,112.53257,37.779259
马文蔚纪念馆,山西,太原,阳曲县,0351,,德祥百货,新阳西街28号,景点,纪念馆,112.669267,38.057527
青龙古镇-车尘马迹,山西,太原,阳曲县,0351,,阳曲县其他,青龙镇农耕文化博物馆内,景点,更多景点/周边游,112.63166,38.024892
青龙古镇-算盘,山西,太原,阳曲县,0351,,阳曲县其他,青龙镇农耕文化博物馆内,景点,更多景点/周边游,112.631836,38.024739
八角楼,山西,太原,太原,0351,,桃园路,劲松新景,景点,现代建筑,112.540541,37.854981
红马国旅,山西,太原,太原,0351,,长风西街,和平南路257-259号,景点,旅行社,112.506968,37.819708
天主堂,山西,太原,阳曲县,0351,,阳曲县其他,故西线东50米,景点,宗教,112.770142,38.050368
鼓楼广场,山西,太原,太原,0351,,柳北商业区,会锦店与帽儿巷交叉口东北50米,景点,公园/广场,112.562799,37.872639
二号山,山西,太原,太原,0351,,森林公园,大同路北36号太原市森林公园内,景点,更多景点/周边游,112.526421,37.914024
商务国旅,山西,太原,太原,0351,186****9053,杏花岭区,城坊东街8号育英中学对面,景点,旅行社,112.566104,37.882374
大象游乐,山西,太原,太原,0351,186****7705,大同路,解放北路文百城五层A2北区45号,景点,游乐场,112.560948,37.903763
商务国旅,山西,太原,太原,0351,,人民路,人民北路54号,景点,旅行社,112.568296,37.736885
国信城郊森林公园,山西,太原,太原,0351,,尖草坪区,国信城郊森林公园崛围山附近,景点,森林公园,112.432953,37.942585
海景旅行,山西,太原,太原,0351,,晋祠路,万水澜庭,景点,旅行社,112.530007,37.836407
友谊之林,山西,太原,太原,0351,,森林公园,大同路北36号太原市森林公园内,景点,更多景点/周边游,112.535881,37.913269
庆典广场,山西,太原,太原,0351,,长风商务区,中国太原煤炭交易中心,景点,公园/广场,112.534355,37.814935
无印放空之旅,山西,太原,太原,0351,,朝阳街,郝庄正街新西城富一层A座46号,景点,旅行社,112.595661,37.853561
青龙古镇-北门,山西,太原,阳曲县,0351,,阳曲县其他,侯村乡阳兴大道青龙古镇,景点,古村古镇,112.63323,38.030707
辛庄开化寺,山西,太原,阳曲县,0351,,阳曲县其他,开花古寺,景点,宗教,112.698884,38.189829
山西博物馆-会展中心,山西,太原,太原,0351,,漪汾街,滨河西路北段13号,景点,景点/周边游,112.532031,37.864921
国家非物质文化遗产砖雕传习馆,山西,太原,清徐县,0351,,徐沟商圈,永兴实验小学,景点,博物馆,112.518126,37.557498
新源地项目展示中心,山西,太原,太原,0351,,康宁街,太原经济技术开发区康宁街南100米,景点,展览馆,112.579796,37.742092
华翔国旅,山西,太原,清徐县,0351,137****6969,清徐县中心城区,四通路20号,景点,旅行社,112.351165,37.598193
湿地公园,山西,太原,阳曲县,0351,,阳曲公园,新阳西街,景点,公园/广场,112.663137,38.057857
金牛步行街-5入口,山西,太原,古交市,0351,,金牛大街,西曲街道金牛大街37号附近,景点,步行街,112.170221,37.911081
郭氏祖祠,山西,太原,阳曲县,0351,130****1239,阳曲县其他,泥屯镇白家社村,景点,人文古迹,112.54516,38.10099
太原和平公园-下沉广场,山西,太原,太原,0351,,千峰南路,千峰南路125号太原和平公园花卉休闲区,景点,公园/广场,112.513793,37.839683
晋祠胜境-神宫井亭,山西,太原,太原,0351,,晋祠公园,晋祠镇晋祠公园内,景点,更多景点/周边游,112.447442,37.706382
照壁,山西,太原,太原,0351,,晋祠公园,晋祠镇晋祠公园内,景点,人文古迹,112.448362,37.705802
五峰一海,山西,太原,太原,0351,184****5031,火车站,五一东街99号华北眼镜城6层601,景点,自然景观,112.579872,37.861671
云中湖旅游开发有限公司,山西,太原,太原,0351,,山大二院,龙潭商业中心典膳所,景点,旅行社,112.569171,37.876146
烈石寒泉,山西,太原,太原,0351,136****5544,长风西街,和平南路磷肥厂附楼从北向南第一间,景点,更多景点/周边游,112.507481,37.819341
下沉广场,山西,太原,太原,0351,,长风街,平阳街道平阳路平阳景苑八一小学橘子洲下沉广场,景点,公园/广场,112.549644,37.819601
山西商务国旅,山西,太原,太原,0351,153****4687,胜利桥东,北大街胜利桥宿舍12幢1层102号,景点,旅行社,112.546492,37.888229
太原和平公园-春园,山西,太原,太原,0351,,千峰南路,千峰南路125号太原和平公园四季花园,景点,公园/广场,112.514352,37.839202
婴幼儿水上乐园,山西,太原,太原,0351,,太榆路/太原南站,太行东街南二巷与太行东街交叉路口往南约150米,景点,水上乐园,112.615033,37.813903
金太阳植物园,山西,太原,太原,0351,,晋祠公园,新晋祠路辅路,景点,动植物园,112.502049,37.727119
红马国旅,山西,太原,太原,0351,139****1525,五一路,南肖墙15号食品宿一层,景点,旅行社,112.573044,37.870262
亮家关商业街,山西,太原,清徐县,0351,,徐沟商圈,X914,景点,观光街区,112.510417,37.572636
天主堂,山西,太原,清徐县,0351,,清徐县其他,建设路,景点,宗教,112.364891,37.544051
花卉休闲区,山西,太原,太原,0351,,千峰南路,千峰南路125号太原和平公园,景点,更多景点/周边游,112.514163,37.840419
乐道智游,山西,太原,太原,0351,7553000,体育路,体育南路锦绣苑小区11号楼底商正西方向10米,景点,旅行社,112.570969,37.797272
Q趣艺术馆,山西,太原,太原,0351,2456773,康宁街,真武路万马仕广场东侧,景点,美术馆,112.576271,37.742991
太原动物园-北门,山西,太原,太原,0351,,动物园,东山马路,景点,动植物园,112.577919,37.912918
夕云凝紫,山西,太原,太原,0351,,迎泽公园,迎泽街道迎泽大街218号迎泽公园内,景点,更多景点/周边游,112.559173,37.851203
东大街101号民居,山西,太原,太原,0351,,晋祠公园,晋源东街北50米,景点,人文古迹,112.490541,37.727451
旅游百事通,山西,太原,太原,0351,5616644,和平南路,和平西部丽景,景点,旅行社,112.507697,37.830147
多隆卉多肉植物园,山西,太原,阳曲县,0351,,阳曲县其他,黄寨镇北留村13排大棚,景点,动植物园,112.66138,38.074883
阳兴公园,山西,太原,阳曲县,0351,,阳曲公园,阳兴大道,景点,公园/广场,112.661751,38.057129
失恋博物馆,山西,太原,太原,0351,,胜利街,胜利街,景点,博物馆,112.571377,37.893167
太原西山奥申体育公园,山西,太原,太原,0351,,蒙山大佛景区,蒙山大佛景区北900米,景点,公园/广场,112.445686,37.793213
十字桥,山西,太原,太原,0351,,晋祠公园,晋祠镇晋祠公园,景点,更多景点/周边游,112.449058,37.705468
青年林-迎宾公园,山西,太原,太原,0351,,晋祠公园,迎宾路辅路,景点,公园/广场,112.466365,37.706635
马兰东方国际旅行社,山西,太原,古交市,0351,180****5389,马兰镇,兴盛路古交市第十小学校西南侧约160米,景点,旅行社,112.040108,37.850368
五爷殿,山西,太原,阳曲县,0351,,阳曲县其他,022乡道西200米,景点,景点/周边游,112.645418,38.154968
太原市森林公园-西门广场,山西,太原,太原,0351,3551684,森林公园,大同路北36号太原市森林公园内,景点,公园/广场,112.531403,37.906265
森栖谷乾和元,山西,太原,太原,0351,139****2331,迎泽区,郝庄镇247县道森栖谷,景点,展览馆,112.696759,37.865918
思普瑞德水上乐园,山西,太原,太原,0351,,长风商务区,广经路6号长风国贸第六馆1层,景点,水上乐园,112.536106,37.808546
西寨阎氏宗祠,山西,太原,太原,0351,,红灯笼体育场,西寨南街东200米,景点,人文古迹,112.531968,37.763378
平安国旅,山西,太原,太原,0351,,千峰南路,千峰南路大唐四季花园步行街107素养茶堂一层,景点,旅行社,112.520346,37.846962
汾河景区-双亭,山西,太原,太原,0351,,万柏林区,滨河西路(近滨河东路)太原汾河景区内,景点,更多景点/周边游,112.540541,37.828312
一线天景区,山西,太原,太原,0351,,万柏林区,屋科村,景点,自然风光,112.338342,37.944937
天主堂,山西,太原,清徐县,0351,,清徐县其他,王答乡红城北大街天主堂,景点,宗教,112.451173,37.588229
太妃墓,山西,太原,太原,0351,,长风西街,启春街与太原绕城高速交叉路口往东南约200米,景点,古代遗迹,112.483276,37.822815
唐园,山西,太原,太原,0351,,晋祠公园,晋祠公园内,景点,更多景点/周边游,112.448551,37.705681
山顶广场,山西,太原,太原,0351,,千峰南路,千峰南路125号太原和平公园,景点,公园/广场,112.515687,37.835705
星空迷宫艺术馆,山西,太原,太原,0351,,晋祠公园,晋源南街村,景点,美术馆,112.483496,37.728186
清徐孔雀园,山西,太原,清徐县,0351,,清徐县其他,X235,景点,更多景点/周边游,112.332257,37.56603
商业步行街,山西,太原,太原,0351,,北宫,钢中南路,景点,步行街,112.572821,37.915572
科尔鸭俱乐部旗舰店,山西,太原,太原,0351,4001186319,省体育中心,亲贤北街79号茂业天地二期5层,景点,动物园,112.568227,37.824957
山林休憩广场,山西,太原,太原,0351,,千峰南路,千峰南路125号太原和平公园,景点,公园/广场,112.514924,37.835734
卡乐艺术馆,山西,太原,太原,0351,153****0406,人民路,蓝天商贸大厦育杰教育城四层,景点,美术馆,112.56342,37.733421
去哪儿旅行,山西,太原,太原,0351,136****2489,动物园,享堂北街129号附近,景点,旅行社,112.574021,37.904441
学府公园-东入口广场,山西,太原,太原,0351,,学府街,学府街10号学府公园,景点,公园/广场,112.57494,37.808805
金牛步行街-6入口,山西,太原,古交市,0351,,金牛大街,金牛大街41号附近,景点,步行街,112.171064,37.91011
千渡长江美术馆,山西,太原,太原,0351,181****0757,杏花岭区,凯旋街89号长江美术馆,景点,美术馆,112.61473,37.886441
宝梵寺,山西,太原,清徐县,0351,,清徐县其他,宝梵北路,景点,宗教,112.272468,37.599628
朝阳洞,山西,太原,太原,0351,,晋祠公园,晋祠镇晋祠公园晋祠博物馆内,景点,更多景点/周边游,112.441491,37.709921
太原太山植物园筹建处,山西,太原,太原,0351,,晋祠公园,京昆高速公路晋祠镇花塔小学东北,景点,更多景点/周边游,112.465494,37.725584
晋源区美术馆,山西,太原,太原,0351,,晋祠公园,古城路与贞观街交叉口西100米,景点,美术馆,112.465305,37.717765
芍药牡丹园,山西,太原,太原,0351,,桃园路,迎泽大街399号,景点,动植物园,112.539695,37.859465
崔氏宅院,山西,太原,太原,0351,,晋祠公园,晋源东街南50米,景点,古村古镇,112.482384,37.728384
晋阳湖公园-沙滩浴场,山西,太原,太原,0351,,蒙山大佛景区,金胜镇西北角,景点,自然风光,112.503028,37.785068
盈科旅游,山西,太原,太原,0351,138****1025,桃园路,三桥街道桃园二巷78附近,景点,旅行社,112.542963,37.871443
古交市市民广场,山西,太原,古交市,0351,,古交市中心城区,东曲街道青年路2号,景点,广场,112.176854,37.90609
晋汾古韵,山西,太原,太原,0351,,万柏林区,滨河东路太原汾河景区内,景点,更多景点/周边游,112.534248,37.865449
友谊国旅,山西,太原,太原,0351,139****4732,平阳路,王村北街太原市第四十八中学校北侧,景点,旅行社,112.555588,37.832652
道德宫,山西,太原,太原,0351,,晋祠公园,南城角村致富路南路西2号2户东北方向120米,景点,人文古迹,112.4714,37.72103
太平洋国际旅行社,山西,太原,太原,0351,,桃园路,桃园西二巷73号,景点,旅行社,112.542445,37.871645
原道谷,山西,太原,太原,0351,,五一路,五一路231附近,景点,更多景点/周边游,112.573999,37.878455
碑林公园-义苍阁,山西,太原,太原,0351,,桃园路,康乐街50号,景点,公园/广场,112.540169,37.850149
印象晋阳宫,山西,太原,太原,0351,,晋祠公园,太原古县城凤城西街59号,景点,历史建筑,112.485613,37.727523
浮来青国旅迎新店,山西,太原,太原,0351,,迎新街,迎新街东1条1号,景点,旅行社,112.536552,37.955499
会仙桥,山西,太原,太原,0351,,晋祠公园,晋祠公园内,景点,更多景点/周边游,112.442088,37.709118
山西康培现代农业科技园,山西,太原,太原,0351,,晋祠公园,晋阳堡街与新晋祠路交叉口西南380米,景点,动植物园,112.498219,37.721565
谦诚府邸项目展示中心,山西,太原,清徐县,0351,,清徐县中心城区,东楼区一巷,景点,展览馆,112.362693,37.612259
铁路主题公园,山西,太原,太原,0351,3922018,中北大学,馨园南路与南环交叉口南侧,景点,公园/广场,112.445718,38.012594
天主堂,山西,太原,太原,0351,,尖草坪区,256县道南50米,景点,宗教,112.569015,38.004985
虹桥旅行社,山西,太原,太原,0351,,亲贤街,体育路215号怡和国际广场1227-1228室,景点,旅行社,112.56816,37.822875
美术馆,山西,太原,清徐县,0351,,清徐县中心城区,清源镇赵家街中隐澜湾南侧约270米,景点,美术馆,112.341545,37.614212
南内环基督教聚会点,山西,太原,太原,0351,181****5333;155****4222,南内环街,南内环小区2号楼南内,景点,景点/周边游,112.564127,37.837887
张氏宗祠,山西,太原,清徐县,0351,,清徐县其他,中大街51号,景点,人文古迹,112.394331,37.555321
四季风旅游,山西,太原,清徐县,0351,,清徐县中心城区,凤仪南街东一街,景点,旅行社,112.345936,37.596096
驴妈妈旅游网,山西,太原,太原,0351,,长治路,长治路78号,景点,旅行社,112.561242,37.828139
玉带园,山西,太原,太原,0351,,昌盛西街,汾东北路昌盛西街口,景点,公园/广场,112.561806,37.739033
诚禧广场,山西,太原,太原,0351,,长治路,高新街联合大厦南侧约40米,景点,公园/广场,112.559586,37.801056
玉门河公园空竹乐园,山西,太原,太原,0351,,和平路,玉门河公园内,景点,更多景点/周边游,112.50629,37.865361
神兽?羊驼主题馆,山西,太原,太原,0351,4001186319,柳巷商业区,柳巷茂业百货6层,景点,动物园,112.567045,37.866107
金广道堂,山西,太原,太原,0351,,鼓楼街,卡帝尔区16号,景点,人文古迹,112.564728,37.871778
真武庙,山西,太原,太原,0351,,晋祠公园,东关村西大街,景点,宗教,112.506771,37.740742
南湖假山瀑布,山西,太原,太原,0351,,柳巷商业区,开化寺街与海子边西街交叉口东南150米,景点,自然景观,112.569771,37.863728
山西商务国旅,山西,太原,太原,0351,,长治路,长治路西巷4号金业苑B座1层,景点,旅行社,112.561293,37.828193
万景国际旅行社,山西,太原,太原,0351,,晋祠公园,岗乱线,景点,旅行社,112.493229,37.742069
逍遥游国际旅行社太原分公司,山西,太原,太原,0351,,鼓楼街,北司街与南司街交叉口东100米,景点,旅行社,112.566037,37.871757
晋文公祠,山西,太原,太原,0351,,晋祠公园,西仁线晋祠公园内,景点,人文古迹,112.447432,37.702832
中国国旅,山西,太原,太原,0351,138****3972,府西街,府西街35号,景点,旅行社,112.55365,37.872925
嘻童游乐场,山西,太原,清徐县,0351,,徐沟商圈,徐沟镇徐沟北大街,景点,游乐场,112.509146,37.562086
树木园,山西,太原,太原,0351,,森林公园,大同路北36号太原市森林公园内,景点,更多景点/周边游,112.539711,37.906853
皇姑阁,山西,太原,太原,0351,,红灯笼体育场,金胜镇滨河西路皇姑阁,景点,人文古迹,112.540591,37.742241
凯撒旅游,山西,太原,太原,0351,,千峰南路,万象城6层家庭生活馆,景点,旅行社,112.517829,37.825796
宝严禅院,山西,太原,阳曲县,0351,,阳曲县其他,西盘威村260县道,景点,宗教,112.739683,38.048801
迎新公园,山西,太原,太原,0351,,迎新街,舒园小区东,景点,公园/广场,112.539555,37.961403
清泉湖,山西,太原,清徐县,0351,,北城,清源镇人民医院北800米（240县道东）,景点,自然景观,112.367881,37.621621
天主教太原教区修女院圣堂,山西,太原,太原,0351,,万达/龙潭商业中心,东三道巷与永宁路交叉口东150米,景点,宗教,112.564347,37.884394
首义门,山西,太原,太原,0351,,五一广场,文庙街道迎泽大街五一广场内,景点,自然景观,112.573952,37.861713
花卉水族馆,山西,太原,太原,0351,,晋祠路,长风西街街道新晋祠路雅阁瑞普四层,景点,海洋馆,112.529995,37.833645
佳境珑原油画艺术馆,山西,太原,太原,0351,5266666,太原科技大学,西中环路18号,景点,美术馆,112.489364,37.877974
城北体育公园,山西,太原,清徐县,0351,,北城,X240号,景点,公园/广场,112.363045,37.620358
晋阳古城,山西,太原,太原,0351,,晋祠公园,晋源东街,景点,古村古镇,112.487015,37.728073
东大街123号民居,山西,太原,太原,0351,,晋祠公园,晋源东街北50米,景点,人文古迹,112.487236,37.72788
去哪儿旅行,山西,太原,清徐县,0351,,徐沟商圈,西关大街与民乐街交叉路口东南侧,景点,旅行社,112.505074,37.559044
天主堂,山西,太原,太原,0351,,晋祠公园,晋祠镇京昆高速公路花塔张家宅院,景点,宗教,112.460546,37.724116
太平洋国旅,山西,太原,古交市,0351,,金牛大街,金牛大街56号附近,景点,旅行社,112.175465,37.905465
天主堂,山西,太原,太原,0351,,武宿机场,西温庄乡天主教堂后面右转365号,景点,宗教,112.626289,37.743771
冰雪奇缘嘉年华,山西,太原,太原,0351,2259933,晋祠公园,贞观街稻田公园内,景点,游乐场,112.460597,37.714837
青龙古镇-东门,山西,太原,阳曲县,0351,,阳曲县其他,阳兴大道青龙古镇,景点,古村古镇,112.632051,38.026101
难老泉亭,山西,太原,太原,0351,6020014,晋祠公园,晋祠镇晋祠公园晋祠博物馆内,景点,更多景点/周边游,112.441003,37.709233
猫咪博物馆,山西,太原,太原,0351,4001186319,柳巷商业区,柳巷茂业百货6层,景点,博物馆,112.566849,37.866011
太原动物园-南门,山西,太原,太原,0351,,动物园,背圪洞街5号院西50米,景点,动植物园,112.574133,37.907113
太原动物园-西北1门,山西,太原,太原,0351,,北宫,东山马路2太原动物园,景点,动植物园,112.57289,37.908884
醋都广场,山西,太原,清徐县,0351,,湖东商圈,美锦大街14号,景点,广场,112.355006,37.604467
古城公园,山西,太原,太原,0351,,晋祠公园,奉宣街,景点,公园/广场,112.499999,37.733497
云梦坞景区博物馆,山西,太原,清徐县,0351,,清徐县其他,六味斋工业园区西北,景点,博物馆,112.457132,37.553936
万景国旅,山西,太原,太原,0351,181****6192,小店区,富康街警苑小区1号楼,景点,旅行社,112.57224,37.745384
宜德亭,山西,太原,太原,0351,,红灯笼体育场,西寨南街,景点,更多景点/周边游,112.523727,37.763813
乌金山国家森林公园,山西,太原,太原,0351,,迎泽区,乌金山国家公园内,景点,更多景点/周边游,112.774361,37.878631
太原动物园-西北2门,山西,太原,太原,0351,,动物园,涧河街道东山马路2号太原动物园,景点,动植物园,112.573575,37.909545
家乐汤泉,山西,太原,古交市,0351,,古交市其他,榆古线与郝家庄路交叉口东50米,景点,温泉,112.168685,37.889023
玉泉谷,山西,太原,阳曲县,0351,19935566766,阳曲县其他,北白村玉泉谷,景点,自然景观,112.665459,38.192028
阳曲县历史博物馆,山西,太原,阳曲县,0351,,阳曲公园,阳曲公园内,景点,博物馆,112.659148,38.059477
河伯祠,山西,太原,清徐县,0351,,清徐县其他,同兴路,景点,人文古迹,112.522499,37.597389
余烈三晋,山西,太原,太原,0351,,漪汾街,滨河西路北段13号山西博物院内,景点,更多景点/周边游,112.53126,37.865222
乐游国旅,山西,太原,古交市,0351,,马兰镇,马兰镇安兴街,景点,旅行社,112.040173,37.850353
新村公园,山西,太原,太原,0351,,大同路,摄乐街恒大御景湾地块五19号楼西侧,景点,公园/广场,112.527727,37.925877
金岸绿色生态广场,山西,太原,太原,0351,,红灯笼体育场,健康南街,景点,公园/广场,112.539421,37.751865
晋源花卉小镇,山西,太原,太原,0351,151****9007,晋祠公园,晋源街道唐城公路中盾检测旁,景点,现代小镇,112.516518,37.737907
山西古建筑博物馆,山西,太原,太原,0351,,五一广场,起凤街1号,景点,博物馆,112.572289,37.861799
樱花双堤,山西,太原,太原,0351,,蒙山大佛景区,电西巷,景点,更多景点/周边游,112.499268,37.778095
晋阳湖公园,山西,太原,太原,0351,2598103,蒙山大佛景区,金胜镇新晋祠路与滨湖街交叉口西南角,景点,城市公园,112.51724,37.77881
鹏博瑞翔旅行社,山西,太原,太原,0351,,杏花岭区,胜利桥东路西二道巷5,景点,旅行社,112.542607,37.891837
沙沟天主堂,山西,太原,太原,0351,,和平南路,沙沟小区1号楼2单元,景点,宗教,112.509143,37.8331
山西晋韵砖雕艺术博物馆,山西,太原,清徐县,0351,,徐沟商圈,徐沟镇新庄村,景点,博物馆,112.523107,37.565198
栖凤湖湿地园,山西,太原,太原,0351,,龙潭公园,龙潭公园内,景点,公园/广场,112.555831,37.881011
山西商务国旅,山西,太原,太原,0351,133****0905,长风街,长风街华德中心广场D座一楼底商中信银行,景点,旅行社,112.548815,37.818325
太原工艺美术馆,山西,太原,太原,0351,,并州北路,并州北路19号,景点,美术馆,112.571713,37.856943
安哥拉巨兔?体验馆,山西,太原,太原,0351,139****5319,柳巷商业区,柳巷茂业百货6层,景点,展览馆,112.566698,37.866298
绿城・太原广场,山西,太原,太原,0351,8588888,长风街,长风大街体育路口西北角,景点,公园/广场,112.566179,37.816784
和谐公园,山西,太原,太原,0351,,昌盛西街,康宁街与真武路交叉口东南方向,景点,公园/广场,112.578523,37.737671
乐游旅游,山西,太原,太原,0351,130****5763,太榆路/太原南站,龙园小区23号楼,景点,旅行社,112.610751,37.814879
中国国际旅行社,山西,太原,太原,0351,,迎新街,迎新东一条9号,景点,旅行社,112.536661,37.951941
圆照寺,山西,太原,太原,0351,130****6997,通达街,正阳街与人民南路交叉口东北300米,景点,宗教,112.571579,37.725693
马峪葡乡文化展示园,山西,太原,清徐县,0351,,清徐县其他,马峪乡马峪葡乡文化展示园,景点,文化公园,112.309899,37.621736
芮城国际展示中心,山西,太原,太原,0351,,尖草坪区,和平北路429号,景点,展览馆,112.505481,37.928261
祥云公园,山西,太原,太原,0351,,红灯笼体育场,星河中路星河湾3号园对面,景点,公园/广场,112.548543,37.766951
大连鹏驰国旅,山西,太原,太原,0351,,和平路,和平北路64号,景点,旅行社,112.511185,37.869953
古县城-东街村郝氏宅院,山西,太原,太原,0351,,晋祠公园,晋源东街北150米,景点,人文古迹,112.490417,37.728538
明月公园,山西,太原,太原,0351,,客运东站,红沟中街与阳光路交叉口西北50米,景点,公园/广场,112.615189,37.870294
红马国旅,山西,太原,太原,0351,130****8883,南中环街,平阳路街道南中环街521号中环水岸商铺8幢1-2层,景点,旅行社,112.549307,37.794077
梦中上河《清明上河图3.0》数字主题馆,山西,太原,太原,0351,8782225,晋祠公园,城东南角的城墙内部空间金牛湖公园旁,景点,展览馆,112.490079,37.724734
彩虹假期旅行社,山西,太原,太原,0351,,建南汽车站,东方豪寓302室,景点,旅行社,112.582645,37.830616
卧龙山纪念园,山西,太原,太原,0351,139****5692,柳巷商业区,开化寺亍西夹道79号卧龙山纪念园,景点,更多景点/周边游,112.561249,37.869409
敬屏园,山西,太原,太原,0351,,府东街,南华门东二条6正西方向20米,景点,公园/广场,112.577888,37.872548
天主堂,山西,太原,太原,0351,,杏花岭区,东山马路东150米,景点,宗教,112.58929,37.91654
太平洋国旅,山西,太原,太原,0351,2152007,漪汾街,千峰北路324号山姆士超市往西100米龙生日化正对面,景点,旅行社,112.518461,37.874341
大雄殿,山西,太原,太原,0351,,迎泽区,郝庄镇郝庄村永祚寺内,景点,人文古迹,112.596555,37.846264
长风艺术空间,山西,太原,太原,0351,188****5954;8886616,长风商务区,太原市和平南路248号41幢1、2层1010房,景点,美术馆,112.50726,37.818479
胡家大院,山西,太原,太原,0351,,杏花岭区,小窑头村18号,景点,更多景点/周边游,112.646408,37.879818
五洲国旅,山西,太原,古交市,0351,151****5321,大川西路,东曲街道大川东路20号附近,景点,旅行社,112.170035,37.904295
铁猫公园,山西,太原,阳曲县,0351,,阳曲县其他,大盂镇大盂村正大街与东龙口路交叉口北200米,景点,公园/广场,112.723641,38.180357
青龙古镇-耕耘,山西,太原,阳曲县,0351,,阳曲县其他,青龙镇农耕文化博物馆内,景点,古村古镇,112.631643,38.024563
友谊国旅,山西,太原,太原,0351,155****9360,昌盛西街,昌盛街银河公寓65号一5010室,景点,旅行社,112.570311,37.736151
新城永安堡址,山西,太原,太原,0351,,迎新街,新城村东街76号附近,景点,人文古迹,112.547976,37.948926
碧霞元君祠,山西,太原,太原,0351,,长风商务区,南屯路与长兴北街交叉路口往北约150米,景点,景点/周边游,112.520942,37.812793
文殊寺,山西,太原,太原,0351,,北肖墙,东仓巷4号,景点,宗教,112.567724,37.880984
芒果儿艺术馆,山西,太原,清徐县,0351,,北城,平泉路168号附近,景点,美术馆,112.359109,37.625659
商务国旅,山西,太原,太原,0351,,富力城,敦化坊街道富力城辰栖谷底商,景点,旅行社,112.600626,37.902456
红马国旅,山西,太原,太原,0351,134****0280,通达街,正阳街浦东雅典小区5号楼底商,景点,旅行社,112.564845,37.724685
青龙古镇-衣被天下,山西,太原,阳曲县,0351,,阳曲县其他,青龙镇农耕文化博物馆内,景点,更多景点/周边游,112.631701,38.024681
凤岛孔雀小镇,山西,太原,古交市,0351,5360118;5320888,古交市其他,天池店乡顺道村,景点,现代小镇,112.041975,37.952635
失恋博物馆,山西,太原,太原,0351,,千峰南路,公园伍号,景点,博物馆,112.516763,37.832065
工程师楼旧址,山西,太原,太原,0351,,建设北路,教场巷22号民居,景点,人文古迹,112.577911,37.87677
好运来旅游,山西,太原,太原,0351,,杏花岭区,解放北路19号富力花园,景点,旅行社,112.559296,37.899479
赵家山民居,山西,太原,太原,0351,,尖草坪区,002乡道东200米,景点,人文古迹,112.570037,38.031259
去哪儿旅行,山西,太原,太原,0351,,万达/龙潭商业中心,前营坊街与西二道巷交叉路口往西约50米,景点,旅行社,112.558277,37.886027
携程旅游太原蓝山营业部,山西,太原,太原,0351,155****9090,和平南路,和平南路336号,景点,旅行社,112.508606,37.825885
北后街40号民居,山西,太原,太原,0351,,晋祠公园,晋源北外环街南150米,景点,景点/周边游,112.488796,37.729674
戏曲故乡,山西,太原,太原,0351,,漪汾街,滨河西路北段13号山西博物院展馆内,景点,更多景点/周边游,112.531061,37.865412
半壁长廊,山西,太原,太原,0351,,柳巷商业区,柳巷起凤街文瀛公园,景点,更多景点/周边游,112.568554,37.863814
青龙古镇-凉亭,山西,太原,阳曲县,0351,,阳曲县其他,内,景点,更多景点/周边游,112.630894,38.024754
乐道智游,山西,太原,太原,0351,7553000,南中环街,晋阳街与体育南路交叉路口往东约150米,景点,旅行社,112.571728,37.788288
陈家息庐,山西,太原,太原,0351,,晋祠公园,晋祠镇,景点,更多景点/周边游,112.445701,37.707521
怡景亭,山西,太原,太原,0351,,晋祠公园,晋祠镇晋祠公园内,景点,更多景点/周边游,112.4485,37.70596
山海集团鹏驰旅行社,山西,太原,太原,0351,,康宁街,真武路康苑雅居西区3号楼1层1001商铺,景点,旅行社,112.577167,37.743927
鲜花 万景国旅,山西,太原,太原,0351,,水西关街,迎泽区鑫芳庭院小区,景点,旅行社,112.547528,37.864918
太原解放纪念馆,山西,太原,太原,0351,4361575;4361509,杏花岭区,凯旋街99号,景点,纪念馆,112.613896,37.895351
幸福主题公园,山西,太原,古交市,0351,,新世纪精品购物中心,金牛大街106号附近,景点,公园/广场,112.17289,37.90974
峰岭亭,山西,太原,古交市,0351,,古交市中心城区,火山村附近,景点,更多景点/周边游,112.187464,37.915619
鑫泽国际旅行社,山西,太原,太原,0351,,解放路,三桥街西9号9幢5单元1层3号,景点,旅行社,112.550142,37.877712
山西博物馆展馆,山西,太原,太原,0351,,漪汾街,兴华街道滨河西路北段13号山西博物院内,景点,博物馆,112.529349,37.865326
阴氏祠堂,山西,太原,古交市,0351,,古交市其他,X227,景点,景点/周边游,112.110255,38.012165
红马国旅,山西,太原,太原,0351,138****1127,建设南路,桥东街道建设南路中正悦湾东门往南20米,景点,旅行社,112.585811,37.844131
红马国旅,山西,太原,太原,0351,,和平南路,万科蓝山三期底商东1027室,景点,旅行社,112.503202,37.826672
天主堂,山西,太原,太原,0351,,晋祠公园,周家庄昌安街昌明小区,景点,宗教,112.490287,37.702287
汇藏天下艺术馆,山西,太原,太原,0351,175****3141,亲贤街,体育西路园梅源商务702,景点,美术馆,112.564462,37.822982
北后街59号民居,山西,太原,太原,0351,,晋祠公园,晋源北外环街南150米,景点,更多景点/周边游,112.486332,37.729982
翰墨丹青,山西,太原,太原,0351,,漪汾街,滨河西路北段13号山西博物院展馆内,景点,更多景点/周边游,112.531052,37.865404
晋源区双拥主题公园,山西,太原,太原,0351,,晋祠公园,乾阳街,景点,公园/广场,112.472981,37.719075
青龙谷景区,山西,太原,阳曲县,0351,2151009,阳曲县其他,气象局西300米,景点,自然风光,112.657805,38.071955
青龙古镇-真武阁入口,山西,太原,阳曲县,0351,,阳曲县其他,阳兴大道青龙古镇,景点,古村古镇,112.629591,38.023441
山西府衙博物馆,山西,太原,太原,0351,,府东府西商业街,解放路68号,景点,博物馆,112.562558,37.874098
怡和广场,山西,太原,太原,0351,,亲贤街,亲贤北街中段215号,景点,公园/广场,112.568266,37.822931
灵芝谷,山西,太原,清徐县,0351,,清徐县中心城区,四通路24附近,景点,更多景点/周边游,112.351191,37.598241
晋祠新镇,山西,太原,太原,0351,,晋祠公园,79路;301路;302路;308路;317路;318路;319路;329路;804路;848路;856路;911路;y1路;y2路,景点,更多景点/周边游,112.448622,37.699364
云之歌艺术,山西,太原,太原,0351,159****8955;6369122,太原科技大学,漪汾华苑北区,景点,美术馆,112.517864,37.881187
四季风旅游,山西,太原,太原,0351,,晋祠路,新晋祠路一段纺织街1号味道园嘉润饭店1层,景点,旅行社,112.53067,37.84544
中国清徐葡萄文化博物馆,山西,太原,清徐县,0351,139****6572,清徐县其他,仁义村,景点,博物馆,112.332207,37.625717
宝华国旅,山西,太原,太原,0351,19135120217,朝阳街,同至人购物中心,景点,旅行社,112.595841,37.856522
太玄宫,山西,太原,太原,0351,,蒙山大佛景区,蒙山大佛景区正东方向140米,景点,宗教,112.463847,37.765675
太原和平公园-静思亭,山西,太原,太原,0351,,千峰南路,千峰南路125号太原和平公园花卉休闲区,景点,更多景点/周边游,112.51416,37.841143
Tiny World室内萌宠主题乐园,山西,太原,太原,0351,156****1021,学府街,学府街华宇百花谷5层西侧,景点,动植物园,112.548305,37.807165
清徐无梁殿,山西,太原,清徐县,0351,,清徐县中心城区,春光二路57号,景点,人文古迹,112.348542,37.605856
假山水景区,山西,太原,太原,0351,,桃园路,迎泽大街399号,景点,自然风光,112.539711,37.859703
扫黄打非主题公园,山西,太原,太原,0351,,兴华街,汇丰街道九丰路太原城市职业技术学校西门对面,景点,公园/广场,112.527365,37.889975
中国国旅,山西,太原,太原,0351,155****6667,长风商务区,义井街道长兴南街兰亭御湖城北门18-1001室,景点,旅行社,112.506832,37.805442
天主堂,山西,太原,娄烦县,0351,,娄烦县其他,潘岔线,景点,宗教,111.6761,37.937362
绿地中央广场展示中心,山西,太原,太原,0351,,晋祠路,下元街道晋祠路与滨河西路入口交叉口东南100米,景点,展览馆,112.531934,37.842514
携程旅游,山西,太原,太原,0351,,长风街,体育西路6号,景点,旅行社,112.565032,37.814762
东方国旅,山西,太原,古交市,0351,150****2826,屯兰矿区,屯乐苑,景点,旅行社,112.107521,37.899031
东方国旅,山西,太原,太原,0351,7781777,山大二院,新民中街11号,景点,旅行社,112.570061,37.878197
东大街102号民居,山西,太原,太原,0351,,晋祠公园,晋源东街北50米,景点,人文古迹,112.490469,37.727469
永兴路23号民居,山西,太原,太原,0351,,北肖墙,东二道巷与永兴路交叉口南50米,景点,更多景点/周边游,112.567165,37.885555
迎泽公园-悦园,山西,太原,太原,0351,,迎泽公园,太原五中西南,景点,公园/广场,112.563723,37.849253
春秋国旅,山西,太原,太原,0351,186****8008,新建路,桃园二巷,景点,旅行社,112.550835,37.871563
金牛步行街,山西,太原,古交市,0351,,人民广场,金牛大街与大川西路交汇处,景点,步行街,112.171919,37.908919
浮来青国际旅行社,山西,太原,清徐县,0351,187****0109,湖东商圈,湖东二街331号,景点,旅行社,112.363521,37.609501
碧桂园文旅展示中心,山西,太原,太原,0351,,万达/龙潭商业中心,西二道巷,景点,展览馆,112.557488,37.886088
友谊国旅,山西,太原,古交市,0351,139****6813,金牛大街,金牛大街56号院附近,景点,旅行社,112.175531,37.905361
旅游百事通,山西,太原,太原,0351,,府西街,桃园北路141号,景点,旅行社,112.544149,37.874197
拱极门古城墙遗址,山西,太原,太原,0351,,北大街,北大街中段路南,景点,古代遗迹,112.572434,37.888376
万景国旅,山西,太原,太原,0351,136****1076,富力城,杨家峪街道富力城C区2号楼对面（易斯丁酒店背后广场）,景点,旅行社,112.595718,37.901018
商务国旅,山西,太原,太原,0351,134****3754,动物园,五一路与涧河路交叉路口南100米路东,景点,旅行社,112.574013,37.904343
途牛旅游,山西,太原,太原,0351,,康宁街,真武西路康宁雅苑底商,景点,旅行社,112.572701,37.744351
五一广场-五一游园,山西,太原,太原,0351,,五一广场,五一广场113附近,景点,公园/广场,112.573021,37.861091
人民游园,山西,太原,太原,0351,,人民路,昌盛西街人民北路口西北角,景点,公园/广场,112.567886,37.736073
赤桥李氏民宅,山西,太原,太原,0351,,晋祠公园,晋祠镇赤桥,景点,历史建筑,112.447719,37.715209
胜博殿,山西,太原,太原,0351,,漪汾街,漪兴南路与后北屯街交叉路口南侧,景点,人文古迹,112.527289,37.868249
携程旅游,山西,太原,太原,0351,139****6580,迎泽西大街,小井峪街道迎泽西大街386号,景点,旅行社,112.475664,37.856294
汾河景区-百草园,山西,太原,太原,0351,,红灯笼体育场,祥云桥,景点,更多景点/周边游,112.537533,37.773003
金牛步行街-8入口,山西,太原,古交市,0351,,新世纪精品购物中心,仁义路与金牛大街交叉口东南100米,景点,步行街,112.169499,37.911963
保利海德公园-北门,山西,太原,太原,0351,,千峰南路,千峰南路辅路,景点,公园/广场,112.519765,37.834445
森园街游园,山西,太原,太原,0351,,森林公园,森园街与翠馨路交叉路口东北侧,景点,公园/广场,112.537926,37.913795
红马国旅,山西,太原,太原,0351,2177769,山西大学,许东路,景点,旅行社,112.603161,37.804896
旅游百事通,山西,太原,太原,0351,134****5826,北大街,旱西关街22号附近,景点,旅行社,112.551218,37.888338
金牛步行街-1入口,山西,太原,古交市,0351,,金牛大街,大川西路16附近,景点,步行街,112.172164,37.909038
亿农汇果蔬植物园,山西,太原,清徐县,0351,138****1005,清徐县其他,238县道附近,景点,动植物园,112.459014,37.52406
花塔赵家宅院,山西,太原,太原,0351,,晋祠公园,京昆高速公路,景点,人文古迹,112.459797,37.723411
金桥公园东入口,山西,太原,太原,0351,,柴村,金桥西街与和平北路交叉口西南角金桥公园,景点,公园/广场,112.503429,37.936969
稻田公园,山西,太原,太原,0351,2259933,晋祠公园,晋祠镇花塔村,景点,公园/广场,112.461853,37.718152
玉泉山金蓝飞行基地,山西,太原,太原,0351,7285388,万柏林区,玉泉山森林公园北门附近,景点,更多景点/周边游,112.457384,37.902
淖马天主堂,山西,太原,太原,0351,4623183,杏花岭区,杨家峪街道淖马村阁外街80号,景点,宗教,112.630389,37.866833
携程旅游,山西,太原,太原,0351,182****0800,山西大学,北营街道太榆路88号万科城29-1002商铺,景点,旅行社,112.600347,37.798357
欢乐公园,山西,太原,清徐县,0351,,徐沟商圈,914县道附近,景点,公园/广场,112.506714,37.572917
冷水温泉,山西,太原,清徐县,0351,,清徐县其他,紫林路,景点,温泉,112.334381,37.624784
普光寺,山西,太原,太原,0351,,西缉虎营,西辑虎营后小河小学旁边,景点,宗教,112.559728,37.878743
真水无香,山西,太原,阳曲县,0351,,阳曲县其他,青龙镇农耕文化博物馆内,景点,更多景点/周边游,112.631494,38.024774
前双龙巷47（北）民居,山西,太原,太原,0351,,府东街,双龙巷与教场巷交叉口东50米,景点,更多景点/周边游,112.578212,37.873583
八仙殿,山西,太原,太原,0351,,学府街,许坦西街51号葡萄园小区旁,景点,更多景点/周边游,112.573662,37.801162
途牛旅游,山西,太原,太原,0351,,富力城,富力广场5层,景点,旅行社,112.595709,37.899149
清控会议中心,山西,太原,太原,0351,7070008;186****4854,南中环街,清控创新基地A座3F,景点,景点/周边游,112.547556,37.794876
畅行旅游,山西,太原,太原,0351,,长风街,太榆路55号附近,景点,旅行社,112.588954,37.814204
北大街22号民居,山西,太原,太原,0351,,晋祠公园,晋源北外环街南150米,景点,更多景点/周边游,112.486091,37.730211
学府公园-名人碑刻廊,山西,太原,太原,0351,,小店区,学府街10号学府公园,景点,更多景点/周边游,112.574431,37.810841
海航乐游,山西,太原,清徐县,0351,,徐沟商圈,徐沟西大街33号附近,景点,旅行社,112.511131,37.558721
太原和平公园-叠水瀑布,山西,太原,太原,0351,,千峰南路,千峰南路125号太原和平公园节日广场,景点,自然景观,112.514395,37.837721
钟楼街,山西,太原,太原,0351,,钟楼街,柳巷街道钟楼街与柴市巷交叉口东10米,景点,步行街,112.564285,37.867901
春秋国旅-北门,山西,太原,阳曲县,0351,,阳曲火车站,东北街与新阳东街交叉口东南50米,景点,旅行社,112.676756,38.0582
金牛步行街-4入口,山西,太原,古交市,0351,,金牛大街,西曲街道金牛大街,景点,步行街,112.170161,37.910431
你的太原我的家摄影书画展,山西,太原,太原,0351,,钟楼街,钟楼街中国邮政储蓄银行旁,景点,美术馆,112.563065,37.868046
昌盛公园,山西,太原,太原,0351,,通达街,大运公路正阳街口,景点,公园/广场,112.582275,37.725109
太北影视基地,山西,太原,清徐县,0351,,清徐县中心城区,六合路东100米,景点,影视基地,112.334641,37.608511
携程旅游,山西,太原,太原,0351,,太原科技大学,和平北路嘉怡国际丽都城56幢1007号,景点,旅行社,112.509781,37.879181
乐游旅游,山西,太原,太原,0351,155****0008,迎泽公园,新建南路科普大厦西北侧约100米,景点,旅行社,112.551771,37.846142
去哪儿旅行,山西,太原,太原,0351,152****5327;150****6927,真武路,太原经济技术开发区真武路与康宁街交叉口往南300米,景点,旅行社,112.576294,37.738701
太平洋国旅,山西,太原,太原,0351,150****5481,并州路,体育北街8-2号,景点,旅行社,112.576621,37.836875
艺树界美术体验馆,山西,太原,太原,0351,135****1712,千峰北路,千峰北路智诚天和园一号楼一层底商,景点,美术馆,112.516769,37.868942
金牛湖公园,山西,太原,太原,0351,,晋祠公园,明太原县城内东南角,景点,公园/广场,112.490146,37.724731
