名称,省份,真实城市,市县区,区号,电话,区域,地址,大分类,小分类,经度,纬度
宁波服装博物馆,浙江,宁波,宁波,0574,87321028;87196099,鄞州区,蓝海巷80号,景点,博物馆,121.580403,29.810051
陈寿昌烈士纪念馆,浙江,宁波,镇海区,0574,86264834,城关,聪园路595号,景点,纪念馆,121.704094,29.957947
宁波茶文化博物院,浙江,宁波,宁波,0574,87329525,月湖盛园,花果园巷1号月园,景点,博物馆,121.543205,29.866137
慈溪市博物馆,浙江,宁波,慈溪,0574,63106729,文化商务区,白沙路街道科技路909号,景点,博物馆,121.278923,30.20056
天一阁博物院,浙江,宁波,宁波,0574,87293856,月湖盛园,天一街10号,景点,博物馆,121.539688,29.871073
象山县革命烈士纪念馆,浙江,宁波,象山,0574,65715532,象山县政府,后堂街,景点,纪念馆,121.869362,29.477922
镇海口海防历史纪念馆,浙江,宁波,镇海区,0574,86254768;86255760,城关,招宝山街道沿江东路198号（近镇海甬江入海口）,景点,纪念馆,121.725494,29.958054
河姆渡遗址博物馆,浙江,宁波,余姚,0574,62963732,余姚市其他,河姆渡镇卢山寺村,景点,博物馆,121.349434,29.962133
余姚博物馆,浙江,宁波,余姚,0574,62627070,余姚博物馆,舜水南路1号,景点,博物馆,121.150688,30.047779
海曙革命烈士纪念馆,浙江,宁波,宁波,0574,88476427,海曙区,章水樟村,景点,纪念馆,121.299965,29.816505
北仑博物馆,浙江,宁波,宁波,0574,,明州路沿线,新\街道中河路37号,景点,博物馆,121.840561,29.91098
龙山公园,浙江,宁波,余姚,0574,,龙山公园,阳明街道南滨江路与大黄桥路交叉口西北150米,景点,公园/广场,121.153214,30.047346
大步公园,浙江,宁波,宁波,0574,,彩虹广场,大步街48号,景点,公园/广场,121.564896,29.863895
樱花公园,浙江,宁波,宁波,0574,,彩虹广场,东胜街道中山东路792号,景点,公园/广场,121.580086,29.865149
宁波野生动物园,浙江,宁波,宁波,0574,88378378,东钱湖,东钱湖旅游度假区,景点,动物园,121.673615,29.803736
梁祝文化园,浙江,宁波,宁波,0574,88447238,梁祝文化小镇,高桥镇梁祝村梁祝路1号,景点,文化公园,121.485298,29.90789
海曙公园,浙江,宁波,宁波,0574,,鼓楼,西门街道高塘路1-2号,景点,公园/广场,121.542778,29.88295
慈溪人民公园,浙江,宁波,慈溪,0574,,新城大道,慈溪市政府南150米,景点,城市公园,121.265999,30.168203
寿昌公园,浙江,宁波,镇海区,0574,,城关,聪园路与吉庆路交口,景点,公园/广场,121.7043,29.957909
杉杉公园,浙江,宁波,宁波,0574,,江夏桥东,江东北路与荷池路交叉口西50米,景点,公园/广场,121.56234,29.872978
江厦公园,浙江,宁波,宁波,0574,,天一广场,东渡路与江夏街交口旁,景点,公园/广场,121.559486,29.868416
明楼公园,浙江,宁波,宁波,0574,87782523,体育中心,中兴街与民安路交叉口东150米,景点,公园/广场,121.585373,29.87674
小山公园,浙江,宁波,宁波,0574,,明州路沿线,明州路与辽河路交口,景点,公园/广场,121.855576,29.906626
镇海人民公园,浙江,宁波,镇海区,0574,88855592,城关,南大街与鼓楼西路交口文化广场,景点,城市公园,121.717972,29.951551
白沙公园,浙江,宁波,宁波,0574,,老外滩,人民路,景点,公园/广场,121.566262,29.887359
江北公园,浙江,宁波,宁波,0574,,来福士广场,桃渡路239号,景点,公园/广场,121.557678,29.880037
马园法治文化公园,浙江,宁波,宁波,0574,,月湖盛园,吴家塘48号201室,景点,文化公园,121.532822,29.869072
新芝公园,浙江,宁波,宁波,0574,,鼓楼,新芝路95弄5弄5号,景点,公园/广场,121.5392,29.886618
黄鹂公园,浙江,宁波,宁波,0574,,兴宁路,黄鹂新村路黄鹂新村,景点,公园/广场,121.569626,29.851915
白鹤公园,浙江,宁波,宁波,0574,,兴宁路,兴宁路,景点,公园/广场,121.56739,29.852921
姚江公园,浙江,宁波,宁波,0574,87396414,江北区,文教街道环城北路西段540号,景点,公园/广场,121.542534,29.90069
月湖公园,浙江,宁波,宁波,0574,87582626,月湖盛园,偃月街共青路,景点,城市公园,121.543594,29.86718
天童国家森林公园,浙江,宁波,宁波,0574,88480015,鄞州区,东吴镇太白山麓,景点,森林公园,121.794745,29.799284
海曙江滨公园,浙江,宁波,宁波,0574,,鼓楼,鼓楼街道孝闻街与永丰路交叉口北50米,景点,公园/广场,121.548691,29.883362
四明山国家森林公园,浙江,宁波,余姚,0574,62340889,四明山景区,四明山镇甘竹岭,景点,森林公园,121.095657,29.749125
蒙顶山,浙江,宁波,象山,0574,,象山县其他,西周镇,景点,自然风光,121.701897,29.436382
悬山,浙江,宁波,奉化,0574,,奉化区其他,桐照村东南侧,景点,自然风光,121.570726,29.527606
许家山,浙江,宁波,宁海,0574,65123956,宁海县其他,茶院乡,景点,古村古镇,121.536156,29.317158
象山白岩山,浙江,宁波,象山,0574,,象山影视城,新桥镇,景点,自然风光,121.896538,29.309372
福泉山风景区,浙江,宁波,宁波,0574,88374366;88374365,东钱湖,东钱湖韩天线,景点,自然风光,121.701233,29.741879
大岐山,浙江,宁波,慈溪,0574,,观海卫,慈溪观海卫镇,景点,自然风光,121.465805,30.161999
龙山,浙江,宁波,慈溪,0574,,掌起,龙山镇凤鸣路,景点,自然风光,121.556992,30.074261
东茅山,浙江,宁波,余姚,0574,,余姚市其他,三七市镇,景点,自然风光,121.330209,30.065109
胜归山,浙江,宁波,余姚,0574,62630707,余姚市其他,城北乡报房村和余姚镇胜归山村间,景点,自然风光,121.149994,30.063709
教场山公园,浙江,宁波,慈溪,0574,,慈溪市其他,教场山支路教场山公园,景点,公园/广场,121.240921,30.180157
七塔禅寺,浙江,宁波,宁波,0574,87756555,彩虹广场,百丈路183号,景点,宗教,121.56778,29.865385
慧寂禅寺,浙江,宁波,宁波,0574,86051655,柴桥街道,柴桥街道柴桥后所村,景点,宗教,121.942711,29.879017
五磊山风景区,浙江,宁波,慈溪,0574,63670616;63671996,慈溪市其他,观海卫镇,景点,自然风光,121.396416,30.081512
观海卫海日庵,浙江,宁波,慈溪,0574,63604660,观海卫,观海卫镇草庵村,景点,宗教,121.410393,30.17704
金仙禅寺,浙江,宁波,慈溪,0574,63672140,慈溪市其他,观海卫镇金仙寺路8号,景点,宗教,121.377571,30.136482
胜山禅寺,浙江,宁波,慈溪,0574,,胜山镇,胜山镇老街西路,景点,宗教,121.313202,30.232517
璎珞禅寺,浙江,宁波,宁波,0574,86137985,北仑区,璎珞村199号,景点,宗教,121.750283,29.851949
灵峰禅寺,浙江,宁波,宁波,0574,86135515,北仑区,大\街道大\邬隘灵峰,景点,宗教,121.74054,29.879328
灵石寺,浙江,宁波,宁波,0574,86769337,大榭,北渡路3号,景点,宗教,121.941696,29.905428
霞屿寺,浙江,宁波,宁波,0574,88490621,东钱湖,东钱湖镇,景点,宗教,121.667953,29.763905
大兰寺花圃,浙江,宁波,宁波,0574,,东钱湖,东钱湖镇韩岭,景点,宗教,121.666416,29.737716
岳林禅寺,浙江,宁波,奉化,0574,88911637,奉化区其他,长汀村岳林禅寺,景点,宗教,121.423187,29.685995
徐凫岩瀑布,浙江,宁波,奉化,0574,88851801,溪口,溪口镇雪窦山景区内,景点,自然风光,121.175591,29.703348
雪窦山大佛景区,浙江,宁波,奉化,0574,88889101;88880992,溪口,溪口镇213省道雪妙段,景点,宗教,121.222092,29.684528
雪窦山,浙江,宁波,奉化,0574,88855555;4001817718,溪口,雪窦山游人中心,景点,自然风光,121.258369,29.685974
梅山尊顶寺,浙江,宁波,奉化,0574,88639923,奉化区其他,方门村街西228号正北方向40米,景点,宗教,121.428387,29.575157
南山禅寺,浙江,宁波,奉化,0574,88932990,奉化区其他,龙潭村,景点,宗教,121.419815,29.635597
马头隆庆寺,浙江,宁波,奉化,0574,,奉化区其他,裘松路7号,景点,宗教,121.653503,29.583355
裘村解空寺,浙江,宁波,奉化,0574,88778950,奉化区其他,裘村镇裘三村,景点,宗教,121.635811,29.60972
尚田观音寺,浙江,宁波,奉化,0574,88630429,奉化区其他,尚三村,景点,宗教,121.409172,29.623186
金峨禅寺,浙江,宁波,宁波,0574,88460659,鄞州区,横溪镇金峨禅寺（宁裘线西）,景点,宗教,121.578705,29.641844
宁波市保国寺古建筑博物馆,浙江,宁波,宁波,0574,55121558,九龙湖风景区,洪塘街道安东路49号,景点,博物馆,121.523209,29.978832
茅山西林禅寺,浙江,宁波,宁波,0574,88076962,鄞州区,姜山镇文山路206号,景点,宗教,121.501223,29.749696
观宗讲寺,浙江,宁波,宁波,0574,87304289,月湖盛园,解放南路18弄6号,景点,宗教,121.55069,29.861233
五台寺,浙江,宁波,宁波,0574,88047533,海曙区,鄞江镇012县道东50米,景点,宗教,121.326614,29.780231
新乐庵,浙江,宁波,宁海,0574,65192834,宁海县其他,桥头胡街道,景点,宗教,121.538202,29.371642
庆源寺,浙江,宁波,宁海,0574,65189602,宁海县其他,西山线,景点,宗教,121.387635,29.491008
福泉禅寺,浙江,宁波,宁海,0574,65380985,宁海县其他,其他地区竹林岭根,景点,宗教,121.410515,29.253119
四明湖,浙江,宁波,余姚,0574,,梁弄镇,四明山北部余姚梁弄镇,景点,自然风光,121.050453,29.947926
天童禅寺,浙江,宁波,宁波,0574,88480525,鄞州区,东吴镇太白山,景点,宗教,121.794759,29.804497
慈溪市宝林寺,浙江,宁波,慈溪,0574,63289954,慈溪市其他,古塘街道天童庄村宝林禅寺,景点,宗教,121.254536,30.211045
阿育王寺,浙江,宁波,宁波,0574,88488998;88383421,鄞州区,五乡镇明伦村五乡东路1999号,景点,宗教,121.742645,29.846239
横山渡口,浙江,宁波,宁波,0574,88403514,鄞州区,咸祥镇,景点,自然风光,121.790413,29.657087
宝梵讲寺,浙江,宁波,象山,0574,65714033,象山县其他,东澄河路82号,景点,宗教,121.868524,29.48049
伏跗室,浙江,宁波,宁波,0574,,鼓楼,孝闻街91号,景点,更多景点/周边游,121.544159,29.877665
东明禅寺,浙江,宁波,余姚,0574,,梁弄镇,梁弄镇西郊东明山,景点,宗教,121.073616,29.919611
龙泉寺,浙江,宁波,奉化,0574,62636199,奉化区其他,龙山弄9号,景点,宗教,121.362753,29.688832
寺前王水库,浙江,宁波,余姚,0574,62989039,余姚市其他,丈亭镇丈亭寺前王,景点,宗教,121.291367,30.046554
法云禅寺,浙江,宁波,宁波,0574,88347168,东钱湖,云龙镇前徐村遮家桥,景点,宗教,121.615422,29.778972
招宝山景区,浙江,宁波,镇海区,0574,86256931,城关,镇海城招宝山路10号,景点,自然风光,121.725281,29.959785
宝庆禅寺,浙江,宁波,宁波,0574,87582645,江北万达广场,庄桥街道宝庆寺47,景点,宗教,121.533272,29.913128
灵山禅寺,浙江,宁波,宁波,0574,87580348,九龙湖风景区,庄桥街道庙下陈22号,景点,宗教,121.530815,29.984791
中国渔村,浙江,宁波,象山,0574,65959999,石浦镇,石浦镇皇城沙滩,景点,特色乡村,121.959641,29.237135
天下玉苑,浙江,宁波,余姚,0574,62915588,余姚市其他,大隐镇山王北路85号,景点,文化公园,121.366959,29.93915
飞扬旅游广场,浙江,宁波,宁波,0574,27666666;27666666,东部新城,宁波五一广场东,景点,旅行社,121.625817,29.854567
梁皇山,浙江,宁波,宁海,0574,65389933,梁皇山风景区,梁皇山探险乐园,景点,自然风光,121.314262,29.26053
中国旅行社,浙江,宁波,宁波,0574,87327713,天一广场,大沙泥街61号2楼,景点,旅行社,121.553851,29.864331
溪口风景区,浙江,宁波,奉化,0574,88855555;4001817718,溪口,溪口镇溪口风景区,景点,自然风光,121.258369,29.685974
蒋氏故居,浙江,宁波,奉化,0574,88855555;4001817718,溪口,溪口镇武岭西路蒋氏故居,景点,名人故居,121.284927,29.681749
国际会展中心,浙江,宁波,宁波,0574,87052056,国际会展中心,会展路181号,景点,展览馆,121.618484,29.873634
宁波神凤海洋世界,浙江,宁波,宁波,0574,56155555,儿童公园,桑田路936号,景点,海洋馆,121.582985,29.852968
中山广场,浙江,宁波,宁波,0574,87362696,鼓楼,鼓楼街道公园路与鼓楼步行街交叉口东北100米,景点,广场,121.549171,29.878033
九龙湖风景区,浙江,宁波,镇海区,0574,86533965,九龙湖风景区,九龙湖镇环湖路168号,景点,自然风光,121.539772,30.045153
天封塔,浙江,宁波,宁波,0574,87302635,天一广场,大沙泥街258号,景点,历史建筑,121.550903,29.865328
峙山公园,浙江,宁波,慈溪,0574,,慈溪市其他,浒山镇峙山南路,景点,公园/广场,121.234901,30.156015
岳鄂王庙,浙江,宁波,宁波,0574,,东钱湖,东钱湖镇湖滨西路,景点,宗教,121.636139,29.7824
宁波市佛教居士林,浙江,宁波,宁波,0574,87308155,月湖盛园,柳汀街98号,景点,宗教,121.543419,29.867512
丹山赤水风景名胜区,浙江,宁波,余姚,0574,87786171,余姚市其他,蜻白线大岚镇柿林村,景点,自然风光,121.16024,29.795332
白水冲瀑布,浙江,宁波,余姚,0574,,梁弄镇,梁弄镇南4公里,景点,自然风光,121.091484,29.871832
鸣鹤古镇,浙江,宁波,慈溪,0574,63671996;63671989,慈溪市其他,三兴桥东路,景点,古村古镇,121.379089,30.136129
观海卫城,浙江,宁波,慈溪,0574,,观海卫,观海卫镇南市路1号,景点,人文古迹,121.404877,30.169197
慈城清风园,浙江,宁波,宁波,0574,87572398,慈城,慈城古县衙内,景点,人文古迹,121.450233,29.988001
海曙鼓楼,浙江,宁波,宁波,0574,,鼓楼,公园路2号,景点,历史建筑,121.546471,29.873701
慈城古县城景区,浙江,宁波,宁波,0574,87572788,慈城,慈骆公路慈城古县城游客服务中心,景点,古村古镇,121.45063,29.984182
五龙潭,浙江,宁波,宁波,0574,88049666;87893576,海曙区,龙观乡,景点,自然风光,121.257835,29.794874
它山堰,浙江,宁波,宁波,0574,88431213,海曙区,鄞江镇,景点,人文古迹,121.351791,29.767149
慈湖,浙江,宁波,宁波,0574,,慈城,慈城镇民权路北慈湖,景点,自然风光,121.452469,29.991131
妙音庵,浙江,宁波,宁波,0574,,慈城,慈城古镇,景点,宗教,121.440315,29.990656
青云天瀑景区,浙江,宁波,宁波,0574,,海曙区,龙观乡,景点,自然风光,121.276779,29.78826
伍山海滨石窟,浙江,宁波,宁海,0574,65317566;65317568,宁海县其他,长街镇,景点,古代遗迹,121.756348,29.209213
海口海防遗址,浙江,宁波,镇海区,0574,,城关,招宝山街道招宝山路10号招宝山景区内,景点,古代遗迹,121.726196,29.958937
象山影视城,浙江,宁波,象山,0574,155****3907;4007113355,象山影视城,新桥镇象山影视城景区,景点,影视基地,121.838837,29.288185
民国大杂院,浙江,宁波,奉化,0574,88852566;135****6939,溪口,奉化溪口蒋氏故居对面民国大杂院,景点,历史建筑,121.282455,29.679918
江北天主堂,浙江,宁波,宁波,0574,,老外滩,外滩街道中马路2号,景点,宗教,121.560402,29.874323
张苍水纪念馆,浙江,宁波,宁波,0574,87270335,鼓楼,苍水街194号,景点,纪念馆,121.548943,29.877731
老外滩,浙江,宁波,宁波,0574,87661143,老外滩,中马路157号-159号,景点,步行街,121.56051,29.87583
南宋石刻公园,浙江,宁波,宁波,0574,88401022,东钱湖,东岸上水下庄黄梅山麓,景点,文化公园,121.686836,29.745834
东钱湖小普陀,浙江,宁波,宁波,0574,88490861,东钱湖,陶公路东钱湖旅游度假区,景点,自然风光,121.658157,29.768925
宁波府城隍庙,浙江,宁波,宁波,0574,,城隍庙,县学街22号,景点,宗教,121.553406,29.86808
潘天寿广场,浙江,宁波,宁海,0574,,宁海大厦,中山中路与天广路交口西北110米,景点,广场,121.432388,29.299494
鄞州公园,浙江,宁波,宁波,0574,,鄞州万达广场,首南街道首南中路,景点,公园/广场,121.54657,29.811636
宁波帮博物馆,浙江,宁波,镇海区,0574,56800600;56800611,庄市街道,庄市街道思源路255号（近宁波大学）,景点,博物馆,121.627403,29.918365
慈城孔庙,浙江,宁波,宁波,0574,87572398;87573396,慈城,竺巷东路55号,景点,宗教,121.451485,29.983671
慈城校士馆,浙江,宁波,宁波,0574,87572398;87572508,慈城,慈城镇太湖路66号,景点,历史建筑,121.455086,29.989223
中山东路圣教堂,浙江,宁波,宁波,0574,,彩虹广场,中山东路577号,景点,宗教,121.573334,29.867758
永丰库遗址公园,浙江,宁波,宁波,0574,,天一广场,中山西路,景点,公园/广场,121.547134,29.873873
曹王庙,浙江,宁波,奉化,0574,,奉化区其他,曹黄线与下湖线交叉路口往东北约260米,景点,宗教,121.599378,29.598898
圆圆旅行社,浙江,宁波,宁波,0574,86865527,北仑银泰城,新\街道太河路778号体艺中心,景点,旅行社,121.831352,29.89872
柔石故居,浙江,宁波,宁海,0574,65518585,老城关,城关镇柔石路1号,景点,纪念馆,121.423363,29.287842
天宫庄园,浙江,宁波,宁波,0574,88492315;88343645,鄞州高教园区,下应街道湾底村,景点,动植物园,121.577324,29.802811
三江口公园,浙江,宁波,宁波,0574,,江北区,三江口,景点,公园/广场,121.542717,29.907183
石浦渔港古城景区,浙江,宁波,象山,0574,65971999,石浦镇,石浦镇江心街4号,景点,自然风光,121.946541,29.208876
象山关帝庙,浙江,宁波,象山,0574,,象山县其他,象西线与关庙路交叉路口往南约100米,景点,宗教,121.626573,29.472643
亚洲飞人,浙江,宁波,象山,0574,,石浦镇,石浦渔港古城人民路亚洲飞人,景点,展览馆,121.943871,29.210892
宋岙村,浙江,宁波,余姚,0574,,余姚市其他,陆埠镇洪山行政村宋岙自然村180号,景点,古村古镇,121.240189,29.914726
凤凰谷休闲度假村,浙江,宁波,宁波,0574,88281388,海曙区,横街镇鄞县大道横街段1699号,景点,更多景点/周边游,121.385535,29.85691
浙东抗日根据地,浙江,宁波,余姚,0574,62370909,梁弄镇,梁弄镇,景点,革命根据地,121.081449,29.882779
百丈公园,浙江,宁波,宁波,0574,,百丈东路沿线,东柳街道百丈东路920号（近兴业银行）,景点,公园/广场,121.582787,29.85989
长丰公园,浙江,宁波,宁波,0574,,兴宁路,江东南路日月星城西北侧约30米,景点,公园/广场,121.552147,29.855625
鲤龙潭森林公园,浙江,宁波,象山,0574,,象山县其他,西周镇镇安路104号（近华翔国际酒店）,景点,森林公园,121.691597,29.446716
宁波鄞州居家博物园,浙江,宁波,宁波,0574,138****2259,海曙区,明乐村马车桥,景点,展览馆,121.395828,29.941389
十里红妆博物馆,浙江,宁波,宁海,0574,65566519,老城关,徐霞客大道1号,景点,博物馆,121.429245,29.279802
潘天寿故居,浙江,宁波,宁海,0574,65571244,宁海县其他,桃源街道冠庄建设村,景点,名人故居,121.431389,29.34016
宁波杭州湾国家湿地公园,浙江,宁波,慈溪,0574,63078282;63078300,慈溪市其他,滨海二路,景点,自然风光,121.159454,30.314396
剑桥公园,浙江,宁波,宁波,0574,,鄞州高教园区,四明东路,景点,公园/广场,121.563133,29.824888
梁辉水库,浙江,宁波,余姚,0574,,余姚市其他,梨洲街道（近杭甬高速余姚出口）,景点,现代建筑,121.161255,29.97439
南塘老街,浙江,宁波,宁波,0574,87306555,南塘老街,船埠巷与鄞奉路交叉口北150米路西,景点,步行街,121.540466,29.85486
柔石公园,浙江,宁波,宁海,0574,,华庭家园,桃源街道金水路旁,景点,公园/广场,121.441811,29.316298
院士雕塑园,浙江,宁波,宁波,0574,88126501;88126519,鄞州高教园区,钱湖南路928号,景点,自然风光,121.568245,29.814228
达篷山雅阁尔,浙江,宁波,慈溪,0574,,掌起,龙山镇三北工业区,景点,自然风光,121.510155,30.060352
南洪桥湿地,浙江,宁波,余姚,0574,,余姚市其他,陆埠镇杨家岭,景点,自然风光,121.246495,29.93354
陆埠水库,浙江,宁波,余姚,0574,,余姚市其他,陆埠镇双溪口,景点,现代建筑,121.240936,29.948772
青龙山,浙江,宁波,宁波,0574,,北仑区,青龙山村,景点,自然风光,122.018117,29.844217
梅岛,浙江,宁波,余姚,0574,,余姚市其他,陆埠镇,景点,自然风光,121.244711,29.950421
美乐熊文化乐园,浙江,宁波,余姚,0574,135****9681,文山路,文山路661号嘉悦购物广场C区3楼（近城东路）,景点,主题公园,121.183121,30.059196
耕民公园,浙江,宁波,慈溪,0574,,周巷,周巷镇人民政府东,景点,公园/广场,121.137924,30.186102
天宁寺,浙江,宁波,宁波,0574,,月湖盛园,中山西路206号,景点,宗教,121.543282,29.874146
永传禅寺,浙江,宁波,宁波,0574,,掌起,金沙村金烈路,景点,宗教,121.472498,30.039998
古林绿苑,浙江,宁波,宁波,0574,,海曙区,古林中心路110号,景点,公园/广场,121.437647,29.836207
欢乐鱼乐园,浙江,宁波,奉化,0574,189****3306;134****0028,奉化区其他,锦屏街道南泉路90号,景点,游乐场,121.399323,29.63822
浦东公园,浙江,宁波,余姚,0574,,余姚市其他,三七市镇政府西侧,景点,公园/广场,121.341789,30.026325
天下第一桃园,浙江,宁波,奉化,0574,88834833,奉化区其他,萧王庙林家村,景点,更多景点/周边游,121.342232,29.677153
爱婴房,浙江,宁波,宁波,0574,87509310,青林湾,青林湾街72-74号,景点,更多景点/周边游,121.52523,29.90027
浙仑海外旅行社,浙江,宁波,宁波,0574,81911111,国际会展中心,东部新城和济街68号城投大厦11楼,景点,旅行社,121.611214,29.868341
宁波浙东大竹海景区,浙江,宁波,宁波,0574,88114804;4008976677,海曙区,横街镇大雷村,景点,自然风光,121.312546,29.859264
包玉刚故居,浙江,宁波,镇海区,0574,,庄市街道,庄市街道钟包村,景点,名人故居,121.629555,29.934563
邵逸夫故居,浙江,宁波,镇海区,0574,,庄市街道,永旺路清河小区西侧约30米,景点,名人故居,121.649254,29.921391
茅镬村,浙江,宁波,宁波,0574,,海曙区,章水镇周公宅水库上游,景点,古村古镇,121.191345,29.790543
猴岛,浙江,宁波,镇海区,0574,86533965,九龙湖风景区,九龙湖镇九龙湖风景区中心岛,景点,自然风光,121.533028,30.038464
胜山基督教堂,浙江,宁波,慈溪,0574,,胜山镇,富民路180号,景点,宗教,121.316192,30.233502
大青虫有机蔬果园,浙江,宁波,余姚,0574,135****3923;135****5585,余姚市其他,河姆渡镇河姆渡村冯家,景点,更多景点/周边游,121.333062,29.944063
蓝莓庄园,浙江,宁波,奉化,0574,65235236,奉化区其他,赤岙村,景点,更多景点/周边游,121.301912,29.489212
九峰山网岙景区,浙江,宁波,宁波,0574,86786235;86143095,九峰山风景区,大契街道城联村九峰山,景点,自然风光,121.840996,29.852386
德和根艺美术馆,浙江,宁波,象山,0574,65724776,东湖苑,东谷湖景区湖滨路1号,景点,美术馆,121.882797,29.484453
渔光曲号环港游,浙江,宁波,象山,0574,65976597,石浦镇,渔港古城对面游船码头,景点,城市观光,121.94779,29.20845
脉动山庄,浙江,宁波,宁波,0574,,海曙区,五龙潭风景区,景点,更多景点/周边游,121.323402,29.774652
小溪岙峡谷漂流,浙江,宁波,奉化,0574,,奉化区其他,溪口镇小溪岙村,景点,漂流,121.263898,29.646888
永淦古玩旅游区,浙江,宁波,慈溪,0574,,慈溪市其他,天元镇天潭路88号,景点,展览馆,121.174937,30.188577
横溪金峨谷,浙江,宁波,宁波,0574,88481000,鄞州区,横溪镇芦花桥村竹马岭水库下,景点,自然风光,121.576141,29.667181
日日红樱桃园,浙江,宁波,余姚,0574,,梁弄镇,梁弄镇东溪村官园,景点,植物园,121.058997,29.864153
东钱湖水上乐园,浙江,宁波,宁波,0574,89206666,东钱湖,东钱湖镇环湖南路333号,景点,水上乐园,121.639259,29.743536
梅大樱桃观光园,浙江,宁波,宁海,0574,,宁海县其他,梅林凫溪村,景点,植物园,121.435897,29.403367
丽盛玫瑰庄园,浙江,宁波,宁波,0574,86821111,牡丹庄园,沿山公路68号,景点,植物园,121.761314,29.907337
前堰头杨梅基地,浙江,宁波,宁波,0574,135****8050,东钱湖,雅戈尔动物园北门附近,景点,更多景点/周边游,121.67465,29.809629
萧王庙花木园,浙江,宁波,奉化,0574,,奉化区其他,309省道附近,景点,更多景点/周边游,121.357544,29.712912
岳林东路基督教堂,浙江,宁波,奉化,0574,,奉化区其他,岳林东路177号,景点,宗教,121.423752,29.661942
何家古树群,浙江,宁波,奉化,0574,,奉化区其他,新何段北100米,景点,自然风光,121.344188,29.666588
东升公园,浙江,宁波,奉化,0574,,奉化区其他,岳林东路218-1号,景点,公园/广场,121.428555,29.658786
应氏宗祠,浙江,宁波,奉化,0574,,奉化区其他,弥勒大道,景点,宗教,121.379359,29.664149
宁波港通国际旅行社,浙江,宁波,奉化,0574,88526868,奉化区其他,中塔路219号J号,景点,旅行社,121.399232,29.667922
奉化善济寺,浙江,宁波,奉化,0574,,奉化区其他,305乡道,景点,宗教,121.479416,29.563177
永福太寺,浙江,宁波,奉化,0574,,奉化区其他,银河路南50米,景点,宗教,121.607368,29.598351
永福寺,浙江,宁波,奉化,0574,,奉化区其他,305县道,景点,宗教,121.248856,29.487503
宝中旅游,浙江,宁波,奉化,0574,88875799,溪口,中兴中路718号,景点,旅行社,121.288044,29.692194
新湖勇富庙,浙江,宁波,奉化,0574,,奉化区其他,柏三段北50米,景点,宗教,121.26976,29.51232
登溪庙,浙江,宁波,奉化,0574,,奉化区其他,312乡道,景点,宗教,121.289551,29.56101
明应庙,浙江,宁波,奉化,0574,,奉化区其他,330乡道,景点,宗教,121.381966,29.597025
栖贞禅寺,浙江,宁波,奉化,0574,130****1900,奉化区其他,栖贞禅寺,景点,宗教,121.526244,29.545778
亚德容公园,浙江,宁波,奉化,0574,,奉化区其他,新建东路,景点,公园/广场,121.461247,29.707857
天湖寺,浙江,宁波,奉化,0574,,奉化区其他,316乡道,景点,宗教,121.261391,29.514687
安岩禅寺,浙江,宁波,奉化,0574,,奉化区其他,葛安段附近,景点,宗教,121.365349,29.544439
锦屏耶稣堂,浙江,宁波,奉化,0574,88981414,奉化区其他,广平路1号,景点,宗教,121.411537,29.650471
龙王庙,浙江,宁波,奉化,0574,,奉化区其他,升左段东50米,景点,宗教,121.147888,29.62361
岳林公园,浙江,宁波,奉化,0574,88938599,奉化区其他,大田路23幢,景点,公园/广场,121.424454,29.660542
鲍氏宗祠,浙江,宁波,奉化,0574,,奉化区其他,302乡道,景点,宗教,121.227882,29.425486
培本堂,浙江,宁波,奉化,0574,,奉化区其他,萧奉路42号,景点,人文古迹,121.357937,29.709517
慈园,浙江,宁波,奉化,0574,,溪口,牌门南路113号,景点,公园/广场,121.281631,29.683989
亭下湖,浙江,宁波,奉化,0574,88811158,奉化区其他,溪口镇亭下湖风景区,景点,自然风光,121.198982,29.647823
净慈古寺,浙江,宁波,奉化,0574,88807128,奉化区其他,S309,景点,宗教,121.197456,29.604637
白云寺,浙江,宁波,奉化,0574,,奉化区其他,尚岭线,景点,宗教,121.371485,29.487375
何家村庙,浙江,宁波,奉化,0574,,奉化区其他,新何段西50米,景点,宗教,121.342931,29.665874
城西漂流,浙江,宁波,奉化,0574,,奉化区其他,五岙路北50米,景点,漂流,121.383823,29.645007
奉化中山公园,浙江,宁波,奉化,0574,,奉化区其他,锦屏街道公园路附近,景点,公园/广场,121.405067,29.658766
枫水庙,浙江,宁波,奉化,0574,,奉化区其他,西苑路281号,景点,宗教,121.384131,29.674791
奉化行慈庙,浙江,宁波,奉化,0574,,奉化区其他,鄞里线北50米,景点,宗教,121.249527,29.726246
汉城庙,浙江,宁波,奉化,0574,,奉化区其他,清墙弄路2号,景点,宗教,121.433754,29.665938
徐凫岩步云谷旅游度假区,浙江,宁波,奉化,0574,88851801;189****2639,溪口,溪口镇徐凫岩,景点,自然风光,121.17746,29.704783
虞忠肃公庙,浙江,宁波,奉化,0574,,奉化区其他,214省道西50米,景点,宗教,121.416369,29.741529
忠孝傅家,浙江,宁波,奉化,0574,,溪口,武岭西路37号附近,景点,更多景点/周边游,121.283348,29.682175
溪口镇文化站,浙江,宁波,奉化,0574,,溪口,奉通北路27-1号附近,景点,展览馆,121.274427,29.684087
力邦文化广场,浙江,宁波,奉化,0574,,奉化区其他,西坞南路91号,景点,广场,121.483705,29.675914
慈航禅寺,浙江,宁波,奉化,0574,,奉化区其他,马家庄4号,景点,宗教,121.536914,29.686537
大堰镇万竹灵隐禅寺,浙江,宁波,奉化,0574,,奉化区其他,万一村万兴路1号,景点,宗教,121.308586,29.534885
石井龙潭景区,浙江,宁波,奉化,0574,,奉化区其他,畈里段东100米,景点,自然风光,121.259285,29.484955
天缘禅寺,浙江,宁波,奉化,0574,,奉化区其他,恒丰路25号,景点,宗教,121.449725,29.756495
去同山寺,浙江,宁波,奉化,0574,,奉化区其他,弥勒大道北50米,景点,宗教,121.374008,29.675737
胡二房祠,浙江,宁波,奉化,0574,,奉化区其他,西岙村村民委员会附近,景点,宗教,121.373772,29.514193
尚书第,浙江,宁波,奉化,0574,,奉化区其他,大溪路大堰镇人民政府西北侧约80米,景点,人文古迹,121.306686,29.505596
山城美术馆,浙江,宁波,奉化,0574,,奉化区其他,公园路与广平路交叉口西50米,景点,美术馆,121.412468,29.655588
九溪庙,浙江,宁波,奉化,0574,,奉化区其他,309省道西50米,景点,宗教,121.200012,29.603191
王佑军庙,浙江,宁波,奉化,0574,,奉化区其他,309省道西50米,景点,宗教,121.152207,29.562155
白杜娘娘庵,浙江,宁波,奉化,0574,,奉化区其他,白杜小学附近,景点,宗教,121.549967,29.678387
棠溪庙,浙江,宁波,奉化,0574,,奉化区其他,石溪线,景点,宗教,121.32017,29.653128
禅悦禅寺,浙江,宁波,奉化,0574,88831646,奉化区其他,萧奉路,景点,宗教,121.381514,29.707919
陈君庙,浙江,宁波,奉化,0574,,奉化区其他,310县道东50米,景点,宗教,121.547959,29.669899
隆庆禅寺,浙江,宁波,奉化,0574,,奉化区其他,下横线,景点,宗教,121.653511,29.583342
周济潭景区,浙江,宁波,奉化,0574,,奉化区其他,364乡道,景点,自然风光,121.290207,29.609486
桃花源旅行社,浙江,宁波,奉化,0574,88903536,奉化区其他,岳林街道金钟路190号,景点,旅行社,121.429603,29.658273
振兴路基督教堂,浙江,宁波,奉化,0574,,奉化区其他,振兴路北50米,景点,宗教,121.68808,29.601116
洪福禅寺,浙江,宁波,奉化,0574,,奉化区其他,麻厂路楼夹岙村,景点,宗教,121.430805,29.64483
长陇庙,浙江,宁波,奉化,0574,,奉化区其他,叉箭段附近,景点,宗教,121.276505,29.537497
硕弹保庙,浙江,宁波,奉化,0574,,奉化区其他,蒋赵段东50米,景点,宗教,121.296623,29.480991
茭池庙,浙江,宁波,奉化,0574,,奉化区其他,升左段与驻升段交叉口北50米,景点,宗教,121.166588,29.626427
南岙寺院,浙江,宁波,奉化,0574,,奉化区其他,南舍段附近,景点,宗教,121.479546,29.562965
春晖公园,浙江,宁波,奉化,0574,,奉化区其他,春晖路43号,景点,公园/广场,121.405961,29.664714
栖霞村庙,浙江,宁波,奉化,0574,,溪口,321乡道,景点,宗教,121.15786,29.68782
南山庙,浙江,宁波,奉化,0574,,奉化区其他,336乡道,景点,宗教,121.317284,29.574192
青莲禅寺,浙江,宁波,奉化,0574,,奉化区其他,306县道附近,景点,宗教,121.386635,29.53952
九龙潭景区,浙江,宁波,奉化,0574,,奉化区其他,九驻段东50米,景点,自然风光,121.309113,29.588121
奉化福音堂,浙江,宁波,奉化,0574,,奉化区其他,苕方段西50米,景点,宗教,121.339767,29.592339
大慈禅寺,浙江,宁波,奉化,0574,,奉化区其他,溪口镇奉通北路,景点,宗教,121.271439,29.695345
药师禅寺,浙江,宁波,奉化,0574,,奉化区其他,X301与石溪线交叉口东北方向90米,景点,宗教,121.346896,29.690835
天天商旅,浙江,宁波,奉化,0574,,奉化区其他,江宁路89号,景点,旅行社,121.40904,29.724319
九狮禅寺,浙江,宁波,奉化,0574,,奉化区其他,尚许段附近,景点,宗教,121.37606,29.588852
清风禅寺,浙江,宁波,奉化,0574,,奉化区其他,溪南线,景点,宗教,121.22949,29.588951
康亭庙,浙江,宁波,奉化,0574,,奉化区其他,麻厂路,景点,宗教,121.441703,29.632613
东方国际旅行社,浙江,宁波,奉化,0574,88503700,奉化区其他,桥东岸路371号,景点,旅行社,121.417321,29.661261
天湖景区,浙江,宁波,奉化,0574,,奉化区其他,G1512甬金高速,景点,自然风光,121.349618,29.726348
以马内利堂,浙江,宁波,奉化,0574,,奉化区其他,304乡道,景点,宗教,121.525427,29.686517
中塔禅寺,浙江,宁波,奉化,0574,,奉化区其他,锦屏街道中塔路7号,景点,宗教,121.406241,29.660865
莲峰禅寺,浙江,宁波,奉化,0574,,奉化区其他,立子山,景点,宗教,121.51886,29.667704
俞庙,浙江,宁波,奉化,0574,,奉化区其他,329乡道,景点,宗教,121.340103,29.593004
麻厂路基督教堂,浙江,宁波,奉化,0574,,奉化区其他,奉化三高速连接线,景点,宗教,121.44582,29.626829
腰带庙,浙江,宁波,奉化,0574,,奉化区其他,304县道,景点,宗教,121.30088,29.492348
奉化胡氏宗祠,浙江,宁波,奉化,0574,,奉化区其他,滨湾路,景点,宗教,121.489525,29.544838
朝山庙,浙江,宁波,奉化,0574,,奉化区其他,三溪路与五岙路交叉口东100米,景点,宗教,121.381393,29.643646
真神堂,浙江,宁波,奉化,0574,,奉化区其他,老祠堂路,景点,宗教,121.493471,29.681101
卓兰芳烈士纪念馆,浙江,宁波,奉化,0574,,奉化区其他,东溪路海沿村,景点,纪念馆,121.694946,29.604755
溪口杜鹃谷森林公园,浙江,宁波,奉化,0574,88855555,溪口,溪口镇白岩坑溪口风景区内,景点,更多景点/周边游,121.253395,29.6847
梅溪庙,浙江,宁波,奉化,0574,,奉化区其他,柳林段北50米,景点,宗教,121.344859,29.672809
巴人故居,浙江,宁波,奉化,0574,,奉化区其他,大溪路大堰镇人民政府西北侧约80米,景点,纪念馆,121.306593,29.505613
曹王禅寺,浙江,宁波,奉化,0574,,奉化区其他,334乡道,景点,宗教,121.60006,29.590681
奉化市烈士陵园,浙江,宁波,奉化,0574,,奉化区其他,惠政西路60号,景点,烈士陵园,121.408167,29.659955
远景国际旅行社有限公司,浙江,宁波,奉化,0574,88503177;88503178,奉化区其他,西苑路96号,景点,旅行社,121.399472,29.667598
陈楼庙,浙江,宁波,奉化,0574,,奉化区其他,桐裘段,景点,宗教,121.562187,29.550768
德星庙,浙江,宁波,奉化,0574,,奉化区其他,南舍段附近,景点,宗教,121.497169,29.577417
戴家宗祠,浙江,宁波,奉化,0574,,奉化区其他,棠许段附近,景点,宗教,121.291687,29.614527
五岭庙,浙江,宁波,奉化,0574,,奉化区其他,白裘线,景点,宗教,121.624023,29.583183
东方盆景艺术园,浙江,宁波,奉化,0574,,奉化区其他,五岙路与奉南路交叉口北50米,景点,植物园,121.389122,29.647154
盘龙公庙,浙江,宁波,奉化,0574,,奉化区其他,西坞北路居敬村附近,景点,宗教,121.491856,29.684806
万寿禅寺,浙江,宁波,奉化,0574,88870839,奉化区其他,宁西线西坞农贸市场东北侧约140米,景点,宗教,121.497464,29.682704
嘉和观光园,浙江,宁波,慈溪,0574,,掌起,掌起大街西50米,景点,更多景点/周边游,121.481773,30.135293
茅洋庙,浙江,宁波,奉化,0574,,奉化区其他,兴镇路与溪岩段交叉口东50米,景点,宗教,121.244278,29.636818
烈士纪念馆,浙江,宁波,慈溪,0574,63802071,慈溪市其他,英雄路199号,景点,纪念馆,121.232837,30.158517
万寿寺,浙江,宁波,慈溪,0574,,周巷,湖塘横路,景点,宗教,121.136826,30.194986
洞山古寺,浙江,宁波,慈溪,0574,,掌起,任洞段东50米,景点,宗教,121.465576,30.064379
奉化普济禅寺,浙江,宁波,奉化,0574,88637564,奉化区其他,村南面12号,景点,宗教,121.407303,29.625969
孙塘公园,浙江,宁波,慈溪,0574,,孙塘路沿线,孙塘北路600号,景点,公园/广场,121.255577,30.176249
崇寿基督教堂,浙江,宁波,慈溪,0574,,杭州湾新区,永清北路,景点,宗教,121.272835,30.281273
峙山文化广场,浙江,宁波,慈溪,0574,188****4551,慈溪市其他,寺山路301号,景点,广场,121.238465,30.157336
徐福公园,浙江,宁波,慈溪,0574,,掌起,徐福路10号,景点,公园/广场,121.516693,30.084997
东方美术馆,浙江,宁波,慈溪,0574,,孙塘街道,孙塘南路南段382-384号,景点,美术馆,121.256668,30.152889
天主教教区浒山天主堂,浙江,宁波,慈溪,0574,,慈溪市其他,教场山东路168号,景点,宗教,121.241491,30.179001
杜湖,浙江,宁波,慈溪,0574,,慈溪市其他,222县道,景点,自然风光,121.402687,30.107386
沿河路基督教堂,浙江,宁波,慈溪,0574,,白沙街道,沿河路5号,景点,宗教,121.275047,30.165985
鸣鹤公园,浙江,宁波,慈溪,0574,,慈溪市其他,罗鸣南路17号,景点,公园/广场,121.383324,30.127031
掌起公园,浙江,宁波,慈溪,0574,,掌起,环城南路与镇中路交叉路口,景点,公园/广场,121.450737,30.11134
任佳溪村文化宫,浙江,宁波,慈溪,0574,,掌起,古樟路与横筋中路交叉路口往东约70米,景点,展览馆,121.451035,30.073835
樟新路天主堂,浙江,宁波,慈溪,0574,,慈溪市其他,樟新路418号,景点,宗教,121.366936,30.244306
虞士南故居,浙江,宁波,慈溪,0574,,慈溪市其他,杜岙村解家,景点,名人故居,121.368195,30.082434
慈溪福寿禅寺,浙江,宁波,慈溪,0574,,附海镇,防汛路与郑家浦路交叉路口往西约80米,景点,宗教,121.410042,30.228333
应莫陈基督教堂,浙江,宁波,慈溪,0574,,新城大道,新城大道北路585号,景点,宗教,121.267212,30.179337
茜苑公园,浙江,宁波,慈溪,0574,,青少年宫路,青少年宫路309-311号,景点,公园/广场,121.249458,30.178064
吴锦堂先生墓,浙江,宁波,慈溪,0574,,慈溪市其他,湖口路与禹皇路交叉路口往北约50米,景点,古代遗迹,121.375966,30.137911
旦山公园,浙江,宁波,慈溪,0574,,孙塘路沿线,古塘街道担山北路,景点,公园/广场,121.26104,30.182747
浒山街道综合文化站,浙江,宁波,慈溪,0574,,浒山街道,上房路97号,景点,展览馆,121.235748,30.170132
中共浙东区党委成立旧址,浙江,宁波,慈溪,0574,,慈溪市其他,观海卫镇昌明村,景点,古代遗迹,121.402626,30.114476
平王憩园,浙江,宁波,慈溪,0574,,周巷,镇东路,景点,公园/广场,121.13858,30.168573
湖滨路基督教堂,浙江,宁波,慈溪,0574,,掌起,湖滨路174号,景点,宗教,121.479402,30.096979
直塘村文化宫,浙江,宁波,慈溪,0574,,坎墩街道,兴镇街1398号,景点,展览馆,121.242729,30.223429
基督教恩泽堂,浙江,宁波,慈溪,0574,,掌起,环城南路掌起镇第二学校西南侧约220米,景点,宗教,121.457037,30.108273
珙魏史祥寺,浙江,宁波,慈溪,0574,,慈溪市其他,石公馆路洪魏农贸市场东侧约100米,景点,宗教,121.426914,30.091184
芳龙公园,浙江,宁波,慈溪,0574,,掌起,凤湖路,景点,公园/广场,121.543091,30.071461
崇寿镇文化社区教育中心,浙江,宁波,慈溪,0574,,慈溪市其他,崇寿中心小学斜对面,景点,展览馆,121.271797,30.276067
慈溪会展中心,浙江,宁波,慈溪,0574,,慈溪市其他,北三环东路588号,景点,展览馆,121.258586,30.197998
孙家境祠堂,浙江,宁波,慈溪,0574,,慈溪市其他,彭南路与113县道交叉口东南150米,景点,宗教,121.248375,30.118988
天天旅行社,浙江,宁波,慈溪,0574,63119711,慈溪市其他,前应路1318号金汇大厦1楼,景点,旅行社,121.256304,30.152804
沈师桥公园,浙江,宁波,慈溪,0574,,慈溪市其他,西南路,景点,公园/广场,121.419449,30.143887
徐福村文化宫,浙江,宁波,慈溪,0574,,掌起,徐福路40号,景点,展览馆,121.516006,30.085814
匡堰天主教堂,浙江,宁波,慈溪,0574,,慈溪市其他,5大弄1号,景点,宗教,121.306564,30.131655
新浦公园,浙江,宁波,慈溪,0574,,胜山镇,新胜路122号,景点,公园/广场,121.36702,30.247145
昌明公园,浙江,宁波,慈溪,0574,,慈溪市其他,师宓南路与昌明大路交叉口北150米,景点,公园/广场,121.408737,30.114286
大通东路周巷基督教堂,浙江,宁波,慈溪,0574,,周巷,大通东路139号,景点,宗教,121.134651,30.171818
伏龙禅寺,浙江,宁波,慈溪,0574,,慈溪市其他,龙山镇军公路9号,景点,宗教,121.562515,30.098945
马宗汉故居,浙江,宁波,慈溪,0574,,宗汉街道,朝盛114,景点,名人故居,121.227875,30.188841
周巷公园,浙江,宁波,慈溪,0574,,周巷,兴业北路152号,景点,公园/广场,121.132706,30.174683
新世纪广场国策主题公园,浙江,宁波,慈溪,0574,,新城大道,新城大道500号,景点,广场,121.268097,30.178465
三北游击司令部成立处,浙江,宁波,慈溪,0574,,慈溪市其他,严家路与鸣兴西路交叉口东南150米,景点,人文古迹,121.376691,30.136351
文化休闲广场,浙江,宁波,慈溪,0574,,匡堰,匡兴路89号正南方向120米,景点,广场,121.304626,30.155594
杭州湾旅游公司,浙江,宁波,慈溪,0574,63899600,慈溪市其他,浒山路15号,景点,旅行社,121.241327,30.178117
下梅林庙,浙江,宁波,慈溪,0574,,掌起,门前河路与雁门路交叉口北50米,景点,宗教,121.574753,30.061935
湖滨公园,浙江,宁波,慈溪,0574,,掌起,湖滨路201号,景点,公园/广场,121.476888,30.096369
相公大殿庙,浙江,宁波,慈溪,0574,,慈溪市其他,相公禅寺,景点,宗教,121.297386,30.268658
四季山庄景点,浙江,宁波,余姚,0574,,余姚市其他,S319,景点,自然风光,121.008759,30.088745
云溪禅寺,浙江,宁波,余姚,0574,,余姚市其他,063乡道,景点,宗教,121.357384,29.904264
徐福东渡遗址,浙江,宁波,慈溪,0574,88221170,掌起,龙山镇达蓬公路,景点,古代遗迹,121.510109,30.060278
小安公园,浙江,宁波,慈溪,0574,,慈溪市其他,周丁路杭州湾小学东北侧约70米,景点,公园/广场,121.131887,30.246778
基督教师桥堂,浙江,宁波,慈溪,0574,,观海卫,观海卫镇镇西南路,景点,宗教,121.412254,30.15349
仙圣庙,浙江,宁波,余姚,0574,,余姚市其他,白云桥西北100米,景点,宗教,121.230821,29.861231
春天广场,浙江,宁波,余姚,0574,,余姚市其他,南雷南路558号,景点,广场,121.161261,30.014798
沈乐山烈士纪念馆,浙江,宁波,余姚,0574,,余姚市其他,朗海村朗夹路203号乐山公园附近,景点,纪念馆,121.069724,30.216044
西郑巷文化公园,浙江,宁波,余姚,0574,,余姚市其他,郑巷振兴路148-152号附近,景点,文化公园,121.155293,30.116689
金马公园,浙江,宁波,余姚,0574,,余姚市其他,马云路3号,景点,公园/广场,121.059274,30.067344
寰球国际旅行社,浙江,宁波,余姚,0574,62788222;62788666,余姚市其他,长安路205号,景点,旅行社,121.135721,30.042151
新岚公园,浙江,宁波,余姚,0574,,余姚市其他,李俞线甘竹小学东南侧,景点,公园/广场,121.162827,29.825651
上马公园,浙江,宁波,余姚,0574,,余姚市其他,246乡道北50米,景点,公园/广场,121.155937,29.834143
西禅隐寺,浙江,宁波,余姚,0574,,余姚市其他,山王北路3号,景点,宗教,121.371347,29.934527
友好旅行社,浙江,宁波,余姚,0574,,余姚市其他,政通路与朝阳路交叉口东北50米,景点,旅行社,121.283,30.031121
田螺山遗址现场馆,浙江,宁波,余姚,0574,62945248,余姚市其他,三七市镇相岙村,景点,古代遗迹,121.384225,30.021913
山前公园,浙江,宁波,余姚,0574,,余姚市其他,水厂路与渚山路交叉口,景点,公园/广场,121.051392,30.07366
河姆渡教堂,浙江,宁波,余姚,0574,,余姚市其他,江经段西50米,景点,宗教,121.322487,29.985067
太平禅寺,浙江,宁波,余姚,0574,,余姚市其他,246乡道附近,景点,宗教,121.159508,29.828381
左溪禅寺,浙江,宁波,余姚,0574,,余姚市其他,龙冠段与213省道交叉口东北100米,景点,宗教,121.142174,29.948511
滨江公园,浙江,宁波,余姚,0574,,余姚市其他,姚北大道,景点,公园/广场,120.989578,30.156158
望湖公园,浙江,宁波,余姚,0574,,余姚市其他,兵马司路,景点,公园/广场,121.193268,30.057828
娘娘庙,浙江,宁波,余姚,0574,,余姚市其他,姚北大道,景点,宗教,121.006012,30.160866
朱舜水纪念堂,浙江,宁波,余姚,0574,62646442,滨江路,南滨江路178号,景点,历史建筑,121.15403,30.046618
明东路天主堂,浙江,宁波,余姚,0574,,阳明东路,阳明东路71号,景点,宗教,121.159859,30.049248
穴湖休闲山庄,浙江,宁波,余姚,0574,,余姚市其他,月梅路,景点,更多景点/周边游,121.208751,30.057427
渚山公园,浙江,宁波,余姚,0574,,余姚市其他,渚山公园,景点,公园/广场,121.050557,30.074657
济慈庵,浙江,宁波,余姚,0574,,余姚市其他,镇海北路西440米),景点,人文古迹,121.04985,30.218761
汝湖公园,浙江,宁波,余姚,0574,,泗门,泗门镇光明南路与汝湖路交叉口,景点,公园/广场,121.041763,30.151707
三女庙,浙江,宁波,余姚,0574,,余姚市其他,陆埠镇环镇东路24号附近,景点,宗教,121.243191,29.985411
黄山儿童公园,浙江,宁波,余姚,0574,,余姚万达广场,兰江街道谭家岭西路与开丰路交汇处,景点,公园/广场,121.138046,30.022493
太平庵,浙江,宁波,余姚,0574,,余姚市其他,246乡道,景点,宗教,121.159393,29.828472
乐安湖生态园,浙江,宁波,余姚,0574,133****5921,余姚市其他,乐安湖8号,景点,动植物园,121.045299,30.047939
基督教天华堂,浙江,宁波,余姚,0574,,余姚市其他,207县道,景点,宗教,121.085195,30.143194
化安宝寺,浙江,宁波,余姚,0574,,余姚市其他,陆埠镇南雷村温泉路138号西南方向60米,景点,宗教,121.216303,29.983475
黄宗羲纪念馆,浙江,宁波,余姚,0574,,四明山景区,211县道东150米,景点,纪念馆,121.111885,29.728565
白鹿村文体活动中心,浙江,宁波,余姚,0574,,余姚市其他,白鹿村委南侧,景点,展览馆,121.170721,29.838927
候青公园,浙江,宁波,余姚,0574,,余姚市其他,南河沿路舜北公园南侧约230米,景点,公园/广场,121.154955,30.054676
历山公园,浙江,宁波,余姚,0574,,余姚市其他,高家桥104号对面983室,景点,公园/广场,121.194007,30.162653
回龙庵,浙江,宁波,余姚,0574,,余姚市其他,G92杭州湾环线高速,景点,宗教,121.040105,30.041565
东蒲禅寺,浙江,宁波,余姚,0574,,余姚市其他,东蒲村东蒲东沙中路,景点,宗教,121.059402,30.130022
灵岩禅寺,浙江,宁波,余姚,0574,,余姚市其他,阳明街道胜归山,景点,宗教,121.151362,30.063447
桂花庙,浙江,宁波,余姚,0574,,余姚市其他,杏山村七星桥,景点,宗教,120.981523,30.105347
基督教余姚城堂,浙江,宁波,余姚,0574,62632759,胜山路美食街,舜水北路24-15号,景点,宗教,121.149788,30.056007
四明山地质公园,浙江,宁波,余姚,0574,62346111;62346222,余姚市其他,四明山镇大山村,景点,自然风光,121.041779,29.760265
塘后公园,浙江,宁波,余姚,0574,,泗门,大通路与河塍北路交叉路口往西约110米,景点,公园/广场,121.050209,30.166319
邮电公园,浙江,宁波,余姚,0574,,余姚市其他,包家路48-2-4-6号,景点,公园/广场,121.16055,30.056808
历山基督教堂,浙江,宁波,慈溪,0574,,慈溪市其他,低塘街道,景点,宗教,121.192229,30.194504
紫龙庙,浙江,宁波,余姚,0574,,余姚市其他,226乡道,景点,宗教,121.170319,29.951235
战斗纪念馆,浙江,宁波,余姚,0574,,梁弄镇,永石段与229县道交叉口西北100米,景点,纪念馆,121.088684,29.942795
云山寺,浙江,宁波,余姚,0574,,余姚市其他,马俞段东50米,景点,宗教,121.150352,29.816961
胜归山烈士陵园,浙江,宁波,余姚,0574,,余姚市其他,舜水北路,景点,烈士陵园,121.148083,30.063697
光大国际旅行社,浙江,宁波,余姚,0574,58222111;58222122,余姚市其他,新西门路18-3号,景点,旅行社,121.150757,30.041677
乐山公园,浙江,宁波,余姚,0574,,余姚市其他,小曹娥镇朗海村朗夹路203号,景点,公园/广场,121.070068,30.216015
曹娥庙,浙江,宁波,余姚,0574,,余姚市其他,振兴西路与西干南路交叉口东北150米,景点,宗教,121.084518,30.219141
梁弄古镇,浙江,宁波,余姚,0574,62368528;87291299,梁弄镇,012县道,景点,古村古镇,121.085793,29.919516
浙东革命根据地纪念馆,浙江,宁波,余姚,0574,62370909;62368058,梁弄镇,梁弄镇横坎头村浙东区委旧址旁边,景点,纪念馆,121.08139,29.8839
通天禅寺,浙江,宁波,余姚,0574,,余姚市其他,丈亭镇平东段附近,景点,宗教,121.272817,30.066786
余姚基督教堂,浙江,宁波,余姚,0574,,余姚市其他,车夏线车厩幼儿园东北侧约120米,景点,宗教,121.30825,29.96745
舜江楼,浙江,宁波,余姚,0574,,滨江路,北滨江路49号,景点,历史建筑,121.157402,30.047052
兰墅园,浙江,宁波,余姚,0574,,滨江路,世南西路与西石山南路交叉路口,景点,公园/广场,121.14299,30.039619
王阳明故居,浙江,宁波,余姚,0574,62602316;62623205,阳明西路沿线,阳明西路36号,景点,纪念馆,121.152634,30.050659
新四军浙东游击纵队司令部旧址,浙江,宁波,余姚,0574,22662466,梁弄镇,梁弄镇晓岭街103号,景点,古代遗迹,121.084137,29.90811
基督教横塘堂,浙江,宁波,余姚,0574,62030640,余姚市其他,高夹线,景点,宗教,120.953239,30.155018
余姚福寿禅寺,浙江,宁波,余姚,0574,,余姚市其他,干溪村桑园61号,景点,宗教,121.228024,29.974786
社坛庙,浙江,宁波,余姚,0574,,余姚市其他,南三线附近,景点,宗教,121.125977,29.972754
侯王禅寺,浙江,宁波,余姚,0574,,余姚市其他,姚北大道,景点,宗教,120.97403,30.138338
基督教梁弄堂,浙江,宁波,余姚,0574,,梁弄镇,梁弄镇镇北路27号,景点,宗教,121.08049,29.918329
陆埠镇基督教堂,浙江,宁波,余姚,0574,,余姚市其他,上街环镇南路32号,景点,宗教,121.239743,29.982003
济公禅寺,浙江,宁波,余姚,0574,,余姚市其他,梨洲街道新墅村岙25号,景点,宗教,121.189644,29.989016
大岚旅游服务中心,浙江,宁波,余姚,0574,,余姚市其他,大岚镇车站小店建材杂用店,景点,旅行社,121.127961,29.824141
朗霞基督教真神堂,浙江,宁波,余姚,0574,,余姚市其他,朝阳路,景点,宗教,121.087425,30.164236
佛教居士林,浙江,宁波,余姚,0574,,远东工业区,谭家岭西路谭家岭村谭家岭卫生室西南侧约270米,景点,宗教,121.141808,30.022629
李氏宗祠,浙江,宁波,宁波,0574,,月湖盛园,带河巷19号,景点,宗教,121.547913,29.864639
袁牧之故居,浙江,宁波,宁波,0574,,南塘老街,杨家桥巷2号,景点,名人故居,121.542015,29.856129
灵桥路音乐文化广场,浙江,宁波,宁波,0574,,天一广场,灵桥路与莲桥街交叉口东150米,景点,广场,121.554985,29.861359
省中旅宁波分公司,浙江,宁波,宁波,0574,136****8050,天一广场,华楼巷19号天一豪景A区418,景点,旅行社,121.5534,29.87121
南塘公园,浙江,宁波,宁波,0574,,海曙区,段塘街道粮丰街268号,景点,公园/广场,121.52661,29.845955
运通全球旅游,浙江,宁波,宁波,0574,,西门口,气象路19号,景点,旅行社,121.52435,29.859941
镇明岭庙,浙江,宁波,宁波,0574,,月湖盛园,镇明路406号,景点,宗教,121.545227,29.866611
高丽使馆遗址,浙江,宁波,宁波,0574,,月湖盛园,章耆巷与镇明路交叉口西北100米,景点,古代遗迹,121.54541,29.871138
海曙关帝庙,浙江,宁波,宁波,0574,87308155,月湖盛园,柳汀街98号,景点,宗教,121.543816,29.867558
宁波市人民大会堂,浙江,宁波,宁波,0574,87344141,鼓楼,公园路186号,景点,景点/周边游,121.548149,29.876316
徐时栋故居,浙江,宁波,宁波,0574,87171109,月湖盛园,共青路79号,景点,名人故居,121.542198,29.866316
横河街虞宅,浙江,宁波,宁波,0574,,鼓楼,横河街72号,景点,历史建筑,121.548034,29.881984
冯孟颛纪念馆,浙江,宁波,宁波,0574,,鼓楼,孝闻街91号,景点,纪念馆,121.544174,29.877663
同茂记,浙江,宁波,宁波,0574,,南塘老街,南郊路197号,景点,人文古迹,121.541641,29.856237
宁波市展览馆,浙江,宁波,宁波,0574,87195071,天一广场,药行街117号,景点,展览馆,121.553955,29.867077
宁波旅游咨询服务中心,浙江,宁波,宁波,0574,25552888,天一广场,大沙泥街90号,景点,旅行社,121.552695,29.865295
杨坊故居,浙江,宁波,宁波,0574,,月湖盛园,带河巷18号,景点,名人故居,121.547653,29.864573
新艺画廊,浙江,宁波,宁波,0574,56867759,月湖盛园,迎凤街82-84号,景点,美术馆,121.545464,29.872513
青林湾公园,浙江,宁波,宁波,0574,,青林湾,新星路138号,景点,公园/广场,121.522858,29.898256
长春门长春庵遗址,浙江,宁波,宁波,0574,,月湖盛园,南郊路15号,景点,古代遗迹,121.545837,29.859055
中国国际旅行社,浙江,宁波,宁波,0574,87237044,天一广场,开明街396号平安大厦12楼,景点,旅行社,121.553139,29.872609
基督堂,浙江,宁波,宁波,0574,,鼓楼,孝闻巷54号,景点,宗教,121.545532,29.881817
范宅,浙江,宁波,宁波,0574,87311435,月湖盛园,中山西路85弄1号,景点,历史建筑,121.5448,29.873133
银台第官宅博物馆,浙江,宁波,宁波,0574,87297193,月湖盛园,月湖街道迎凤街133号,景点,博物馆,121.544197,29.871876
春秋旅游有限公司,浙江,宁波,宁波,0574,,天一广场,中农信国际商厦05A20号,景点,旅行社,121.555534,29.872173
华兴社区文化广场,浙江,宁波,宁波,0574,,环城西路南段,环城西路南段688弄,景点,广场,121.524063,29.854876
延庆寺,浙江,宁波,宁波,0574,,天一广场,灵桥路203弄,景点,宗教,121.550769,29.859829
贺秘监祠,浙江,宁波,宁波,0574,,月湖盛园,柳汀街150号,景点,更多景点/周边游,121.543114,29.867491
玉文化博物馆,浙江,宁波,宁波,0574,87938771,月湖盛园,月湖公园宝奎巷11号,景点,博物馆,121.544975,29.871237
卢宅,浙江,宁波,宁波,0574,,月湖盛园,偃月街,景点,历史建筑,121.544304,29.870655
“三一”教会学校旧址,浙江,宁波,宁波,0574,,鼓楼,广仁街44号,景点,古代遗迹,121.548256,29.880363
海天公园,浙江,宁波,宁波,0574,,小港街道,江南东路与汽渡路交叉口西100米,景点,公园/广场,121.714104,29.934427
木林森兰园,浙江,宁波,宁波,0574,,牡丹庄园,沿山公路60号,景点,公园/广场,121.764015,29.905294
蔚斗小学旧址,浙江,宁波,宁波,0574,,小港街道,小港直街50-1号,景点,古代遗迹,121.745292,29.94745
四知堂,浙江,宁波,宁波,0574,,北仑区,穿山疏港高速,景点,历史建筑,121.942746,29.860859
蛟山公园,浙江,宁波,宁波,0574,,小港街道,小港开发区公园路1号,景点,公园/广场,121.746773,29.955231
静宗禅寺,浙江,宁波,宁波,0574,,鄞州区,云杉路与镇兴路交叉口东北方向80米,景点,宗教,121.657494,29.901556
膳香怡意居,浙江,宁波,宁波,0574,,九峰山风景区,云雩山附近,景点,更多景点/周边游,121.890709,29.838627
兴安公园,浙江,宁波,宁波,0574,,小港街道,小港街道顾家桥157号,景点,公园/广场,121.713753,29.913219
北仑善济寺,浙江,宁波,宁波,0574,,北仑区,通途路,景点,宗教,121.744834,29.919404
碑塔庙,浙江,宁波,宁波,0574,,北仑区,碑塔村南湾新区6号,景点,宗教,122.013704,29.797744
宁波市北仑旅游有限公司,浙江,宁波,宁波,0574,86868238,新大路沿线,新建路1号浙仑海外旅行社有限公司,景点,旅行社,121.838882,29.91283
海云寺,浙江,宁波,宁波,0574,,北仑区,802县道北150米,景点,宗教,122.041879,29.845959
万福宝藏塔,浙江,宁波,宁波,0574,,柴桥街道,柴桥街道芦江北路97号,景点,历史建筑,121.898591,29.862691
金鸡山,浙江,宁波,宁波,0574,,小港街道,戚家山街道江滨路1号,景点,自然风光,121.735939,29.954725
北岙庙,浙江,宁波,宁波,0574,,大榭,北渡路东50米,景点,宗教,121.941093,29.904705
河西村文化活动中心,浙江,宁波,宁波,0574,,霞浦,河西村映墙门4-4号,景点,展览馆,121.880013,29.886759
蚶岙庙,浙江,宁波,宁波,0574,,小港街道,北平路,景点,宗教,121.746275,29.941755
正阳禅寺,浙江,宁波,宁波,0574,86060422,柴桥街道,柴桥街道芦江北路97号,景点,宗教,121.907753,29.856903
之光广场,浙江,宁波,宁波,0574,,明州路沿线,中河路29号对面,景点,广场,121.840233,29.91177
北仑森林植物园,浙江,宁波,宁波,0574,,北仑区,新杨段西50米,景点,植物园,121.808594,29.825327
北仑基督教堂,浙江,宁波,宁波,0574,86105445,大\,毕家\路70号,景点,宗教,121.798988,29.898037
白石庙,浙江,宁波,宁波,0574,,牡丹庄园,大\街道沿山公路66号,景点,宗教,121.758644,29.896204
伏虎将军庙,浙江,宁波,宁波,0574,,北仑区,太河南路幸福缘生态大酒店南侧,景点,宗教,121.844543,29.826538
镇首庙,浙江,宁波,宁波,0574,,北仑区,华峙村白洋线西,景点,宗教,122.027509,29.867219
泰山路灵峰寺,浙江,宁波,宁波,0574,,北仑区,北仑农业园区,景点,宗教,121.775658,29.921101
大千公园,浙江,宁波,宁波,0574,,大\,高车头路118号,景点,公园/广场,121.796608,29.888109
嘉溪庙,浙江,宁波,宁波,0574,,北仑区,嘉溪273号附近,景点,宗教,121.768882,29.851702
天主教教区,浙江,宁波,宁波,0574,,小港街道,小港街道顾家桥157号,景点,宗教,121.714073,29.911707
瑞岩寺森林公园,浙江,宁波,宁波,0574,,九峰山风景区,九峰山瑞岩寺景区,景点,宗教,121.87619,29.830023
蓬莱寺,浙江,宁波,宁波,0574,,北仑区,805县道东50米,景点,宗教,121.719331,29.888841
凤胜园,浙江,宁波,宁波,0574,,春晓洋沙山风景区,三山村堰潭新村甲80号附近,景点,公园/广场,121.873215,29.783316
慈湖烈士陵园,浙江,宁波,宁波,0574,,慈城,慈城镇东城沿路,景点,烈士陵园,121.455154,29.991667
塔脑山,浙江,宁波,宁波,0574,,掌起,661乡道,景点,自然风光,121.478111,30.037981
永丰公园,浙江,宁波,宁波,0574,,翠柏路沿线,永丰北路231号,景点,公园/广场,121.544685,29.893667
东湖公园,浙江,宁波,宁波,0574,,慈城,民权路东100米,景点,公园/广场,121.453011,29.990639
东乐公园,浙江,宁波,宁波,0574,,江北区,邵山段西50米,景点,公园/广场,121.477571,29.910309
基督教小港堂,浙江,宁波,宁波,0574,,小港街道,小港街道振兴东路223号,景点,宗教,121.726516,29.944196
主恩堂,浙江,宁波,宁波,0574,,慈城,自新路18-1号,景点,宗教,121.452339,29.979118
安山公园,浙江,宁波,宁波,0574,,九龙湖风景区,鞍保线乡遇・老樟树民宿部落北侧约160米,景点,公园/广场,121.515797,29.974777
后张公园,浙江,宁波,宁波,0574,,江北区,宁慈中路与701乡道交叉口东北100米,景点,公园/广场,121.506287,29.958696
慈城明清古建筑群,浙江,宁波,宁波,0574,,慈城,民主路25号,景点,古村古镇,121.447945,29.98735
八字庵,浙江,宁波,宁波,0574,,明州路沿线,霞浦街道辽河路,景点,宗教,121.858142,29.895492
孔浦公园,浙江,宁波,宁波,0574,,江北区,大庆北路28号,景点,公园/广场,121.591718,29.903075
北仑革命烈士纪念馆,浙江,宁波,宁波,0574,86878952,明州路沿线,恒山路,景点,纪念馆,121.855133,29.895266
宁波帮文化公园,浙江,宁波,镇海区,0574,,庄市街道,风华路568号,景点,文化公园,121.627518,29.914343
慈城中学,浙江,宁波,宁波,0574,89137103,慈城,民权路10号,景点,展览馆,121.452415,29.983017
东邵公园,浙江,宁波,宁波,0574,,江北区,东邵南99号,景点,公园/广场,121.533289,29.936529
护龙禅寺,浙江,宁波,宁波,0574,87597203,慈城,慈城妙山国庆村,景点,宗教,121.438744,29.988943
钱肃乐故居,浙江,宁波,宁波,0574,,彩虹广场,外潜龙街31号,景点,名人故居,121.570892,29.866489
甬江公园,浙江,宁波,宁波,0574,,高新区,福明街道凌波路与甬江大道交叉口西北50米,景点,公园/广场,121.593628,29.893799
福民公园,浙江,宁波,宁波,0574,87933881,体育中心,民安路688号,景点,公园/广场,121.596985,29.871416
扬名旅行社有限公司,浙江,宁波,宁波,0574,87731066,体育中心,中兴路138号明晨大厦819-820号,景点,旅行社,121.587764,29.879654
华严步行街,浙江,宁波,宁波,0574,87705282,彩虹广场,华严街81号2楼,景点,步行街,121.563034,29.862835
天天商旅,浙江,宁波,宁波,0574,87029928,兴宁路,兴宁路70-1号,景点,旅行社,121.565019,29.851869
宁波康辉国际旅行社,浙江,宁波,宁波,0574,87849288,彩虹广场,百丈东路88-96号东城・百汇商务楼4楼408室,景点,旅行社,121.572838,29.862377
悦沁园,浙江,宁波,宁波,0574,,兴宁路,兴宁路73号,景点,公园/广场,121.568184,29.853664
工人运动纪念馆,浙江,宁波,宁波,0574,,彩虹广场,演武街2号,景点,纪念馆,121.562637,29.863367
波特曼大街,浙江,宁波,宁波,0574,,彩虹广场,彩虹桥巷,景点,步行街,121.570435,29.865969
浙东海事民俗博物馆,浙江,宁波,宁波,0574,87700187,宁波书城,江东北路156号,景点,博物馆,121.56234,29.872316
江东公园,浙江,宁波,宁波,0574,,汽车东站,姚隘路796号东南方向200米,景点,公园/广场,121.594627,29.865189
友好国际旅行社,浙江,宁波,宁波,0574,87725888,体育中心,姚隘路332号凯诚大厦3层,景点,旅行社,121.575334,29.870884
回龙禅寺,浙江,宁波,象山,0574,,象山县其他,Z506东50米,景点,宗教,121.841965,29.373861
报德寺,浙江,宁波,象山,0574,,象山县其他,着衣亭村御亭路北50米,景点,宗教,121.872817,29.571696
耶稣圣教堂,浙江,宁波,象山,0574,,石浦镇,山门口隧道,景点,宗教,121.819633,29.165302
晓塘乡耶稣堂,浙江,宁波,奉化,0574,,奉化区其他,尚品路东100米,景点,宗教,121.402809,29.616028
珠山青龙庙,浙江,宁波,象山,0574,,象山县其他,西昭路,景点,宗教,121.87188,29.544279
头应庙,浙江,宁波,象山,0574,,象山县其他,503县道西50米,景点,宗教,121.825554,29.508581
云门禅寺,浙江,宁波,象山,0574,,象山县其他,墙头镇洋北村,景点,宗教,121.828064,29.490547
象山福寿禅寺,浙江,宁波,象山,0574,,象山县其他,506县道,景点,宗教,121.918175,29.281282
大悲禅寺,浙江,宁波,象山,0574,,象山县其他,章家墩岙附近,景点,宗教,121.854424,29.56089
丹城公园,浙江,宁波,象山,0574,65714726,汇丰苑,园西路,景点,公园/广场,121.872505,29.474161
张岙公祠,浙江,宁波,象山,0574,,象山县其他,505县道,景点,宗教,121.749199,29.39701
太保庙,浙江,宁波,象山,0574,,象山县其他,501县道,景点,宗教,121.957138,29.595589
牛地公园,浙江,宁波,象山,0574,,象山县其他,航头村1组30号,景点,公园/广场,121.641396,29.47086
洋心庙,浙江,宁波,象山,0574,,象山县其他,洋心1号,景点,宗教,121.898453,29.437681
宝灵庵,浙江,宁波,象山,0574,,象山县其他,616乡道,景点,宗教,121.810844,29.123203
渔师禅寺,浙江,宁波,象山,0574,,石浦镇,渔港中路185号,景点,宗教,121.949417,29.214544
林门公园,浙江,宁波,象山,0574,,象山县其他,南港段东150米,景点,公园/广场,121.899048,29.122852
泗洲头基督教,浙江,宁波,象山,0574,,象山县其他,兴洲路100号,景点,宗教,121.774305,29.37156
保宁寺,浙江,宁波,象山,0574,,象山县其他,215省道,景点,宗教,121.87104,29.397312
黄土岭普福寺,浙江,宁波,象山,0574,133****7778,象山县其他,珠水溪220号,景点,宗教,121.870331,29.43211
金魁庙,浙江,宁波,象山,0574,,象山县其他,后洋塘陈家灵秀路西400米,景点,宗教,121.834488,29.220905
友好公园,浙江,宁波,象山,0574,,象山县其他,城东路与东谷路交叉路口往西北约190米,景点,公园/广场,121.876288,29.486551
西寺,浙江,宁波,象山,0574,,象山县其他,城东路11弄12-13号,景点,宗教,121.87556,29.480391
象山天福禅寺,浙江,宁波,象山,0574,,象山县其他,港高段北50米,景点,宗教,121.848756,29.118302
茶园路福音堂,浙江,宁波,象山,0574,,象山县其他,樟岙村191号,景点,宗教,121.871941,29.37896
墙头镇方家岙村游客中心,浙江,宁波,象山,0574,,象山县其他,花园路6号,景点,公园/广场,121.784531,29.450514
常乐禅寺,浙江,宁波,象山,0574,,象山县其他,樟寺段附近,景点,宗教,121.87709,29.593538
大乘庵,浙江,宁波,象山,0574,,象山县其他,石黄段附近,景点,宗教,121.913023,29.214229
平水庙,浙江,宁波,象山,0574,,象山县其他,前中段西50米,景点,宗教,121.981239,29.579884
岛屿庙,浙江,宁波,象山,0574,,象山县其他,Z501,景点,宗教,121.679186,29.507106
象山天主堂,浙江,宁波,象山,0574,,客运中心,百花路111号,景点,宗教,121.867523,29.461121
象山鹤浦圣恩堂,浙江,宁波,象山,0574,,象山县其他,607乡道,景点,历史建筑,121.93795,29.100317
中保庙,浙江,宁波,象山,0574,,象山县其他,505县道,景点,宗教,121.755669,29.378864
福庆禅寺,浙江,宁波,象山,0574,,象山县其他,七一省道与龙江路交叉路口往西约200米,景点,宗教,121.876465,29.528873
象山基督教会信德堂,浙江,宁波,象山,0574,,客运中心,西谷路88-90号,景点,宗教,121.866806,29.463781
东海半边山旅游度假区,浙江,宁波,象山,0574,65992888;65992666,象山县其他,沿海南线石浦镇半边山游客服务中心,景点,更多景点/周边游,121.979797,29.2696
供销社中江村综合服务社活动中心,浙江,宁波,象山,0574,,象山县其他,高珠段北50米,景点,展览馆,121.816374,29.120714
鸭屿公园,浙江,宁波,象山,0574,,象山县其他,611乡道,景点,公园/广场,121.833984,29.545988
定海庙,浙江,宁波,象山,0574,,象山县其他,石三线2号东北方向110米,景点,宗教,121.848792,29.118392
象山紫云庵,浙江,宁波,象山,0574,,象山县其他,紫云庵,景点,宗教,121.883217,29.489779
五师寺,浙江,宁波,象山,0574,,象山县其他,五兴村536号,景点,宗教,121.843956,29.363735
北黄金海岸度假村会议中心,浙江,宁波,象山,0574,,象山县其他,黄避岙外高泥礁门北黄,景点,景点/周边游,121.752322,29.540807
朝阳庙,浙江,宁波,象山,0574,,象山县其他,汤鲁线,景点,宗教,121.919693,29.6203
普陀禅寺,浙江,宁波,象山,0574,,象山县其他,涂茨镇中堡村,景点,宗教,121.970413,29.584511
浣纱路基督教堂,浙江,宁波,象山,0574,,象山县其他,西周镇浣纱路,景点,宗教,121.735939,29.444632
供销社余江村综合服务社活动中心,浙江,宁波,象山,0574,,象山县其他,高珠段北50米,景点,展览馆,121.827238,29.116776
天主教,浙江,宁波,象山,0574,,石浦镇,紫金华庭,景点,宗教,121.925566,29.198006
供销社杏八村综合服务社活动中心,浙江,宁波,象山,0574,,象山县其他,高塘岛乡杏八村村民委员会附近,景点,展览馆,121.851151,29.125031
象山黄金沙滩,浙江,宁波,象山,0574,,石浦镇,石浦镇象山黄金沙滩,景点,海滨沙滩,121.962364,29.243513
树蓬庙,浙江,宁波,象山,0574,,象山县其他,611乡道,景点,宗教,121.8461,29.539383
华龙禅寺,浙江,宁波,象山,0574,,象山影视城,田中段北100米,景点,宗教,121.835884,29.267679
珠山庙,浙江,宁波,象山,0574,,象山县其他,黄公山附近,景点,宗教,121.896927,29.578379
长寿寺,浙江,宁波,象山,0574,,东湖苑,湖滨路,景点,宗教,121.884071,29.483313
东寺,浙江,宁波,象山,0574,,象山县其他,新凉亭工业园区,景点,宗教,121.883041,29.494324
象山基督教堂,浙江,宁波,象山,0574,,象山县其他,S311,景点,宗教,121.767044,29.472527
分境庙,浙江,宁波,象山,0574,,象山县其他,庵后村村民委员会附近,景点,宗教,121.932785,29.564243
大雷庙,浙江,宁波,象山,0574,,象山县其他,311省道,景点,宗教,121.789898,29.464378
五圣庙,浙江,宁波,象山,0574,,象山县其他,606乡道,景点,宗教,121.867836,29.209763
释平禅寺,浙江,宁波,象山,0574,,象山县其他,南港段西50米,景点,宗教,121.872612,29.117804
东景庙,浙江,宁波,象山,0574,,石浦镇,东门岛路,景点,宗教,121.964775,29.198639
塔山遗址,浙江,宁波,象山,0574,,东湖苑,东谷路,景点,古代遗迹,121.882896,29.479223
海塘镇海庙,浙江,宁波,象山,0574,,象山县其他,下余1号,景点,宗教,121.924973,29.43462
延寿禅寺,浙江,宁波,象山,0574,135****2655,松兰山旅游度假区,赤坎村庵岭头,景点,宗教,121.942329,29.445929
红岩风景区,浙江,宁波,象山,0574,,象山县其他,东陈乡506县道,景点,自然风光,121.93821,29.324083
丹大线福音堂,浙江,宁波,象山,0574,,象山县其他,东昭路47号正东方向180米,景点,宗教,121.888146,29.526146
白玉湾生态农业观光园,浙江,宁波,象山,0574,87625675,象山县其他,白西段与507县道交叉口西南50米,景点,动植物园,121.808784,29.190289
行宫庙,浙江,宁波,象山,0574,,象山县其他,615乡道,景点,宗教,121.921867,29.555647
珠山碧潭禅寺,浙江,宁波,象山,0574,,象山县其他,大雄宝殿,景点,宗教,121.896088,29.573795
崔公庙,浙江,宁波,象山,0574,,象山县其他,珠岑段东150米,景点,宗教,121.879837,29.604429
华丰公园,浙江,宁波,象山,0574,,象山县其他,巨鹰路与215省道交叉口东北200米华丰丰泽园2期丹东上梅溪村,景点,公园/广场,121.893044,29.485746
宋皇城,浙江,宁波,象山,0574,,石浦镇,历史文化名镇枣石浦镇北端,景点,人文古迹,121.960876,29.240536
武圣庙,浙江,宁波,象山,0574,,象山县其他,永安路,景点,宗教,121.923119,29.145521
青龙禅寺,浙江,宁波,象山,0574,,石浦镇,晓塘乡平南路12号正东方向130米,景点,宗教,121.804711,29.17889
白西段福音堂,浙江,宁波,象山,0574,,石浦镇,白西段东50米,景点,宗教,121.798801,29.178281
山厂寺庙,浙江,宁波,象山,0574,,象山县其他,501县道,景点,宗教,121.919495,29.579563
北仑山,浙江,宁波,宁波,0574,,北仑区,新\街道居北段附近,景点,更多景点/周边游,121.855061,29.938671
寿宁寺,浙江,宁波,宁海,0574,,宁海县其他,422县道,景点,宗教,121.569832,29.271965
如来寺,浙江,宁波,宁海,0574,,宁海县其他,S214,景点,宗教,121.323219,29.231867
龙宫集福禅寺,浙江,宁波,宁海,0574,,宁海县其他,311省道,景点,宗教,121.266411,29.380081
大灵峰寺,浙江,宁波,宁海,0574,,宁海县其他,近林峰庵,景点,宗教,121.497299,29.326548
象原庙,浙江,宁波,宁海,0574,,宁海县其他,408县道北50米,景点,宗教,121.339386,29.472963
西苑公园,浙江,宁波,宁海,0574,,老城关,环城西路54号,景点,公园/广场,121.421791,29.290215
宁海县旅游集散中心,浙江,宁波,宁海,0574,,宁海县其他,堤树路1号,景点,旅行社,121.441007,29.348787
跃龙山,浙江,宁波,宁海,0574,,老城关,跃龙街道塔山路43号,景点,自然风光,121.434021,29.27986
象眼寺,浙江,宁波,宁海,0574,,宁海县其他,X403与梅茶线交叉口西南方向80米,景点,宗教,121.506248,29.381851
许氏祠堂,浙江,宁波,宁海,0574,,宁海县其他,兴海南路与兴宁南路交叉路口往西北约170米,景点,宗教,121.422683,29.274393
王锡桐起义遗址,浙江,宁波,宁海,0574,,老城关,城桃源南路20号,景点,革命旧址,121.431389,29.286371
南溪森林公园,浙江,宁波,宁海,0574,,宁海森林温泉,409县道,景点,森林公园,121.319359,29.366522
云渡禅寺,浙江,宁波,宁海,0574,,宁海县其他,梅仇段附近,景点,宗教,121.413177,29.364771
梦幻飞翔游乐公园,浙江,宁波,宁波,0574,,恒一广场,兴宁南路106号,景点,公园/广场,121.502235,29.929407
长乐公园,浙江,宁波,宁海,0574,,宁海县其他,长青北路,景点,公园/广场,121.710442,29.250635
明儒方正学故里,浙江,宁波,宁海,0574,,宁海县其他,311省道西50米,景点,纪念馆,121.538391,29.414692
梁皇禅寺,浙江,宁波,宁海,0574,,梁皇山风景区,前童镇梁百段北50米,景点,宗教,121.321129,29.254467
慈云庵,浙江,宁波,宁海,0574,,宁海县其他,上龙段南50米,景点,宗教,121.536924,29.372964
积善庵,浙江,宁波,宁海,0574,,宁海县其他,许家山1号,景点,宗教,121.539154,29.315577
永乐禅寺,浙江,宁波,宁海,0574,,宁海县其他,413县道,景点,宗教,121.297668,29.159389
永宁庵,浙江,宁波,宁海,0574,,世贸中心,气象北路366-1号,景点,宗教,121.435974,29.310476
岔路镇龙禅寺,浙江,宁波,宁海,0574,,宁海县其他,兴中路100号,景点,宗教,121.307503,29.211664
宁松线基督教堂,浙江,宁波,宁海,0574,,宁海县其他,宁松线,景点,宗教,121.739906,29.204102
天灯寺,浙江,宁波,宁海,0574,,宁海县其他,405县道,景点,宗教,121.492752,29.245232
惠润禅寺,浙江,宁波,宁海,0574,,宁海县其他,417县道,景点,宗教,121.457283,29.287542
寿宁禅寺,浙江,宁波,宁海,0574,,宁海县其他,跃龙街道港头139号,景点,宗教,121.469719,29.268448
西天寺,浙江,宁波,宁海,0574,,宁海县其他,402县道南50米,景点,宗教,121.439186,29.404839
福英庙,浙江,宁波,宁海,0574,,象山影视城,大下线,景点,宗教,121.804634,29.266151
大木村公园,浙江,宁波,宁海,0574,,宁海县其他,黄木段东50米,景点,公园/广场,121.375725,29.280001
白鹤古庙,浙江,宁波,宁海,0574,,宁海县其他,421乡道,景点,宗教,121.514023,29.231552
强蛟群岛,浙江,宁波,宁海,0574,87291299,宁海县其他,象山港强蛟镇境内,景点,自然风光,121.533836,29.46312
宁海紫云庵,浙江,宁波,宁海,0574,,宁海森林温泉,紫云庵,景点,人文古迹,121.364067,29.38525
教育北路基督教堂,浙江,宁波,宁海,0574,,宁海县其他,教育北路18号,景点,宗教,121.614758,29.304386
鸟岩古庙,浙江,宁波,宁海,0574,,宁海县其他,力胡线,景点,宗教,121.704803,29.315466
福安禅寺,浙江,宁波,宁海,0574,,宁海县其他,黄木段西50米,景点,宗教,121.375313,29.280157
千百度旅行社,浙江,宁波,宁海,0574,65398666;83519000,宁海县其他,兴海中路88号,景点,旅行社,121.446003,29.292363
镇龙庙,浙江,宁波,宁海,0574,,宁海县其他,海岭段东50米,景点,宗教,121.640419,29.359253
后山庙,浙江,宁波,宁海,0574,,宁海县其他,宁松线宁海县长街中心卫生院西南侧约290米,景点,宗教,121.706837,29.240217
正学公园,浙江,宁波,宁海,0574,65511849,宁海大厦,正学东路28号,景点,公园/广场,121.442329,29.300722
五福禅寺,浙江,宁波,宁海,0574,,宁海县其他,宁松线,景点,宗教,121.676552,29.23461
宁海胡氏宗祠,浙江,宁波,宁海,0574,,宁海县其他,408县道,景点,宗教,121.334549,29.472569
黄坛基督教堂,浙江,宁波,宁海,0574,,宁海县其他,前王巷10号,景点,宗教,121.364863,29.292641
香岩山,浙江,宁波,宁海,0574,,宁海县其他,西店镇409县道,景点,自然风光,121.390396,29.470591
山洋革命根据地纪念园,浙江,宁波,宁海,0574,,天河生态风景区,429乡道,景点,纪念馆,121.259262,29.227524
镇宁庵,浙江,宁波,宁海,0574,,老城关,东景花园东,景点,宗教,121.438606,29.285929
金溪庙,浙江,宁波,宁海,0574,,宁海县其他,梅林街道梅仇段南100米,景点,宗教,121.421013,29.364653
大赖基督教堂,浙江,宁波,宁海,0574,,宁海县其他,大赖1号,景点,宗教,121.69091,29.368551
广德寺,浙江,宁波,宁海,0574,,宁海县其他,409县道,景点,宗教,121.41021,29.494392
白云庵,浙江,宁波,宁海,0574,,宁海县其他,城岭线,景点,宗教,121.261024,29.183098
烈士园,浙江,宁波,宁海,0574,,老城关,义坊路100号西南方向70米,景点,纪念馆,121.432526,29.283224
长街基督教堂,浙江,宁波,宁海,0574,,宁海县其他,404县道,景点,宗教,121.711662,29.250343
连头山,浙江,宁波,宁海,0574,,宁海县其他,403乡道,景点,自然风光,121.412128,29.245458
明恩寺院,浙江,宁波,宁海,0574,,宁海县其他,西店镇西山线,景点,宗教,121.390556,29.495419
王干山,浙江,宁波,宁海,0574,,宁海县其他,小外段旁,景点,自然风光,121.540436,29.229744
乌头山,浙江,宁波,宁海,0574,,宁海县其他,跃龙街道,景点,自然风光,121.449348,29.248859
励岙庙,浙江,宁波,宁海,0574,,宁海县其他,402县道东100米,景点,宗教,121.439331,29.404381
小山洞寺庙,浙江,宁波,宁海,0574,,宁海县其他,滨海路182号,景点,宗教,121.436256,29.488373
集福禅寺,浙江,宁波,宁海,0574,,宁海县其他,408县道,景点,宗教,121.335403,29.473427
五莲寺,浙江,宁波,宁海,0574,,宁海县其他,404县道,景点,宗教,121.700218,29.225716
茶院庵,浙江,宁波,宁海,0574,,宁海县其他,西张段附近,景点,宗教,121.693596,29.370619
长街烈士墓,浙江,宁波,宁海,0574,,宁海县其他,长街镇明长段与长青中路交叉口西南50米,景点,古代遗迹,121.709361,29.243891
西林寺,浙江,宁波,宁海,0574,,宁海县其他,G527与盛宁线交叉口东北方向150米,景点,宗教,121.556717,29.326818
增福禅寺,浙江,宁波,宁海,0574,,宁海县其他,溪金段东50米,景点,宗教,121.307564,29.449434
陆氏宗祠,浙江,宁波,宁海,0574,,宁海县其他,平安中路与九都路交叉路口往西约160米,景点,宗教,121.482162,29.368353
竹波向庙,浙江,宁波,宁海,0574,,宁海县其他,407乡道北50米,景点,宗教,121.466202,29.32028
诚净禅寺,浙江,宁波,宁海,0574,,宁海大厦,跃龙街道华山南路1号,景点,宗教,121.446228,29.298965
宁海基督教堂,浙江,宁波,宁海,0574,,宁海县其他,胡陈村443号,景点,宗教,121.697496,29.323556
澄深禅寺,浙江,宁波,宁海,0574,,宁海县其他,406县道澄深寺附近,景点,宗教,121.213104,29.336281
罗广禅寺,浙江,宁波,宁海,0574,65273339,宁海森林温泉,金家岙126号,景点,宗教,121.364769,29.325626
宁海慈云禅寺,浙江,宁波,宁海,0574,,宁海县其他,黄坛镇406县道,景点,宗教,121.344177,29.29022
明智禅寺,浙江,宁波,宁海,0574,,宁海县其他,38省道,景点,宗教,121.427025,29.377075
种福禅寺,浙江,宁波,宁海,0574,,宁海县其他,大佳何镇大里段东50米,景点,宗教,121.581573,29.418161
如意寺,浙江,宁波,宁海,0574,,宁海县其他,宁海北互通,景点,宗教,121.412163,29.459114
兴隆禅寺,浙江,宁波,宁海,0574,,宁海县其他,岭南村西南方向50米,景点,宗教,121.334572,29.260542
清泉寺,浙江,宁波,宁海,0574,,宁海县其他,青竹路,景点,宗教,121.415619,29.291388
吴山庙,浙江,宁波,宁海,0574,,宁海县其他,G15沈海高速,景点,宗教,121.428894,29.419405
屿宝庵,浙江,宁波,宁海,0574,,宁海县其他,庙山路与天河路交叉路口往东南约100米,景点,宗教,121.313943,29.198633
月洞门文物保护区,浙江,宁波,镇海区,0574,,镇海区,汇源路11-15号,景点,自然风光,121.610462,30.035574
广济禅寺,浙江,宁波,镇海区,0574,,庄市街道,庄市大道1298号,景点,宗教,121.615635,29.930655
茗园公园,浙江,宁波,镇海区,0574,,蛟川街道,大西门路696号,景点,公园/广场,121.695999,29.952599
佳木思花木园,浙江,宁波,镇海区,0574,,九龙湖风景区,汶骆西路西50米,景点,公园/广场,121.531448,29.997108
镇海天主堂,浙江,宁波,镇海区,0574,,蛟川街道,俞范东路101号,景点,宗教,121.687912,29.949444
朱仁房大屋,浙江,宁波,镇海区,0574,,城关,鼓楼西路41号,景点,人文古迹,121.717888,29.953087
清水湖公园,浙江,宁波,镇海区,0574,,镇海区,慈海北路1027号,景点,公园/广场,121.588743,30.001015
枫园,浙江,宁波,镇海区,0574,,蛟川街道,宁镇线与镇宁东路交叉口西北150米,景点,公园/广场,121.694489,29.951994
中国防空博览园,浙江,宁波,镇海区,0574,,城关,招宝山街道沿江东路170号,景点,展览馆,121.724129,29.956976
中意公园,浙江,宁波,镇海区,0574,,蛟川街道,大运北路与中意路交叉口西北方向60米,景点,公园/广场,121.676086,29.950899
飞扬旅游,浙江,宁波,镇海区,0574,,骆驼街道,荣骆路259号,景点,旅行社,121.590951,29.981851
永旺村休闲公园,浙江,宁波,镇海区,0574,,镇海区,北环东路与庆标路交叉口东150米,景点,公园/广场,121.651749,29.937223
后丰林庙,浙江,宁波,镇海区,0574,,蛟川街道,镇骆东路与骆霞线交叉口南50米,景点,宗教,121.64879,29.962813
镇海江滨公园,浙江,宁波,镇海区,0574,,城关,沿江西路24号,景点,公园/广场,121.719711,29.946894
沿江景观带,浙江,宁波,镇海区,0574,,城关,沿江西路366号,景点,公园/广场,121.711533,29.947477
四明山杖锡风景区,浙江,宁波,宁波,0574,88288898,海曙区,章水镇杖锡村,景点,自然风光,121.161133,29.762403
耶稣教堂,浙江,宁波,宁波,0574,,海曙区,邹溪村,景点,宗教,121.383005,29.820715
石\基督教堂,浙江,宁波,宁波,0574,,鄞县大道,雅源南路八十六弄175号,景点,宗教,121.505333,29.819841
蔡郎桥耶稣堂,浙江,宁波,宁波,0574,,鄞州区,姜南路67号,景点,宗教,121.544134,29.715959
黄晟公园,浙江,宁波,宁波,0574,,鄞州区,S215与南大路交叉路口往西北约110米,景点,公园/广场,121.687236,29.686416
王夹岙祠,浙江,宁波,宁波,0574,,鄞州区,云达路王笙z小学西南侧约120米,景点,更多景点/周边游,121.599616,29.764833
莲花禅寺,浙江,宁波,宁波,0574,,鄞州区,姜山镇93号,景点,宗教,121.565246,29.762546
东钱湖旅游度假区,浙江,宁波,宁波,0574,4008268000,东钱湖,东钱湖镇安石路499号,景点,自然风光,121.630196,29.78632
童一休闲公园,浙江,宁波,宁波,0574,,鄞州区,宝天线文化广场西侧约80米,景点,公园/广场,121.767617,29.789137
宋诏桥公园,浙江,宁波,宁波,0574,,鄞州区,宋诏桥甬兴西路6号,景点,公园/广场,121.564753,29.845303
高桥基督教堂,浙江,宁波,宁波,0574,88007009,海曙区,高桥南路2弄与甬金连接线交叉口西北方向180米,景点,宗教,121.458366,29.901933
普渡禅庵,浙江,宁波,镇海区,0574,86300270,蛟川街道,清水浦村东生路268号,景点,宗教,121.66472,29.929652
泸港村文化礼堂,浙江,宁波,宁波,0574,,海曙区,新桥清沁家园商铺122号,景点,展览馆,121.492127,29.892746
古祠公园,浙江,宁波,宁波,0574,,鄞州万达广场,后庙路105号,景点,公园/广场,121.548225,29.830168
鄞州四明山革命烈士陵园,浙江,宁波,宁波,0574,88476427,海曙区,章水镇振兴中路60号附近,景点,烈士陵园,121.296936,29.820133
观山庙,浙江,宁波,宁波,0574,,鄞州区,塘观路,景点,宗教,121.743985,29.685065
景德寺,浙江,宁波,宁波,0574,,海曙区,汪家104号,景点,宗教,121.446839,29.912299
五乡教堂,浙江,宁波,宁波,0574,,五乡,镇东路东150米,景点,宗教,121.695435,29.840027
梅岭庙,浙江,宁波,宁波,0574,,鄞州区,梅东线西50米,景点,宗教,121.629425,29.685814
小朴木庙,浙江,宁波,宁波,0574,,兴宁路,世纪大道与兴宁路交叉口西南200米,景点,宗教,121.59967,29.846748
永福庵,浙江,宁波,宁波,0574,,海曙区,横街镇015县道西50米,景点,宗教,121.35075,29.867625
见心禅寺,浙江,宁波,宁波,0574,,鄞州区,宁横路,景点,宗教,121.582265,29.816833
它山遗德庙,浙江,宁波,宁波,0574,,海曙区,龙兴路,景点,宗教,121.352287,29.767647
英达皇公园,浙江,宁波,宁波,0574,,海曙区,四明东路97弄20号,景点,公园/广场,121.362892,29.780104
仙岩寺,浙江,宁波,宁波,0574,,姜山,仙岩寺188号,景点,宗教,121.530968,29.761431
健身公园,浙江,宁波,宁波,0574,,鄞州区,宁波东街与西街交叉口东侧,景点,公园/广场,121.828768,29.728578
古塘庙,浙江,宁波,宁波,0574,,姜山,绕城高速,景点,宗教,121.51339,29.778557
清秀寺,浙江,宁波,宁波,0574,,海曙区,042乡道,景点,宗教,121.330116,29.73481
千华禅寺,浙江,宁波,宁波,0574,,东钱湖,东钱湖沙山正西方向40米,景点,宗教,121.706871,29.767178
石矸迎春公园,浙江,宁波,宁波,0574,,轻纺城,石\南路1号附近,景点,公园/广场,121.508842,29.823757
王家弄祠堂,浙江,宁波,宁波,0574,,世纪东方广场,昌兴街与王家弄交叉路口往东南约200米,景点,宗教,121.600418,29.852459
张村庙,浙江,宁波,宁波,0574,,鄞州区,朝阳路680号附近,景点,宗教,121.489981,29.768251
宝中旅游,浙江,宁波,宁波,0574,88065588,鄞州区,人民北路30号,景点,旅行社,121.594538,29.725628
渔家傲景区,浙江,宁波,宁波,0574,,东钱湖,沙山路,景点,自然风光,121.67514,29.750002
金鹅湖,浙江,宁波,宁波,0574,,鄞州区,横溪镇002县道西50米,景点,自然景观,121.589532,29.692374
忻氏宗祠,浙江,宁波,宁波,0574,,东钱湖,陶湖段龙舟殿附近,景点,宗教,121.652237,29.766525
茅山善法禅寺,浙江,宁波,宁波,0574,,鄞州区,董家跳村18号,景点,宗教,121.511483,29.713136
杨氏宗祠,浙江,宁波,宁波,0574,,鄞州区,梅杨线东50米,景点,宗教,121.621704,29.65093
岐西公园,浙江,宁波,宁波,0574,,鄞州区,溪西小区171号,景点,公园/广场,121.817955,29.726842
永泰公园,浙江,宁波,宁波,0574,,钱湖北路,麦德龙路,景点,公园/广场,121.565598,29.83515
青年路圣教堂,浙江,宁波,宁波,0574,,邱隘,青年路18号,景点,宗教,121.638435,29.844458
梁桥村基督教堂,浙江,宁波,宁波,0574,,海曙区,洞百公路,景点,宗教,121.394997,29.765633
月堂禅寺,浙江,宁波,宁波,0574,,鄞州区,横溪镇周夹新路,景点,宗教,121.60835,29.714144
布金讲寺,浙江,宁波,宁波,0574,88438513,海曙区,古林镇布政村5-45号,景点,宗教,121.467247,29.835914
姆岭山,浙江,宁波,宁波,0574,,海曙区,G92杭州湾环线高速,景点,自然风光,121.422676,29.912836
金鹅湖生态农业园,浙江,宁波,宁波,0574,,鄞州区,上任村大岙采摘园区,景点,动植物园,121.585842,29.672302
韩岭老街,浙江,宁波,宁波,0574,,东钱湖,东钱湖南岸,景点,步行街,121.669716,29.734987
鄞州慈云禅寺,浙江,宁波,宁波,0574,,东钱湖,环湖东路,景点,宗教,121.69371,29.740873
南大东路基督教堂,浙江,宁波,宁波,0574,,姜山,南大东路152-1号,景点,宗教,121.545876,29.765173
后隆公园,浙江,宁波,宁波,0574,,海曙区,日月路与新潮路交叉口东北侧,景点,公园/广场,121.316513,29.778078
安乐禅寺,浙江,宁波,宁波,0574,,鄞州区,见心禅寺,景点,宗教,121.581666,29.816906
宝庆庙,浙江,宁波,宁波,0574,,鄞州区,025乡道,景点,宗教,121.66272,29.640387
海曙行慈庙,浙江,宁波,宁波,0574,,海曙区,045乡道,景点,宗教,121.238297,29.735683
铁佛寺,浙江,宁波,宁波,0574,88383825,鄞州区,五乡镇宝同村童岙东岙12号,景点,宗教,121.731359,29.861054
慈福禅寺,浙江,宁波,宁波,0574,,鄞州区,万龄路141号,景点,宗教,121.645838,29.842879
妙智禅寺,浙江,宁波,宁波,0574,,海曙区,045乡道,景点,宗教,121.302721,29.755691
咸祥庙,浙江,宁波,宁波,0574,,鄞州区,咸祥中路280号1,景点,宗教,121.777378,29.679008
吉祥禅寺,浙江,宁波,宁波,0574,88017485,海曙区,新庄路,景点,宗教,121.487118,29.862442
海曙基督教堂,浙江,宁波,宁波,0574,88422814,集士港,中塘路47号,景点,宗教,121.442947,29.869345
同泰嘉陵,浙江,宁波,宁波,0574,88330656,鄞州区,五乡镇周训典个人纪念馆,景点,古代遗迹,121.700212,29.851903
鬼谷庙,浙江,宁波,宁波,0574,,鄞州区,清河路286号,景点,宗教,121.737529,29.835016
翁家桥公园,浙江,宁波,宁波,0574,,海曙区,集高路与G92杭州湾环线高速交叉口西南200米,景点,公园/广场,121.443865,29.898545
广福禅寺,浙江,宁波,宁波,0574,,鄞州区,秦家19号,景点,宗教,121.573467,29.772247
细岭联络处旧址,浙江,宁波,宁波,0574,,海曙区,密杜段北50米,景点,古代遗迹,121.232002,29.831503
周夹休闲公园,浙江,宁波,宁波,0574,,鄞州区,奉钱线鄞州横溪镇中心初级中学南侧约130米,景点,公园/广场,121.6058,29.718281
夕阳公园,浙江,宁波,宁波,0574,,海曙区,横古线与横少线交叉口东侧,景点,公园/广场,121.431147,29.842777
接子庙,浙江,宁波,宁波,0574,,海曙区,上爱段与爱惠段交叉口东北50米,景点,宗教,121.318767,29.901343
鄞州普济禅寺,浙江,宁波,宁波,0574,,小港街道,龙兴村岙汤285号,景点,宗教,121.670578,29.865597
锡灵峰龙窟禅寺,浙江,宁波,宁波,0574,,海曙区,锡灵峰附近,景点,宗教,121.368493,29.840423
后裴君庙,浙江,宁波,宁波,0574,,东钱湖,湖小线旁西南方向120米,景点,宗教,121.642441,29.771448
五佛塔,浙江,宁波,宁波,0574,,鄞州区,宝天线,景点,宗教,121.758544,29.79643
天井寺,浙江,宁波,宁波,0574,,海曙区,龙谷村,景点,宗教,121.27121,29.795336
莫枝基督教堂,浙江,宁波,宁波,0574,,东钱湖,西坪西路96号,景点,宗教,121.640251,29.793112
庄溪古迹,浙江,宁波,宁波,0574,,海曙区,015县道西100米,景点,古村古镇,121.347653,29.863003
西庄庙,浙江,宁波,宁波,0574,,鄞州区,东裕路451号东南方向160米,景点,宗教,121.581733,29.816883
雅戈尔老年乐园,浙江,宁波,宁波,0574,,环球城,首南街道鄞州大道中段555号,景点,主题公园,121.537239,29.800177
迎旭寺,浙江,宁波,宁波,0574,,东钱湖,白石南路与奉钱线交叉路口往南约180米,景点,宗教,121.641541,29.757914
大朴庙,浙江,宁波,宁波,0574,,鄞州区,潘火街道,景点,宗教,121.597747,29.832737
国泽庙,浙江,宁波,宁波,0574,,鄞州区,鄞县大道与S1甬台温高速交叉口西北150米,景点,宗教,121.581844,29.816874
尚书公园,浙江,宁波,宁波,0574,,海曙区,云林东路,景点,公园/广场,121.478256,29.836734
蔡氏支祠,浙江,宁波,宁波,0574,,鄞州区,215省道,景点,宗教,121.787476,29.665846
瑞庆禅寺,浙江,宁波,宁波,0574,138****2828,东钱湖,福庆南路与诚信路交叉口东南300米,景点,宗教,121.61738,29.81579
鄞州天福禅寺,浙江,宁波,宁波,0574,88315069,鄞州区,前岸村天福寺,景点,宗教,121.717041,29.656958
天龙园寺,浙江,宁波,宁波,0574,,鄞州区,004县道,景点,宗教,121.784485,29.797815
童君庙,浙江,宁波,宁波,0574,,海曙区,零四五乡道陶园山庄附近正西方向120米,景点,宗教,121.302251,29.755691
方桥公园,浙江,宁波,宁波,0574,,鄞州区,009乡道,景点,公园/广场,121.793893,29.723657
东城公园,浙江,宁波,宁波,0574,,鄞州区,大嵩路大嵩医院东侧约60米,景点,公园/广场,121.790204,29.707592
山水旅游有限公司,浙江,宁波,宁波,0574,,鄞州万达广场,蒿江中路928号交服商务楼2层,景点,旅行社,121.547889,29.833939
张武子庙,浙江,宁波,宁波,0574,,海曙区,042乡道北50米,景点,宗教,121.314373,29.738913
灵山庙,浙江,宁波,宁波,0574,,海曙区,谢山路,景点,宗教,121.405464,29.779413
沙孟海书学院,浙江,宁波,宁波,0574,88497151,东钱湖,东钱湖镇钱湖东路99号,景点,更多景点/周边游,121.648689,29.791742
费君庙,浙江,宁波,宁波,0574,,鄞州万达广场,后庙路81号,景点,宗教,121.548425,29.829585
资教禅寺,浙江,宁波,宁波,0574,88429375,海曙区,石塘村周家门里56号,景点,宗教,121.428055,29.908415
禅岩寺,浙江,宁波,宁波,0574,,海曙区,042乡道,景点,宗教,121.326912,29.744362
万豪国旅,浙江,宁波,宁波,0574,88266756,轻纺城,石泉路6号,景点,旅行社,121.501493,29.827441
袁氏宗祠,浙江,宁波,宁波,0574,,鄞州区,G15沈海高速,景点,宗教,121.501122,29.711257
竹头公园,浙江,宁波,宁波,0574,,鄞州区,竹芦段南50米,景点,公园/广场,121.767838,29.642809
接峰禅寺,浙江,宁波,宁波,0574,83018226;137****5556,东钱湖,环湖南路,景点,宗教,121.626611,29.7536
宝积庵,浙江,宁波,宁波,0574,88261801,海曙区,宁西线宝积庵,景点,宗教,121.519442,29.81223
云山禅寺,浙江,宁波,宁波,0574,,鄞州区,云莫路,景点,宗教,121.612018,29.769868
运通全球旅游,浙江,宁波,宁波,0574,83075566,鄞州区,民安东路1399号,景点,旅行社,121.638625,29.86364
马山湿地,浙江,宁波,宁波,0574,,东钱湖,环湖东路西100米,景点,自然风光,121.675362,29.742821
东钱湖石刻群,浙江,宁波,宁波,0574,,鄞州区,韩天线,景点,人文古迹,121.720815,29.767005
裴君庙,浙江,宁波,宁波,0574,,鄞州区,东钱湖镇俞城成段西100米,景点,宗教,121.644191,29.699631
咸祥镇金山公园,浙江,宁波,宁波,0574,,鄞州区,咸祥镇鄞州咸祥中学,景点,公园/广场,121.770487,29.687975
梅阳公园,浙江,宁波,宁波,0574,,鄞州区,梅阳公园,景点,公园/广场,121.590462,29.670309
南亭庙,浙江,宁波,宁波,0574,137****0551,鄞州区,东钱段南50米,景点,宗教,121.702355,29.807469
宝光禅寺,浙江,宁波,宁波,0574,,鄞州区,大方路与009乡道交叉口东南200米,景点,宗教,121.783941,29.70938
陶公庙,浙江,宁波,宁波,0574,,东钱湖,陶公路与陶钱段交叉口西北50米,景点,宗教,121.638847,29.77231
洞桥休闲公园,浙江,宁波,宁波,0574,186****1980,海曙区,文卫路51号,景点,公园/广场,121.412983,29.782008
Snec Park,浙江,宁波,宁波,0574,,高新区,新晖路777号附近,景点,公园/广场,121.625369,29.883821
唐家祠堂,浙江,宁波,宁波,0574,,鄞州区,唐家公园附近,景点,宗教,121.810989,29.717049
蜜岩柿林庙,浙江,宁波,宁波,0574,,海曙区,密北路蜜岩车站西侧约120米,景点,宗教,121.279785,29.826881
隐学寺,浙江,宁波,宁波,0574,135****6283,东钱湖,环湖南路御景湾北,景点,宗教,121.62912,29.747053
宁波鄞州陶瓷文化艺术馆,浙江,宁波,宁波,0574,88342756,鄞州区,云莫路88号,景点,美术馆,121.613904,29.773398
玉泉寺,浙江,宁波,宁波,0574,,鄞州区,009乡道,景点,宗教,121.787191,29.734351
南海观音道场,浙江,宁波,宁波,0574,,鄞州区,瞻歧镇东一村,景点,宗教,121.825051,29.741798
古村梅庄,浙江,宁波,余姚,0574,137****5545,余姚市其他,三七镇菜市场,景点,古村古镇,121.345773,30.028423
白溪天府山庄,浙江,宁波,宁海,0574,,宁海县其他,岔路白溪,景点,更多景点/周边游,121.267918,29.183198
运通全球旅游,浙江,宁波,宁波,0574,87846921,鄞州区,梅景路579号,景点,旅行社,121.65929,29.888618
康辉旅行社,浙江,宁波,宁波,0574,,体育中心,桑田路688号生产力促进中心7楼,景点,旅行社,121.58627,29.86089
中国旅行社,浙江,宁波,宁波,0574,88187840,海曙区,四明西路22号,景点,旅行社,121.355542,29.771792
贵豪旅游,浙江,宁波,慈溪,0574,63110907,慈溪市其他,浒山街道金山路393号,景点,旅行社,121.246408,30.158968
卓越旅行社,浙江,宁波,宁波,0574,88189706,鄞州区,下应街道宁横路2562号,景点,旅行社,121.584598,29.812329
绿波眉眼唇设计艺术馆,浙江,宁波,奉化,0574,,溪口,经堂南路87-4号,景点,美术馆,121.279587,29.682632
姜山村,浙江,宁波,余姚,0574,,余姚市其他,牟山镇,景点,古村古镇,121.015352,30.031992
鹤浦大沙沙滩,浙江,宁波,象山,0574,,象山县其他,鹤浦镇大沙村,景点,海滨沙滩,121.974678,29.139574
广德庵,浙江,宁波,宁波,0574,,集士港,集士港镇繁荣路97号,景点,宗教,121.450073,29.870428
仰天湖寺,浙江,宁波,奉化,0574,,奉化区其他,柏坑村,景点,宗教,121.283988,29.508308
望江楼,浙江,宁波,奉化,0574,,奉化区其他,岳林街道惠政大桥21号,景点,仿古建筑,121.417442,29.657452
泥螺山,浙江,宁波,镇海区,0574,,镇海区,势终蚰嗦萆铰范200米,景点,自然风光,121.628273,30.054154
鼓楼里巷,浙江,宁波,宁波,0574,83879911,鼓楼,鼓楼街道公园路118弄10-12号,景点,步行街,121.546867,29.874781
白溪三峡景区,浙江,宁波,宁海,0574,65381918,天河生态风景区,岔路镇白沙线浙东大峡谷风景区,景点,自然风光,121.252747,29.203379
宝峰禅寺,浙江,宁波,宁波,0574,88432914,海曙区,冷水庵路31号,景点,宗教,121.350848,29.773542
长春禅寺,浙江,宁波,奉化,0574,,溪口,庙前路36号,景点,宗教,121.313002,29.694233
陈鱼门故居,浙江,宁波,宁波,0574,,月湖盛园,盛园巷2号,景点,名人故居,121.547798,29.864281
陈之佛艺术馆,浙江,宁波,慈溪,0574,63884071,慈溪银泰城,晓记北弄2号,景点,美术馆,121.25045,30.169546
冯岳彩绘台门,浙江,宁波,宁波,0574,87572398;87572788,慈城,慈城镇完结坊5号,景点,历史建筑,121.454842,29.986097
慈城历史文化名镇遗产建筑群,浙江,宁波,宁波,0574,,慈城,民路27-1号,景点,历史建筑,121.452053,29.985483
大庙,浙江,宁波,象山,0574,,象山县其他,西门街16号,景点,宗教,121.937042,29.253906
大桥街徐宅,浙江,宁波,宁波,0574,,月湖盛园,大桥街17号,景点,历史建筑,121.549438,29.879061
德记巷建筑群,浙江,宁波,宁波,0574,,老外滩,德记巷1号,景点,更多景点/周边游,121.565353,29.887506
等慈禅寺,浙江,宁波,象山,0574,65714036,象山县其他,凤跃路5号,景点,宗教,121.86431,29.480936
董宅,浙江,宁波,宁波,0574,,老外滩,德记巷1号,景点,历史建筑,121.565338,29.887556
多谷文化园,浙江,宁波,宁波,0574,,鄞州区,多谷村,景点,文化公园,121.567036,29.752348
方山京故居,浙江,宁波,宁波,0574,,慈城,太湖路22号,景点,名人故居,121.454285,29.987473
方庄社区文化广场公园,浙江,宁波,宁波,0574,,邱隘,茶花弄与青年路交叉口东北100米,景点,广场,121.630547,29.846292
飞凤山公园,浙江,宁波,宁海,0574,,宁海县其他,溪南路与桃源南路交叉路口往西南约200米,景点,公园/广场,121.428711,29.275869
锋头庙,浙江,宁波,宁波,0574,,梁祝文化小镇,高桥路569号,景点,宗教,121.46868,29.900644
冯怨示,浙江,宁波,宁波,0574,,慈城,太湖路5号,景点,名人故居,121.453911,29.984674
福宁寺,浙江,宁波,象山,0574,,象山县其他,凤鸣路6号,景点,宗教,121.913887,29.274855
高峰村康王休闲园,浙江,宁波,宁波,0574,,梁祝文化小镇,环镇北路与马浦路交叉口,景点,特色乡村,121.468231,29.902189
广济庵,浙江,宁波,宁波,0574,86199796,小港街道,江桥头村35号,景点,宗教,121.684728,29.876043
海晨公园,浙江,宁波,宁波,0574,,明州路沿线,中河路29号对面,景点,公园/广场,121.840225,29.91177
海上丝绸之路起碇港,浙江,宁波,镇海区,0574,,城关,沿江西路广洋海尚国际东南侧约70米,景点,人文古迹,121.711563,29.947474
河姆渡古村落,浙江,宁波,余姚,0574,,余姚市其他,河姆渡镇芦山寺村,景点,古村古镇,121.349976,29.961084
横街基督教堂,浙江,宁波,宁波,0574,,海曙区,浣溪东路139号,景点,宗教,121.395447,29.853197
湖山公园,浙江,宁波,宁波,0574,,海曙区,栎高线附近,景点,公园/广场,121.425034,29.883844
基督教清水浦堂,浙江,宁波,镇海区,0574,,蛟川街道,浦徐家71号附近,景点,宗教,121.664345,29.921032
畸山庙,浙江,宁波,奉化,0574,,溪口,庙前路30号,景点,宗教,121.312996,29.69392
九峰山旅游区五小娘景区,浙江,宁波,宁波,0574,,九峰山风景区,清城公路,景点,自然风光,121.840981,29.85239
开明街鼠疫灾难陈列馆,浙江,宁波,宁波,0574,87108710,天一广场,华楼巷15号天一广场党员服务中心2层,景点,陈列馆,121.552727,29.871023
科技公园,浙江,宁波,宁波,0574,,高新区,院士路,景点,公园/广场,121.630943,29.874916
吴杰故居,浙江,宁波,镇海区,0574,,城关,人民路38号,景点,纪念馆,121.716705,29.950605
匡堰基督教堂,浙江,宁波,慈溪,0574,,慈溪市其他,金鸡岙1号,景点,宗教,121.303551,30.124323
林宅,浙江,宁波,宁波,0574,,西门口,鼓楼街道永寿街43号,景点,历史建筑,121.549919,29.880516
龙山庙,浙江,宁波,宁波,0574,,北仑区,里盘线,景点,宗教,122.017331,29.809653
弥陀净寺,浙江,宁波,象山,0574,,松兰山旅游度假区,松兰山松兰山滨海旅游度假区,景点,宗教,121.96991,29.452948
民国汗衫大王任士刚故居,浙江,宁波,宁波,0574,,慈城,太湖路67号,景点,名人故居,121.454132,29.989014
余姚名人馆,浙江,宁波,余姚,0574,62625330,滨江路,北滨江路何记面馆旁,景点,展览馆,121.15078,30.04611
南门袁氏居宅建筑群,浙江,宁波,宁波,0574,,南塘老街,南郊路227号,景点,历史建筑,121.541397,29.855856
念慈园,浙江,宁波,宁波,0574,,明州路沿线,华山路209号,景点,公园/广场,121.838844,29.909719
邱二公园,浙江,宁波,宁波,0574,,鄞州区,庙新路与葡萄园路交叉口,景点,公园/广场,121.645004,29.843669
舜北公园,浙江,宁波,余姚,0574,,舜北公园,东体育场路7号,景点,公园/广场,121.153481,30.058079
思源公园,浙江,宁波,宁波,0574,83021150,江北区,河东路新地曙光园对面,景点,公园/广场,121.551989,29.925916
松鹤公园,浙江,宁波,宁海,0574,,老城关,环城西路与山河路交叉路口往南约100米,景点,公园/广场,121.422165,29.289867
松月寺,浙江,宁波,宁海,0574,,宁海县其他,零三八省道旁,景点,宗教,121.251656,29.369383
童傅禅寺,浙江,宁波,宁波,0574,88272503,鄞县大道,小戴家11号,景点,宗教,121.495667,29.826979
王宅,浙江,宁波,宁波,0574,,天一广场,老外滩二横街76弄6号,景点,历史建筑,121.559867,29.875547
海曙区文化馆,浙江,宁波,宁波,0574,87196481,环城西路南段,沁园街345号文化体育中心,景点,美术馆,121.512871,29.87525
吴氏支祠,浙江,宁波,宁波,0574,,月湖盛园,三支街46号,景点,宗教,121.543266,29.863224
新浙东报社旧址,浙江,宁波,余姚,0574,,梁弄镇,中小学南侧约190米,景点,古代遗迹,121.08094,29.884342
徐霞客公园,浙江,宁波,宁海,0574,,宁海县其他,跃龙街道清泉路,景点,公园/广场,121.417236,29.290283
芝水滩景区,浙江,宁波,宁波,0574,86060301,九峰山风景区,柴桥瑞岩寺林场,景点,自然风光,121.872604,29.829496
中心公园,浙江,宁波,宁波,0574,86781351,富邦广场,长江路1166号,景点,公园/广场,121.842484,29.897999
陆埠钟山红色主题公园,浙江,宁波,余姚,0574,,余姚市其他,撞钟山路与环镇南路交叉口南150米,景点,公园/广场,121.239591,29.979892
周韩老年公园,浙江,宁波,宁波,0574,,鄞州区,高阳路,景点,公园/广场,121.50036,29.784744
朱宅,浙江,宁波,宁波,0574,,老外滩,中马路180号,景点,历史建筑,121.560562,29.876442
庄市公园,浙江,宁波,镇海区,0574,,庄市街道,兆龙路889号,景点,公园/广场,121.616287,29.928253
宁国禅寺,浙江,宁波,宁波,0574,137****8821,北仑区,小门村,景点,宗教,121.968723,29.872515
县衙,浙江,宁波,宁波,0574,87572398,慈城,慈城镇中华路82号,景点,历史建筑,121.450218,29.988899
龙华寺,浙江,宁波,宁波,0574,87586822,洪塘中心,洪塘街道洪塘南路东段11-4号,景点,宗教,121.511002,29.944502
大革命时期地委旧址纪念馆,浙江,宁波,宁波,0574,87302320,天一广场,解放南路206弄17号,景点,纪念馆,121.549515,29.869596
溪口商量岗景区,浙江,宁波,奉化,0574,88885656,奉化区其他,溪口镇东岙商量岗,景点,自然风光,121.201019,29.71261
宁波科学探索中心,浙江,宁波,宁波,0574,87038000,东部新城,宁穿路1800号,景点,科技馆,121.61747,29.858847
清修寺,浙江,宁波,宁波,0574,87207555,北仑区,梅山乡里岙上路53号,景点,宗教,121.99188,29.800397
平潭水库,浙江,宁波,象山,0574,,象山县其他,镇安路104号,景点,现代建筑,121.679796,29.441186
新鹤沙滩,浙江,宁波,象山,0574,,象山县其他,昌新段,景点,海滨沙滩,121.963219,29.258202
向辰园,浙江,宁波,镇海区,0574,,城关,后大街,景点,公园/广场,121.70694,29.954409
南雷雁湖,浙江,宁波,余姚,0574,,余姚市其他,镇中路8,景点,自然风光,121.161873,29.98073
寺坑庵,浙江,宁波,余姚,0574,,余姚市其他,寺坑庵,景点,宗教,121.20443,29.923052
苏州佛堂,浙江,宁波,宁波,0574,,江北区,五星朱五线,景点,宗教,121.406151,30.022112
天王寺,浙江,宁波,象山,0574,,象山县其他,天宁寺前街甲3号,景点,宗教,121.932386,29.211686
田湾庵,浙江,宁波,象山,0574,,象山县其他,近郊S38,景点,宗教,121.606062,29.465472
西山寺,浙江,宁波,奉化,0574,,奉化区其他,近郊尚许段,景点,宗教,121.393127,29.625633
九阔岭古道,浙江,宁波,宁波,0574,,鄞州区,横溪道成岙村,景点,古道,121.60276,29.64278
神树岗古道,浙江,宁波,宁波,0574,,鄞州区,云龙镇王夹岙村,景点,古道,121.601088,29.756221
黄泥岭古道,浙江,宁波,宁波,0574,,鄞州区,上周村老年活动室附近,景点,古道,121.662292,29.637934
大嵩岭古道,浙江,宁波,宁波,0574,,鄞州区,瞻岐镇大嵩岙村,景点,古道,121.763319,29.726665
寻芝岭古道,浙江,宁波,宁波,0574,,海曙区,鄞江镇建岙村,景点,古道,121.341408,29.800486
大松湾古道,浙江,宁波,宁波,0574,,海曙区,龙观乡上半山村附近,景点,古道,121.274055,29.765827
亭下水库,浙江,宁波,奉化,0574,87196553,奉化区其他,溪口镇,景点,现代建筑,121.196981,29.64641
南大街文化广场,浙江,宁波,镇海区,0574,,城关,南大街,景点,广场,121.717865,29.951488
Toyosu Park,浙江,宁波,宁波,0574,,海曙区,江东区丰州2-1,景点,公园/广场,121.467898,29.898228
杖锡摩崖石刻群,浙江,宁波,宁波,0574,,海曙区,章水镇,景点,人文古迹,121.300507,29.815125
达蓬山旅游度假区,浙江,宁波,慈溪,0574,58996666,掌起,龙山镇,景点,更多景点/周边游,121.50737,30.074482
骑客旅游,浙江,宁波,余姚,0574,136****3280,余姚市其他,柿林古村,景点,旅行社,121.134,29.801
童第周故居,浙江,宁波,宁波,0574,,鄞州区,童村32号,景点,名人故居,121.673683,29.64962
钱湖风帆俱乐部,浙江,宁波,宁波,0574,89007788,东钱湖,环湖南路东钱湖,景点,水上项目/水上体验,121.64884,29.736042
珍珠贝,浙江,宁波,宁波,0574,,和丰创意广场,江东北路329-379号和丰创意广场F1层,景点,现代建筑,121.569618,29.885216
桑洲油菜花景区,浙江,宁波,宁海,0574,,宁海县其他,桑州镇422乡道南山章村,景点,植物园,121.318199,29.143917
宁海东山桃花,浙江,宁波,宁海,0574,,宁海县其他,胡陈乡东山自然村,景点,自然风光,121.678217,29.34313
十里四香,浙江,宁波,宁波,0574,88373737;4008268000,东钱湖,东钱湖镇环湖东路（东钱湖旅游度假区）,景点,自然风光,121.697601,29.766354
宁波甬城订房服务有限公司,浙江,宁波,宁波,0574,87069231,体育中心,百丈东路万金大厦1108室,景点,旅行社,121.58374,29.858786
花岙岛,浙江,宁波,象山,0574,138****7390,象山县其他,高塘岛乡花岙岛村,景点,自然风光,121.82032,29.062687
同程网,浙江,宁波,宁波,0574,82209562,天一广场,汇金大厦,景点,旅行社,121.553881,29.873071
蛟龙禅寺,浙江,宁波,宁波,0574,88297467,海曙区,蜃蛟小学东南300米,景点,宗教,121.405719,29.815731
宁波市国家攀岩公园,浙江,宁波,宁波,0574,,海曙区,鄞江镇上化山,景点,公园/广场,121.345993,29.77696
方家河头千年古村落,浙江,宁波,慈溪,0574,,掌起,范市镇方家河头,景点,古村古镇,121.486931,30.072912
石堰翁郎桥杨梅,浙江,宁波,慈溪,0574,187****6670,慈溪市其他,堰翁郎桥,景点,旅行社,121.21427,30.114151
横河梅湖水库,浙江,宁波,慈溪,0574,138****2737,慈溪市其他,横河梅村水库,景点,现代建筑,121.23568,30.089409
百年古村吴江村,浙江,宁波,奉化,0574,,奉化区其他,裘村镇,景点,古村古镇,121.607018,29.599348
横河梅大妈杨梅观光园,浙江,宁波,慈溪,0574,130****7392,慈溪市其他,横河镇115县道梅园村86号,景点,更多景点/周边游,121.272596,30.104986
匡堰游源启群杨梅观光园,浙江,宁波,慈溪,0574,135****5878;159****5179,慈溪市其他,匡堰乾炳村村办大楼往西100米,景点,更多景点/周边游,121.303078,30.101648
紫林坊艺术馆,浙江,宁波,宁波,0574,82815008,鄞州万达广场,日丽中路666号,景点,美术馆,121.551125,29.810078
中国国旅,浙江,宁波,宁波,0574,87327555,环城西路南段,白云街道中兴路719号华宏第五大道2011室,景点,旅行社,121.516591,29.868643
甬港科技文化展暨3D奇幻艺术全国巡展,浙江,宁波,宁波,0574,4006275917,老外滩,美术馆1号馆,景点,博物馆,121.561462,29.878359
甬港科技文化展暨3D奇幻艺术全国巡展,浙江,宁波,宁波,0574,4006275917,江北万达广场,文化中心,景点,博物馆,121.533043,29.912933
3D玄奇趣味展,浙江,宁波,慈溪,0574,159****2444,慈溪银泰城,青少年宫南路99号银泰城商城地下一层,景点,美术馆,121.248955,30.170416
浙东小九寨,浙江,宁波,余姚,0574,62912555,余姚市其他,大隐镇袁毛线芝林村,景点,自然风光,121.296974,29.91032
雪妮杨梅观光园,浙江,宁波,慈溪,0574,159****5352,慈溪市其他,横河镇童岙村茶亭南31号,景点,更多景点/周边游,121.219634,30.079778
黑富美杨梅观光园,浙江,宁波,慈溪,0574,159****3341,慈溪市其他,横河镇童岙村茶亭根北39号,景点,更多景点/周边游,121.218486,30.081514
天地生态农庄,浙江,宁波,宁波,0574,88378888;133****9280,鄞州区,咸祥镇犊山村,景点,动植物园,121.751119,29.697609
中山公园,浙江,宁波,宁波,0574,,鼓楼,永寿街与呼童街交叉口东北角,景点,公园/广场,121.54926,29.878045
宁海森林温泉,浙江,宁波,宁海,0574,65260590,宁海森林温泉,深l镇南溪村西山线,景点,温泉,121.326279,29.378889
宁海草根,浙江,宁波,宁海,0574,180****2777,潘天寿广场,北斗北路130号,景点,展览馆,121.433029,29.300528
象山海滨假期旅行社,浙江,宁波,宁海,0574,4006657066,宁海县其他,兴海家园5栋1501,景点,旅行社,121.453525,29.338329
宁波开元国际旅游有限公司,浙江,宁波,宁波,0574,4000089555,彩虹广场,百丈东路812号,景点,旅行社,121.5821,29.859171
石浦海峡广场,浙江,宁波,象山,0574,,石浦镇,日月潭旁,景点,广场,121.947098,29.20763
中国港口博物馆,浙江,宁波,宁波,0574,26915555,春晓洋沙山风景区,春晓街道港博路6号,景点,博物馆,121.90863,29.75491
万缘禅寺,浙江,宁波,宁波,0574,,姜山,北大东路4号正东方向30米,景点,宗教,121.538757,29.772461
傅宅,浙江,宁波,镇海区,0574,,城关,城关人民路4号,景点,历史建筑,121.719193,29.950235
月湖清真寺,浙江,宁波,宁波,0574,87302495,西门口,月湖后营巷,景点,宗教,121.54026,29.868958
桂芳巷陈宅,浙江,宁波,宁波,0574,,月湖盛园,公园路附近,景点,历史建筑,121.548996,29.878439
黄古林,浙江,宁波,宁波,0574,56801828,海曙区,鄞县大道古林段312号,景点,博物馆,121.46108,29.833068
舟山金马国际旅行社,浙江,宁波,宁波,0574,4008266326;153****5920,鄞州区,宁横路1197号,景点,旅行社,121.583907,29.827544
宁波罗蒙环球乐园,浙江,宁波,宁波,0574,88558888,环球城,鄞州大道1099号,景点,主题乐园,121.544037,29.798002
易游国际旅行社,浙江,宁波,宁波,0574,87356165,体育中心,中兴路360号体育中心274-275,景点,旅行社,121.581141,29.872202
桃花岭古道,浙江,宁波,宁波,0574,58996666,掌起,妙金线东50米雅戈尔达蓬山旅游度假区内,景点,自然风光,121.481476,30.051844
三溪浦水库,浙江,宁波,宁波,0574,,鄞州区,东吴镇三溪浦水库,景点,现代建筑,121.751392,29.790062
宁海首家3D错觉艺术馆,浙江,宁波,宁海,0574,134****4636,宁海大厦,中山中路宁海景文百货三楼,景点,美术馆,121.432343,29.296537
大观文化园,浙江,宁波,宁海,0574,65132888,大观文化园,大观园1楼,景点,文化公园,121.427101,29.308163
槐树公园,浙江,宁波,宁波,0574,,北岸琴森/大剧院,槐树路,景点,公园/广场,121.551903,29.883339
虎屿公园,浙江,宁波,慈溪,0574,,上林坊,新天地69号,景点,公园/广场,121.244652,30.173246
佛光禅寺,浙江,宁波,余姚,0574,,余姚市其他,陆埠镇温泉路9号,景点,宗教,121.22168,29.980541
鸣鹤镇金家杨梅园,浙江,宁波,慈溪,0574,,慈溪市其他,鸣鹤镇大岷岙,景点,自然风光,121.385622,30.086345
神采飞扬游乐公园,浙江,宁波,宁波,0574,,环球城,天童南路1088号银泰环球城,景点,主题公园,121.545883,29.796581
宁波杭州湾海底温泉,浙江,宁波,慈溪,0574,82356666,杭州湾新区,杭州湾新区滨海二路928号北面,景点,温泉,121.235439,30.330609
镇海绿轴体育公园,浙江,宁波,镇海区,0574,,庄市街道,庄市街道同心路（万科城、水木清华等小区）,景点,公园/广场,121.635513,29.928135
前河公园,浙江,宁波,宁波,0574,,鄞州万达广场,前河北路与堇山中路交叉口东北150米,景点,公园/广场,121.561264,29.831245
中坡山森林公园,浙江,宁波,宁波,0574,,海曙区,龙观乡龙峰村半山自然村,景点,森林公园,121.260834,29.757273
濠河公园,浙江,宁波,宁波,0574,,海曙区,灵桥路与大沙泥街交汇处东南角,景点,公园/广场,121.555411,29.861851
隐野生态庄园,浙江,宁波,宁波,0574,88285916,海曙区,鄞县大道后仓段求精路777号,景点,动植物园,121.485393,29.832481
走马塘村,浙江,宁波,宁波,0574,,鄞州区,姜山镇宁西线,景点,古村古镇,121.485275,29.718983
皎口水库,浙江,宁波,宁波,0574,,海曙区,章水镇,景点,现代建筑,121.266243,29.844728
甬商文化园,浙江,宁波,宁波,0574,,月湖盛园,月湖公园内近偃月街,景点,文化公园,121.545555,29.87105
海天一洲景区,浙江,宁波,慈溪,0574,58585858,慈溪市其他,杭州湾跨海大桥海中平台,景点,更多景点/周边游,121.12957,30.461021
东钱湖二灵山温泉,浙江,宁波,宁波,0574,89219999;89250616,东钱湖,东钱湖旅游度假区环湖东路1000号,景点,温泉,121.678075,29.736874
宁波3D艺术嘉年华,浙江,宁波,慈溪,0574,,世纪金源购物中心,世纪金源购物中心一层正中央,景点,美术馆,121.230568,30.329382
东钱湖陶公岛景区,浙江,宁波,宁波,0574,88376868;88373737,东钱湖,湖滨路东钱湖风景名胜区内,景点,自然风光,121.644089,29.775494
汇港美术馆,浙江,宁波,宁波,0574,83056789,南部商务区,泰安中路466号汇港大厦1楼,景点,美术馆,121.545296,29.804197
月湖美术馆,浙江,宁波,宁波,0574,87095582,月湖盛园,镇明路404号月园,景点,美术馆,121.544289,29.866285
开心哈乐,浙江,宁波,宁海,0574,,大观文化园,银河路莫泰酒店宁海高铁站兴宁中路店东南侧约210米,景点,主题公园,121.427353,29.308674
渔山岛,浙江,宁波,象山,0574,,象山县其他,渔山列岛,景点,自然风光,122.254829,28.879766
毛巾美术馆,浙江,宁波,宁波,0574,,天一广场,和义大道66号和义大道购物中心B1楼B1B038室,景点,美术馆,121.555411,29.873821
四明山大峡谷,浙江,宁波,宁波,0574,55116263;137****0623,海曙区,章水镇李家坑村,景点,自然风光,121.154496,29.788166
檀头山岛风景区,浙江,宁波,象山,0574,65971999;65976597,象山县其他,石浦镇,景点,自然风光,122.040126,29.199356
目的地旅行,浙江,宁波,宁波,0574,4006657066,和丰创意广场,和丰创意广场,景点,旅行社,121.571465,29.88455
古窑浦革命革命陈列馆,浙江,宁波,慈溪,0574,,慈溪市其他,掌起镇古窑浦村,景点,博物馆,121.497253,30.148023
宁波冰雕艺术节,浙江,宁波,宁波,0574,,天一广场,天一广场中心,景点,展览馆,121.553429,29.870108
任新村,浙江,宁波,宁波,0574,,鄞州区,云龙镇任新村村民委员会,景点,古村古镇,121.57527,29.752968
翁家桥村,浙江,宁波,宁波,0574,88429582,海曙区,集士港镇,景点,古村古镇,121.444797,29.899377
明伦村,浙江,宁波,宁波,0574,88485137,鄞州区,五乡镇,景点,古村古镇,121.729577,29.839527
鄞州黄古林,浙江,宁波,宁波,0574,,海曙区,黄古林镇上,景点,古村古镇,121.445877,29.830891
巧克力梦幻城堡,浙江,宁波,宁波,0574,,体育中心,民安路和桑田路交叉口,景点,展览馆,121.592647,29.873367
一村,浙江,宁波,宁波,0574,,明州路沿线,新\街道,景点,古村古镇,121.845589,29.921001
新街女人街,浙江,宁波,宁波,0574,,天一广场,药行街202弄,景点,观光街区,121.550201,29.868628
荷兰村,浙江,宁波,宁波,0574,,体育中心,樟树街218弄,景点,古村古镇,121.593195,29.867875
现代生态园,浙江,宁波,镇海区,0574,186****3669,九龙湖风景区,九龙湖中心学校向东100米,景点,动植物园,121.555318,30.013886
岩头古村,浙江,宁波,奉化,0574,130****1831,奉化区其他,溪口镇岩头村,景点,古村古镇,121.232239,29.596552
莼湖栖凤小普陀,浙江,宁波,宁波,0574,88490621,东钱湖,莼湖镇栖凤村小普陀,景点,自然风光,121.668228,29.764376
海头庵,浙江,宁波,象山,0574,,象山县其他,浙江省宁波市象山县西周镇,景点,宗教,121.599213,29.473983
鹤年坊,浙江,宁波,宁波,0574,,海曙区,鼓楼街道横河街56号,景点,更多景点/周边游,121.549081,29.880599
石浦环港游,浙江,宁波,象山,0574,89521272,石浦镇,石浦镇渔港中路1号,景点,旅行社,121.946593,29.205596
天宁寺塔,浙江,宁波,宁波,0574,,鼓楼,中山西路天宁寺塔,景点,历史建筑,121.543297,29.874138
大洋江桥,浙江,宁波,宁波,0574,,印象城,中河街道,景点,更多景点/周边游,121.5681,29.827042
1844・和义艺术生活中心,浙江,宁波,宁波,0574,83882069,和义大道,和义路100号,景点,更多景点/周边游,121.553627,29.875975
梁祝文化小镇,浙江,宁波,宁波,0574,,梁祝文化小镇,高桥镇梁祝路23弄15号,景点,现代小镇,121.481094,29.905392
碧海温泉,浙江,宁波,余姚,0574,159****2633,余姚市其他,陆埠镇钟山东路80号,景点,温泉,121.242563,29.988792
达蓬天地,浙江,宁波,慈溪,0574,,掌起,达蓬公路雅戈尔达蓬山旅游度假区,景点,公园/广场,121.510925,30.08169
慈溪智慧谷,浙江,宁波,慈溪,0574,,慈溪市其他,科技路18号,景点,创意园区,121.260299,30.201287
保利文化商业广场,浙江,宁波,余姚,0574,,余姚市其他,古路头村20正东方向120号米,景点,公园/广场,121.175925,30.019353
国际风情街,浙江,宁波,象山,0574,,国际风情街,丹河东路903-981号,景点,观光街区,121.89711,29.461111
荪湖花海,浙江,宁波,宁波,0574,,九龙湖风景区,洪塘街道荪湖路与环湖路交叉路口往南约200米（荪湖马鞭草花园）,景点,植物园,121.498283,29.973534
宁波商会旧址,浙江,宁波,宁波,0574,,鼓楼,苍水街,景点,古代遗迹,121.548386,29.877954
华苑游乐园,浙江,宁波,宁海,0574,,宁海大厦,北斗北路55号3F,景点,主题公园,121.430832,29.298145
西园,浙江,宁波,宁波,0574,,西门口,天一街,景点,更多景点/周边游,121.538841,29.871628
范氏故居,浙江,宁波,宁波,0574,87293856,西门口,天一街10号天一阁内,景点,名人故居,121.539978,29.871416
东园,浙江,宁波,宁波,0574,,西门口,天一街,景点,更多景点/周边游,121.540092,29.870892
宁波经济文化资料馆,浙江,宁波,宁波,0574,,月湖盛园,偃月街月湖公园西8门东侧约90米,景点,博物馆,121.543724,29.870388
大方岳第,浙江,宁波,宁波,0574,,月湖盛园,广济街与镇明路交叉口西北100米,景点,更多景点/周边游,121.544884,29.869677
与你同行旅行社,浙江,宁波,宁波,0574,87743382,鄞州区,沧海路2858号,景点,旅行社,121.588207,29.834857
新航道商旅,浙江,宁波,宁波,0574,88221999,鄞州区,天童北路167-169号,景点,旅行社,121.559581,29.845451
菩提精舍,浙江,宁波,宁波,0574,,新大路沿线,华山路88号,景点,更多景点/周边游,121.834187,29.910067
中国国旅,浙江,宁波,宁波,0574,87202647,江北区,范江岸路52-1号,景点,旅行社,121.542069,29.892689
胜景国际旅游,浙江,宁波,宁波,0574,87745031,体育中心,民安路451号,景点,旅行社,121.588465,29.875335
宝中旅游,浙江,宁波,宁波,0574,88198667,海曙区,古林镇古林中心路156号,景点,旅行社,121.436904,29.831664
博翰艺术馆,浙江,宁波,余姚,0574,137****1418,余姚市其他,熊家街村马廊厦中心江路12号,景点,美术馆,121.107786,30.145646
天天商旅,浙江,宁波,宁波,0574,159****5024,海曙区,通途西路盛世郦都北区底商,景点,旅行社,121.465643,29.906993
