名称,省份,真实城市,市县区,区号,电话,区域,地址,大分类,小分类,经度,纬度
陈树人纪念馆,广东,广州,广州,020,87782436,中山二三路/东山口,署前路10号,景点,纪念馆,113.295311,23.122904
高剑父纪念馆,广东,广州,广州,020,81364905;138****1108,火车站/人民北路,盘福路朱紫街87号,景点,纪念馆,113.261337,23.136648
中青旅广州国际旅行社,广东,广州,广州,020,84232658,江南西,江南西路紫玉大街7号1楼,景点,旅行社,113.267213,23.093946
西汉南越王博物馆,广东,广州,广州,020,36182920,火车站/人民北路,解放北路867号,景点,博物馆,113.261017,23.137814
陈家祠广场,广东,广州,广州,020,81819653,中山七八路,中山七路恩龙里34号,景点,广场,113.24527,23.126013
广东科学馆,广东,广州,广州,020,39348080;28328305,北京路商业区,连新路171号,景点,陈列馆,113.262901,23.133289
广东省工艺美术珍品馆,广东,广州,广州,020,31952937,琶洲,新港东路2519号,景点,美术馆,113.40097,23.093704
广州博物馆,广东,广州,广州,020,83545253;83550627,东风中路/越秀公园,镇海路99号,景点,博物馆,113.266853,23.137623
广州动物园,广东,广州,广州,020,38377572,环市东路/区庄,先烈中路120号,景点,动物园,113.305367,23.140829
番禺大夫山森林公园,广东,广州,广州,020,34811381,钟村,禺山西路668号,景点,森林公园,113.308907,22.950661
东山湖公园,广东,广州,广州,020,87775672;87609086,沿江路/二沙岛,东湖路123号,景点,城市公园,113.292198,23.11507
荔湾湖公园,广东,广州,广州,020,81968601,中山七八路,昌华街道龙津西路155号,景点,城市公园,113.23333,23.121004
广州市流溪河国家森林公园,广东,广州,从化区,020,87844691;87843288,良口镇,良口镇流溪香雪大街105国道旁,景点,森林公园,113.782532,23.748215
人民公园,广东,广州,广州,020,,北京路商业区,连新路2号,景点,城市公园,113.264381,23.127102
石门国家森林公园,广东,广州,从化区,020,87850738,白水寨/派潭,温泉镇石门国家森林公园,景点,森林公园,113.786926,23.626333
广州市越秀公园,广东,广州,广州,020,86661950,东风中路/越秀公园,解放北路988号,景点,城市公园,113.263855,23.140207
珠江公园,广东,广州,广州,020,38858081,兴盛路/跑马场,金穗路900号,景点,城市公园,113.339005,23.120045
怀圣寺,广东,广州,广州,020,83333593,中山六路,光塔路56号,景点,宗教,113.259041,23.122866
光孝寺,广东,广州,广州,020,81088867,中山六路,光孝路109号,景点,宗教,113.25666,23.129211
六榕寺,广东,广州,广州,020,83392843,中山六路,六榕路87号,景点,宗教,113.260178,23.127842
眉山圣地,广东,广州,广州,020,,市桥,市桥街道黄编村大北路雅马哈电动车东100米,景点,宗教,113.371101,22.949238
南海神庙,广东,广州,广州,020,82222210,生活区/南岗,庙头村旭日街22号,景点,宗教,113.498079,23.080251
大元帅府纪念馆,广东,广州,广州,020,89012366;89012802,滨江路沿线,纺织路东沙街18号,景点,纪念馆,113.279213,23.110031
黄埔军校旧址纪念馆,广东,广州,广州,020,82201082;82201583,长洲岛,长洲街道军校路170号大院,景点,纪念馆,113.424751,23.086143
聚龙古村,广东,广州,广州,020,185****4033,芳村,芳村大冲口杏花大街,景点,古村古镇,113.240646,23.088139
农讲所旧址,广东,广州,广州,020,83333936,北京路商业区,中山四路42号（近地铁农讲所站西出口）,景点,革命旧址,113.276703,23.127094
宝墨园景区,广东,广州,广州,020,84746666,沙湾镇,紫坭村东安路,景点,园林,113.294289,22.894451
北回归线标志,广东,广州,从化区,020,,太平镇/太平商业街,广从南路北回归线公园,景点,现代建筑,113.487679,23.43932
天河飘绢,广东,广州,广州,020,81309810,天河北/广州东站,火车东站广场,景点,现代建筑,113.324715,23.146627
五仙观,广东,广州,广州,020,83323508,中山六路,惠福西路233号,景点,博物馆,113.259911,23.120649
余荫山房,广东,广州,广州,020,34822187,长隆/南村,南村镇北大街,景点,园林,113.395668,23.011353
广州长隆野生动物世界,广东,广州,广州,020,4008830083,长隆/南村,长隆度假区内,景点,野生动物园,113.315224,23.002363
洪秀全故居,广东,广州,广州,020,36966779;36861225,花都区,秀全街道如意街附近,景点,名人故居,113.172887,23.417059
白云山风景名胜区,广东,广州,广州,020,37222222,白云大道沿线,广园中路801号,景点,自然风光,113.279358,23.181887
芙蓉嶂风景区,广东,广州,广州,020,34354303,花都区,狮岭镇芙滨路,景点,自然风光,113.235611,23.503279
航天奇观,广东,广州,广州,020,,车陂/东圃,东圃大观路,景点,科技观光,113.408775,23.149334
广州番禺莲花山旅游区,广东,广州,广州,020,84861599;84861298,石楼,西门路18号,景点,自然风光,113.502617,22.986973
帽峰山景区,广东,广州,广州,020,87464696,太和镇,太和镇高屋村,景点,自然风光,113.462677,23.302616
沙面人才休闲岛,广东,广州,广州,020,81218288,沙面,沙面大街与沙面三街交叉口西南角,景点,步行街,113.244675,23.106758
云台花园,广东,广州,广州,020,37222222;66612888,麓湖公园,广园东路白云索道侧,景点,植物园,113.294426,23.155542
中国科学院华南植物园,广东,广州,广州,020,85232037,龙洞/岑村,天源路1190号,景点,植物园,113.36718,23.181938
广州长隆欢乐世界,广东,广州,广州,020,4008830083,长隆/南村,汉溪大道299号,景点,主题乐园,113.329819,22.998957
海珠博物馆,广东,广州,广州,020,34384021,江南大道沿线,宝岗大道中龙涎里2号之邓氏宗祠,景点,博物馆,113.260406,23.101048
中华全国总工会旧址纪念馆,广东,广州,广州,020,83832587,北京路商业区,越秀南路89号,景点,纪念馆,113.277914,23.119213
杨桃公园,广东,广州,广州,020,82564052,车陂/东圃,东圃镇前进村宦溪（近桃园中路）,景点,公园/广场,113.414009,23.112431
花都人民公园,广东,广州,广州,020,36981728,花都广场/区政府,公益大道东,景点,城市公园,113.22036,23.40807
晓港公园,广东,广州,广州,020,84474574,江南大道沿线,前进路146号,景点,城市公园,113.280708,23.096636
天河公园,广东,广州,广州,020,85525020,天河公园/上社,天园街道黄埔大道员村段,景点,城市公园,113.366241,23.128296
凤凰山森林公园,广东,广州,广州,020,,龙洞/岑村,渔沙坦村,景点,森林公园,113.389214,23.218857
百万葵园,广东,广州,南沙区,020,84956860;84956863,百万葵园/十九涌,万顷沙镇新垦15涌,景点,植物园,113.620102,22.628181
广州长隆国际大马戏,广东,广州,广州,020,4008830083,长隆/南村,汉溪大道西广州长隆旅游度假区内,景点,旅游项目/观光项目,113.331409,23.003339
东风公园,广东,广州,广州,020,37597320,越秀区,广州大道北199号,景点,公园/广场,113.31324,23.142658
中山大学北门广场,广东,广州,广州,020,,滨江路沿线,滨江东路,景点,广场,113.299644,23.103071
洲头咀公园,广东,广州,广州,020,,滨江路沿线,滨江西路,景点,城市公园,113.24585,23.101816
庄头公园,广东,广州,广州,020,,工业大道沿线,工业大道中,景点,城市公园,113.264557,23.079996
琶洲塔,广东,广州,广州,020,34310734,琶洲,琶洲街道新港东路新窖镇琶洲村,景点,历史建筑,113.375526,23.10129
曹崇恩雕塑园,广东,广州,广州,020,,海珠区,小洲东路203号,景点,公园/广场,113.363644,23.059394
赤岗塔,广东,广州,广州,020,,客村/赤岗,赤岗新市头村,景点,历史建筑,113.323429,23.101276
邓世昌纪念馆,广东,广州,广州,020,84391036;34384021,江南大道沿线,宝岗大道中龙涎里2号之邓氏宗祠,景点,纪念馆,113.260452,23.1012
南越王宫博物馆,广东,广州,广州,020,83896501,北京路商业区,中山四路316号,景点,博物馆,113.269814,23.126797
滴水岩森林公园,广东,广州,广州,020,84733636,沙湾镇,沙湾街道北村桃园路,景点,森林公园,113.315475,22.907301
广州兰圃,广东,广州,广州,020,86666199;86677255,火车站/人民北路,解放北路901号,景点,植物园,113.260468,23.143723
广州文化公园,广东,广州,广州,020,81290585,康王路,西堤二马路37号,景点,文化公园,113.251526,23.109844
青年公园,广东,广州,广州,020,81729177;81819021,西村/西场,南岸路5号,景点,公园/广场,113.228523,23.126587
南沙天后宫,广东,广州,南沙区,020,84981223,南沙区,天后路88号,景点,历史建筑,113.618454,22.756243
海印公园,广东,广州,广州,020,34298885;34298885,滨江路沿线,滨江东路498号,景点,城市公园,113.287933,23.106382
二沙岛,广东,广州,广州,020,,沿江路/二沙岛,广州大桥和海印大桥之间（近东山湖公园）,景点,自然风光,113.30571,23.10972
岭南会展览馆,广东,广州,广州,020,87353209;87351210,沿江路/二沙岛,白云街道二沙岛晴波路13号（近新荔枝湾）,景点,展览馆,113.303024,23.108065
七星岗公园,广东,广州,广州,020,,长隆/南村,南村镇市新公路与南村东线路交汇处西南角,景点,公园/广场,113.394432,22.994759
醉观公园,广东,广州,广州,020,81589510,芳村,芳村大道中275号,景点,城市公园,113.231239,23.099348
广州三元宫,广东,广州,广州,020,83551548,东风中路/越秀公园,洪桥街道应元路11号（中山纪念堂附近）,景点,宗教,113.263252,23.13492
无着庵,广东,广州,广州,020,3245103,北京路商业区,德政中路丽水坊50号,景点,宗教,113.276171,23.121641
海幢寺,广东,广州,广州,020,84399172;34376882,滨江路沿线,南华中路188号,景点,宗教,113.259148,23.105286
药洲遗址,广东,广州,广州,020,83352871,北京路商业区,教育路86号,景点,古代遗迹,113.265915,23.123585
西来初地,广东,广州,广州,020,,上下九商业区,西关下九路北侧西来正街,景点,步行街,113.247139,23.115412
南沙大角山海滨公园,广东,广州,南沙区,020,,南沙区,大角一路与滨海大道交叉口东北角,景点,城市公园,113.619225,22.74996
西城门瓮城遗址,广东,广州,广州,020,158****2123,中山七八路,中山七路与人民中路交汇处西城门瓮城遗址,景点,古代遗迹,113.254112,23.124857
清真先贤古墓,广东,广州,广州,020,86692743,火车站/人民北路,解放北路901号,景点,古代遗迹,113.259552,23.142281
东征阵亡烈士墓,广东,广州,广州,020,,长洲岛,东郊黄埔长洲岛万松岭,景点,烈士陵园,113.417038,23.083811
十九路军淞沪抗日阵亡将士陵园,广东,广州,广州,020,87047408,沙河/天平架/梅花园,水荫路113号,景点,烈士陵园,113.3097,23.144705
回教三忠墓,广东,广州,广州,020,,火车站/人民北路,解放北路清真先贤古墓东侧,景点,古代遗迹,113.260223,23.142319
南越国水闸遗址,广东,广州,广州,020,83323818,北京路商业区,西湖路63号光明广场负1楼,景点,古代遗迹,113.267326,23.12224
黄花岗起义指挥部旧址纪念馆,广东,广州,广州,020,83337700,北京路商业区,越华路小东营5号,景点,纪念馆,113.269991,23.129441
留耕堂,广东,广州,广州,020,84736168,市桥南,沙湾古镇景区内,景点,宗教,113.333704,22.904374
中共三大会址纪念馆,广东,广州,广州,020,87606531,中山二三路/东山口,恤孤院路3号,景点,纪念馆,113.296074,23.118942
长隆欢乐世界+长隆野生动物园（解放北路店）,广东,广州,广州,020,4008830083,长隆/南村,大石镇长隆旅游度假村内,景点,旅行社,113.334363,23.005701
广东中旅,广东,广州,广州,020,4008840011,沿江路/二沙岛,回龙路2号7楼电子资讯中心,景点,旅行社,113.267563,23.115147
华南农业大学-树木园,广东,广州,广州,020,,燕岭/五山,五山街五山路483号华南农业大学内汇景北路,景点,植物园,113.359918,23.153568
广之旅,广东,广州,广州,020,34268676,江南大道沿线,宝岗大道110号铺首层四铺,景点,旅行社,113.261284,23.102834
广之旅,广东,广州,广州,020,81336833,中山七八路,康王中路600号新光城市广场首层127、128号铺,景点,旅行社,113.248147,23.123907
广之旅,广东,广州,广州,020,82322363,车陂/东圃,中山大道268天河广场,景点,旅行社,113.403302,23.122014
广之旅国际旅行社,广东,广州,广州,020,87654733,区庄/动物园,东风东路828-836号东峻广场1楼01号,景点,旅行社,113.307004,23.131544
广之旅,广东,广州,广州,020,84592228,洛溪,大石镇洛溪新城105国道华进明苑43号商铺,景点,旅行社,113.305435,23.042032
广之旅,广东,广州,广州,020,84697776,番禺广场,市桥镇德兴路127、129号,景点,旅行社,113.377037,22.935497
广之旅国际旅行社,广东,广州,广州,020,34821122;34821133,长隆/南村,南村金江大道132号,景点,旅行社,113.386241,23.005361
广之旅,广东,广州,南沙区,020,34999618,大岗,大岗镇豪岗大道1号豪晖大厦102商铺,景点,旅行社,113.405037,22.800585
广之旅,广东,广州,广州,020,84777988,钟村,市广路祈福商业街11号,景点,旅行社,113.320333,22.976489
广之旅,广东,广州,广州,020,84827778,市桥南,桥南镇南效村桥南街南华路45号,景点,旅行社,113.366722,22.925026
南湖国旅,广东,广州,广州,020,81588379,芳村,东]北路560号茶窖湾商业大厦首层,景点,旅行社,113.228457,23.089615
南湖国旅,广东,广州,广州,020,38910310;38910311,天河城/体育中心,天河北路28号111铺,景点,旅行社,113.317259,23.140059
南湖国旅,广东,广州,广州,020,82325411,车陂/东圃,中山大道268号天河广场1楼G079铺,景点,旅行社,113.402934,23.122334
南湖国旅,广东,广州,广州,020,34361770;34361200,工业大道沿线,江燕路261号,景点,旅行社,113.278021,23.077791
南湖国旅,广东,广州,广州,020,34025724;34025774,客村/赤岗,新港中路489号A1-A2铺之一,景点,旅行社,113.329352,23.096643
英雄广场,广东,广州,广州,020,,中山二三路/东山口,中山三路25-27号,景点,广场,113.284058,23.126232
南湖游乐园,广东,广州,广州,020,87095635;87095637,白云区,同和路983号,景点,游乐场,113.334721,23.220851
千年古道遗址,广东,广州,广州,020,,北京路商业区,北京路步行街,景点,古代遗迹,113.268852,23.12487
荔湾区博物馆,广东,广州,广州,020,81939917,中山七八路,龙津西路逢源北街84号,景点,博物馆,113.235924,23.119979
广东省博物馆,广东,广州,广州,020,38046886;38046877,花城汇/高德置地,珠江东路2号,景点,博物馆,113.326424,23.114773
黄埔古港,广东,广州,广州,020,84135758,琶洲,琶洲街道石基路528号附近,景点,历史建筑,113.39415,23.088989
高第街,广东,广州,广州,020,,北京路商业区,人民街道北京路,景点,人文古迹,113.267433,23.119053
江南商业街,广东,广州,广州,020,84232736,江南大道沿线,江南大道中300号,景点,观光街区,113.276183,23.091773
岭南印象园,广东,广州,广州,020,84508106;84502903,大学城,大学城外环西路,景点,更多景点/周边游,113.405922,23.036114
黄埔区中山公园,广东,广州,广州,020,132****2050,长洲岛,长洲街道金洲北路与中山公园前路交口东150米（辛亥革命馆旁）,景点,城市公园,113.417633,23.072683
番禺广场,广东,广州,广州,020,,市桥,市桥街道清河东路319号,景点,广场,113.3843,22.933041
花都广场,广东,广州,广州,020,180****0867,花都广场/区政府,新华街道公益路22号,景点,广场,113.219704,23.400122
小洲村,广东,广州,广州,020,,海珠区,小洲艺术村,景点,古村古镇,113.355995,23.061024
逢源路历史文化街,广东,广州,广州,020,,中山七八路,逢源路,景点,步行街,113.239418,23.119768
詹天佑故居,广东,广州,广州,020,81377281,上下九商业区,恩宁路十二甫西街芽菜巷42号,景点,名人故居,113.239624,23.113171
广东科学中心,广东,广州,广州,020,39348080,大学城,大学城科普路168号,景点,科技馆,113.362579,23.039202
羊城之旅国际旅行社,广东,广州,广州,020,81309333,中山六路,惠福西路36-38号惠福大酒店6楼,景点,旅行社,113.255372,23.120552
广州塔,广东,广州,广州,020,89338222;89338225,客村/赤岗,阅江西路222号,景点,现代建筑,113.324532,23.106272
北京路步行街,广东,广州,广州,020,83195442,北京路商业区,北京路,景点,步行街,113.268967,23.121656
增豆园,广东,广州,广州,020,26286579,西村/西场,福州路8号,景点,城市公园,113.23867,23.148726
均和墟历史街区,广东,广州,广州,020,,嘉禾/人和,新石路附近,景点,步行街,113.264252,23.260609
黄埔荔枝公园,广东,广州,广州,020,82295608,大沙地,政府后面,景点,城市公园,113.460312,23.10824
十九涌,广东,广州,南沙区,020,,百万葵园/十九涌,海翔路,景点,自然保护区,113.649239,22.602816
广东铁青,广东,广州,广州,020,,沙河/天平架/梅花园,禺东西路,景点,旅行社,113.318916,23.153927
世界植物奇观,广东,广州,广州,020,85232037;85231556,龙洞/岑村,长兴街道华南植物园内（近琪琳轩）,景点,植物园,113.364296,23.181826
星海公园,广东,广州,广州,020,84833980,市桥,市桥环城中路120号,景点,公园/广场,113.370451,22.942755
基督教堂沙面堂,广东,广州,广州,020,81217950,沙面,沙面南街60号,景点,宗教,113.241493,23.106903
西焦生态公园,广东,广州,广州,020,,西村/西场,南源街道富力路42号,景点,城市公园,113.238991,23.134834
温泉苏东坡纪念馆,广东,广州,从化区,020,,温泉镇,温泉镇,景点,纪念馆,113.632599,23.616327
广州长隆飞鸟乐园,广东,广州,广州,020,84796100;4008830083,番禺区,大边村兴边街183号,景点,动物园,113.277489,23.026054
基督教光孝堂,广东,广州,广州,020,81087837,中山六路,光孝路29号,景点,宗教,113.255714,23.126188
基督教东山堂,广东,广州,广州,020,87776305,中山二三路/东山口,寺贝通津7-9号,景点,宗教,113.297294,23.12264
东山少爷公园,广东,广州,广州,020,,中山二三路/东山口,龟岗大马路与东华东路交口,景点,城市公园,113.294235,23.119694
汇豪社艺术馆,广东,广州,广州,020,38858699,兴盛路/跑马场,珠江新城马场路519号汇豪大厦3楼,景点,美术馆,113.342415,23.122396
一画坊,广东,广州,广州,020,85579683,天河公园/上社,黄埔大道中413号羊城创意产业园3-42幢,景点,展览馆,113.38223,23.11879
珠江走廊,广东,广州,广州,020,,滨江路沿线,滨江东路中大北门广场沿线,景点,河道观光,113.300537,23.103601
越秀南粤先贤公园,广东,广州,广州,020,,沿江路/二沙岛,白云街道晴澜路72号,景点,城市公园,113.316742,23.109722
千适国旅,广东,广州,广州,020,84402504,江南西,江南西路66号润汇大厦首层紫山大街2-5号,景点,旅行社,113.269661,23.094721
金马国旅,广东,广州,广州,020,83179762,天河城/体育中心,天河南街道体育东路13号,景点,旅行社,113.327881,23.128831
鲁迅纪念馆国民党一大旧址,广东,广州,广州,020,83838432,北京路商业区,大塘街道文明路215号,景点,历史建筑,113.27695,23.123889
基督教锡安堂,广东,广州,广州,020,81889054;81092403,中山六路,人民中路392号,景点,宗教,113.254143,23.122772
番禺玉虚宫,广东,广州,广州,020,,沙湾镇,沙湾古镇,景点,宗教,113.334007,22.904728
文塔,广东,广州,广州,020,81968601,中山七八路,泮溪酒家对面,景点,历史建筑,113.236824,23.120916
易发商业街,广东,广州,广州,020,84812388,市桥,繁华路（近市桥汽车站）,景点,步行街,113.363258,22.9412
万木草堂,广东,广州,广州,020,83396087,北京路商业区,中山四路长兴里3号,景点,历史建筑,113.271858,23.125589
金马国旅,广东,广州,广州,020,81480576;81350240,中山七八路,中山八路65-2,景点,旅行社,113.236428,23.124938
金马国旅,广东,广州,广州,020,34249005,江南大道沿线,江南大道中255号之2,景点,旅行社,113.276477,23.092167
金马国旅,广东,广州,广州,020,81946179,上下九商业区,多宝路308号,景点,旅行社,113.240768,23.116465
金马国旅,广东,广州,广州,020,83179762,市桥,市桥禺山大道北路口,景点,旅行社,113.365231,22.940291
第一次全国劳动大会旧址,广东,广州,广州,020,84411777,滨江路沿线,滨江西路230号,景点,古代遗迹,113.264191,23.110048
广东中旅,广东,广州,广州,020,,滨江路沿线,同福中路325-1号,景点,旅行社,113.266185,23.106515
龙眼洞森林公园,广东,广州,广州,020,87508636,龙洞/岑村,龙洞街道迎龙路龙洞第三工业区西侧,景点,森林公园,113.354782,23.20895
水果世界,广东,广州,广州,020,86183285,旺村/何棠下,九龙镇棠下村,景点,更多景点/周边游,113.536987,23.339746
十八罗汉山,广东,广州,南沙区,020,84994609,大岗,大岗镇繁荣路十八罗汉山,景点,森林公园,113.406372,22.786104
黄山鲁森林公园,广东,广州,南沙区,020,,南沙区,南沙街道登山路,景点,森林公园,113.571938,22.779337
石头记矿物园,广东,广州,广州,020,36865818,花都区,珠宝城大观园路1号,景点,主题乐园,113.161156,23.400597
美瀛商旅,广东,广州,广州,020,62628704;61223862,环市东路/区庄,建设大马路8号之3逸雅居中堂410室,景点,旅行社,113.28136,23.13416
和曦美术馆,广东,广州,广州,020,81216738,沙面,沙面北街35号,景点,美术馆,113.247391,23.107901
广州神农草堂中医药博物馆,广东,广州,广州,020,66282302;66282322,同和/京溪,同和街道沙太北路389号,景点,博物馆,113.337783,23.197213
创业公园,广东,广州,广州,020,82113290,中心城,科学城水西路,景点,城市公园,113.47625,23.183064
南沙蒲洲花园,广东,广州,南沙区,020,84988264,南沙区,港前大道南271号,景点,公园/广场,113.616508,22.761734
粤海关博物馆,广东,广州,广州,020,81013617,沙面,沿江西路29号,景点,历史建筑,113.251045,23.107279
假日通,广东,广州,广州,020,37591585,区庄/动物园,先烈中路75号穗丰大厦1楼,景点,旅行社,113.294426,23.136953
广东中旅,广东,广州,广州,020,38810750,天河北/广州东站,林乐路侨林街中旅商务大厦一楼广东中旅旅行社,景点,旅行社,113.329545,23.143335
广东中旅,广东,广州,广州,020,83600816;83600801,环市东路/区庄,淘金北路71-73号恒华阁1楼103铺,景点,旅行社,113.287134,23.143121
市农科院花都基地,广东,广州,广州,020,,花东,花东镇桑梓南路23号广州市农业科学研究所,景点,植物园,113.32196,23.445066
邓荫南墓园,广东,广州,广州,020,,环市东路/区庄,先烈南路25号,景点,烈士陵园,113.291351,23.1327
假日通,广东,广州,广州,020,86473818,西村/西场,环市西路西村环市西苑33号之101,景点,旅行社,113.238831,23.140804
和平国旅,广东,广州,广州,020,,沙河/天平架/梅花园,十二人民医院附近,景点,旅行社,113.313385,23.148735
市桥青少年宫,广东,广州,广州,020,84822599,市桥,光明南路1号（近新华书店）,景点,展览馆,113.363232,22.934197
假日通,广东,广州,广州,020,81358972,中山七八路,恩洲大巷193号（仁威庙斜对面）,景点,旅行社,113.236492,23.124179
广东圆玄道观,广东,广州,广州,020,36866199,花都区,迎宾大道西38号,景点,宗教,113.180115,23.399834
广东省文化馆,广东,广州,广州,020,87304634,天河区,水荫横路13号附近,景点,美术馆,113.312735,23.145345
天河儿童公园,广东,广州,广州,020,82277538,黄村/奥体,珠吉街道珠吉路,景点,公园/广场,113.431786,23.131405
广州义务植树公园,广东,广州,广州,020,,中心城,开源大道190号（广州生物医药与健康研究院北200米）,景点,城市公园,113.512314,23.162294
太阳风旅游,广东,广州,广州,020,83371997,东风中路/越秀公园,东风中路363号国信大厦605室,景点,旅行社,113.269949,23.131669
法雨寺,广东,广州,广州,020,82070944,中心城,岗荔街4号,景点,宗教,113.499786,23.151358
西溪简公祠,广东,广州,广州,020,,海珠区,瀛洲北路广州市海珠区瀛洲小学东南侧约50米,景点,宗教,113.357047,23.060277
赵泰来艺术宫,广东,广州,广州,020,,沙湾镇,沙湾镇紫坭村宝墨园内,景点,美术馆,113.293106,22.894276
凤凰古围,广东,广州,从化区,020,,白水寨/派潭,江埔街道双凤收费站附近,景点,历史建筑,113.672874,23.507332
筲箕窝,广东,广州,广州,020,,天河区,渔沙坦筲箕窝水库侧,景点,自然风光,113.397216,23.234926
熊猫国旅,广东,广州,广州,020,86337297,机场路沿线,机场路111号建发广场1楼1150铺,景点,旅行社,113.259651,23.169101
鲁迅纪念园,广东,广州,广州,020,83802780,中山二三路/东山口,东川路和白云路交界处,景点,纪念公园,113.286186,23.120016
保利世贸博览馆,广东,广州,广州,020,89661097,琶洲,琶洲街道新港东路1000号,景点,展览馆,113.365601,23.097206
西丽公园,广东,广州,广州,020,,市桥,长堤西路320-390号,景点,城市公园,113.354046,22.929201
孙中山故居,广东,广州,广州,020,,长洲岛,长洲岛,景点,名人故居,113.427994,23.076311
黄埔洪圣庙,广东,广州,广州,020,,鱼珠,长洲岛金洲北路30号,景点,宗教,113.438705,23.11237
广东国旅,广东,广州,广州,020,22013266,市桥南,南华路,景点,旅行社,113.358425,22.925331
海心沙,广东,广州,广州,020,,珠江新城,珠江新城临江大道,景点,城市公园,113.324501,23.110958
假日通,广东,广州,广州,020,84262840,滨江路沿线,江南大道中110号之七22铺,景点,旅行社,113.271162,23.101871
假日通,广东,广州,广州,020,85551784,天河公园/上社,黄埔大道中天河公园对面,景点,旅行社,113.362598,23.119944
假日通,广东,广州,广州,020,34151062,江南大道沿线,江南大道中珀丽酒店斜对面,景点,旅行社,113.276599,23.091999
华严寺,广东,广州,广州,020,86993026,花都区,芙蓉镇芙蓉大道华严寺,景点,宗教,113.223892,23.46277
五眼井,广东,广州,广州,020,,康王路,康王南路五眼井,景点,古代遗迹,113.247383,23.11532
河滨公园,广东,广州,从化区,020,87928268,街口/新世纪广场,河滨北路与董成路交叉口,景点,公园/广场,113.592117,23.548037
青云公园,广东,广州,从化区,020,,街口/新世纪广场,青云路青云公园,景点,城市公园,113.583183,23.544615
广州市地方志馆,广东,广州,广州,020,83570231,麓湖公园,广园中路801号,景点,陈列馆,113.269699,23.153545
广东华侨博物馆,广东,广州,广州,020,87353430;87353471,沿江路/二沙岛,烟雨路32号,景点,博物馆,113.305809,23.10858
1850创意园,广东,广州,广州,020,31021850,芳村,芳村大道东200号,景点,创意园区,113.24292,23.096127
南朝街,广东,广州,广州,020,,北京路商业区,北京街道起义路253号,景点,步行街,113.265601,23.124071
南湖国旅,广东,广州,广州,020,37388817,同和/京溪,广州大道北1968号合一城广场1楼A113铺,景点,旅行社,113.327975,23.191415
南湖国旅,广东,广州,广州,020,84045424;84045414,工业大道沿线,工业大道南金碧都市广场50-55号首层B09号铺,景点,旅行社,113.287076,23.067846
南海海战纪念碑公园,广东,广州,广州,020,,长洲岛,长洲岛,景点,纪念公园,113.427994,23.076317
广东画院,广东,广州,广州,020,81363294,火车站/人民北路,人民北路873号,景点,展览馆,113.25367,23.134333
珠江夜游西堤码头,广东,广州,广州,020,34377433,沿江路/二沙岛,沿江西路西堤码头,景点,城市观光,113.25222,23.107113
东山洋房,广东,广州,广州,020,,沿江路/二沙岛,新河浦路,景点,历史建筑,113.294662,23.118542
西苑小游园,广东,广州,广州,020,83742622,中山七八路,西湾路1号-10号,景点,公园/广场,113.243014,23.135975
海珠区文化馆,广东,广州,广州,020,34269706,江南大道沿线,宝岗路35-39号,景点,展览馆,113.262162,23.101202
天河区博物馆,广东,广州,广州,020,,沙河/天平架/梅花园,广州大道北大洲地2号,景点,博物馆,113.314423,23.149557
鹤之洲湿地公园,广东,广州,广州,020,,增城区,沿江东路中段,景点,自然风光,113.834578,23.251334
马鞍山公园,广东,广州,广州,020,,来又来/大润发,新华街道凤凰北路23-26号,景点,公园/广场,113.237137,23.395105
槎龙公园,广东,广州,广州,020,81793511,同德围,万龙二街,景点,城市公园,113.230827,23.180222
东平大押,广东,广州,广州,020,87659746,中山二三路/东山口,中山四路1号,景点,人文古迹,113.278503,23.126621
小蓬仙馆,广东,广州,广州,020,,芳村,芳村大道中275号醉观公园内,景点,历史建筑,113.229831,23.099221
龙津西西关大屋,广东,广州,广州,020,81836907,中山七八路,老城区街边巷筒,景点,历史建筑,113.236389,23.120657
潘鹤雕塑艺术园,广东,广州,广州,020,84165976,海珠区,后蛭鞔蠼57号,景点,自然风光,113.315908,23.068802
南村文化广场,广东,广州,广州,020,,长隆/南村,南村镇政府前,景点,广场,113.380868,23.00202
海鸥岛,广东,广州,广州,020,159****2371,番禺区,海鸥公路海鸥岛游客服务中心,景点,自然风光,113.521973,22.917818
二沙岛体育公园,广东,广州,广州,020,37580922,沿江路/二沙岛,晴波路与玉宇街交叉口东北,景点,公园/广场,113.312607,23.108694
黄埔古港北帝庙,广东,广州,广州,020,,琶洲,新港东路黄埔村的柳塘大街黄埔古港北帝庙,景点,宗教,113.396568,23.092773
发展公园,广东,广州,广州,020,,沿江路/二沙岛,白云街道二沙岛大通路,景点,城市公园,113.306221,23.109652
赤岗涌,广东,广州,广州,020,,客村/赤岗,赤岗北路与艺洲路交叉口旁,景点,城市公园,113.321964,23.093204
东濠涌博物馆,广东,广州,广州,020,,中山二三路/东山口,越秀北路78号,景点,博物馆,113.278748,23.128582
猎德大桥,广东,广州,广州,020,,兴盛路/猎德,猎德大道与临江大道交叉口,景点,现代建筑,113.333565,23.112087
花果山公园,广东,广州,广州,020,,花都体育馆/花果山公园,宝华路35号,景点,园林,113.219078,23.389284
花都可耕园,广东,广州,广州,020,,狮岭,狮岭镇芙蓉新扬村,景点,动植物园,113.206413,23.471018
和平国旅,广东,广州,广州,020,22075181,江南大道沿线,宝岗大道268号中新大厦2016室,景点,旅行社,113.263412,23.099022
青云书院艺术馆,广东,广州,广州,020,,北京路商业区,惠福东路389号,景点,美术馆,113.264496,23.120606
考试博物馆,广东,广州,广州,020,,北京路商业区,西湖路流水井,景点,博物馆,113.266647,23.123831
广府文化会馆,广东,广州,广州,020,83382895,北京路商业区,正南路锦荣街6号,景点,美术馆,113.270297,23.130097
黄花岗街军事科普博物馆,广东,广州,广州,020,,区庄/动物园,区庄村47号,景点,博物馆,113.295891,23.135771
华侨新村纪念馆,广东,广州,广州,020,,环市东路/区庄,爱国路25号-1,景点,纪念馆,113.290871,23.137552
上下九广场,广东,广州,广州,020,81248066;81248065,上下九商业区,下九路92号,景点,公园/广场,113.248238,23.114649
金花古庙,广东,广州,广州,020,,长洲岛,福聚坊大街,景点,宗教,113.431969,23.081129
深井古村,广东,广州,广州,020,,长洲岛,长洲街道,景点,古村古镇,113.40892,23.075764
陈李济中药博物馆,广东,广州,广州,020,84297862,东晓南路沿线,南洲街道广州大道南1688号,景点,博物馆,113.307564,23.068136
安达国际旅行社,广东,广州,广州,020,82634116,荔城,荔城镇岗前路12号,景点,旅行社,113.826692,23.284571
长晖国际旅行社有限公司,广东,广州,广州,020,83788567,沿江路/二沙岛,东华南路19号广湾18商务港,景点,旅行社,113.283089,23.117701
东方国旅,广东,广州,广州,020,135****7745,火车站/人民北路,流花路120号东方宾馆3号楼3302,景点,旅行社,113.248462,23.125482
港中旅,广东,广州,广州,020,,芳村,花地大道80号华苑商业广场D116,景点,旅行社,113.23503,23.096072
远通国际旅行社,广东,广州,广州,020,86338888,机场路沿线,机场路39号,景点,旅行社,113.259597,23.168097
国旅国际旅行社,广东,广州,广州,020,34321698,滨江路沿线,纺织路3号102,景点,旅行社,113.278184,23.11023
好时光旅行社,广东,广州,广州,020,61283341,中山二三路/东山口,三育路23号三寓宾馆3号B座4楼,景点,旅行社,113.30112,23.12815
教育国际旅行社,广东,广州,广州,020,83339688,北京路商业区,中山四路172号地下,景点,旅行社,113.273243,23.126763
金马旅行社,广东,广州,广州,020,62790069,北京路商业区,北京街道广仁路4号5楼,景点,旅行社,113.267853,23.125093
康辉国际旅行社,广东,广州,广州,020,83330000,沿江路/二沙岛,八旗二马路48号航运大厦,景点,旅行社,113.274165,23.115923
康辉国际旅行社,广东,广州,广州,020,83884678,沿江路/二沙岛,珠光街道沿江中路298号江湾商业中心A座2106室,景点,旅行社,113.278334,23.115054
康辉国际旅行社,广东,广州,广州,020,87385765,五羊新城,明月路15号1楼,景点,旅行社,113.309785,23.116615
康辉国际旅行社,广东,广州,广州,020,159****0852,市桥南,沙湾镇陈涌村沙湾所,景点,旅行社,113.340595,22.908434
林海旅行社,广东,广州,广州,020,83877259,环市东路/区庄,建设大马路13号,景点,旅行社,113.281058,23.133568
侨安旅行社,广东,广州,广州,020,83302199,北京路商业区,越华路118号,景点,旅行社,113.266319,23.129249
羊城之旅国际旅行社,广东,广州,广州,020,34109120;34085051,江南大道沿线,江南大道中168号海洋石油大厦内,景点,旅行社,113.27384,23.096487
粤侨国际旅行社,广东,广州,广州,020,33822209,车陂/东圃,车陂路95号瑞星大酒店3楼,景点,旅行社,113.390569,23.119589
粤侨国际旅行社,广东,广州,广州,020,29821455,中山二三路/东山口,越秀北路87-89号8楼,景点,旅行社,113.278016,23.129066
招商国际旅游,广东,广州,广州,020,61131833,东风中路/越秀公园,解放北路644号,景点,旅行社,113.262361,23.128961
职工旅行社,广东,广州,广州,020,,中山七八路,周门西街26号,景点,旅行社,113.237614,23.129634
中国旅行社,广东,广州,广州,020,,同和/京溪,广州大道北,景点,旅行社,113.324565,23.184335
中国旅行社,广东,广州,广州,020,87553718,中山六路,百灵路99-107号,景点,旅行社,113.259061,23.130621
中国青年旅行社,广东,广州,广州,020,38114022,天河北/广州东站,林和西路161号中泰国际广场b座34楼,景点,旅行社,113.32266,23.14984
中信国际旅行社,广东,广州,广州,020,,滨江路沿线,滨江西路184号,景点,旅行社,113.260862,23.108434
中信国际旅行社,广东,广州,广州,020,,石牌/龙口,龙口东路19号,景点,旅行社,113.339911,23.135216
珠江国际旅行社,广东,广州,广州,020,34903195,沿江路/二沙岛,长堤大马路201号,景点,旅行社,113.25706,23.10974
珠江国际旅行社,广东,广州,广州,020,83300110,沿江路/二沙岛,沿江中路195号沿江大厦2楼,景点,旅行社,113.269774,23.114734
海珠花园,广东,广州,广州,020,,江南大道沿线,前进路148号附近,景点,公园/广场,113.280883,23.099022
聚芳园,广东,广州,广州,020,,麓湖公园,麓湖北路5号,景点,公园/广场,113.280944,23.150556
名人山P,广东,广州,广州,020,,番禺区,鲤鱼岗路9号,景点,更多景点/周边游,113.495453,22.986292
时代美居,广东,广州,广州,020,,花都体育馆/花果山公园,宝华路39-1号,景点,公园/广场,113.215073,23.387123
海珠创意产业园,广东,广州,广州,020,,工业大道沿线,工业大道南大干围38号,景点,创意园区,113.292595,23.057884
宝庆大押旧址,广东,广州,广州,020,,沙面,多宝街宝庆新中约43号,景点,历史建筑,113.238609,23.116144
广东树木公园,广东,广州,广州,020,87031073,龙洞/岑村,龙洞街道广汕一路233号,景点,城市公园,113.376114,23.196526
基督教河南堂,广东,广州,广州,020,84422935,滨江路沿线,洪德路与洪德五巷23号,景点,宗教,113.251137,23.101139
基督教救主堂,广东,广州,广州,020,83335778,沿江路/二沙岛,万福路184号,景点,宗教,113.271294,23.119736
金马国旅,广东,广州,广州,020,83179762,市桥,市桥光明北路115号,景点,旅行社,113.361327,22.944937
磨碟沙公园,广东,广州,广州,020,,客村/赤岗,双塔路,景点,城市公园,113.333153,23.104359
文塔公园,广东,广州,广州,020,,长洲岛,长洲镇深井村,景点,公园/广场,113.411674,23.070759
庐江书院,广东,广州,广州,020,,北京路商业区,西湖路流水井29号,景点,历史建筑,113.266573,23.123923
星坊文化创意产业园,广东,广州,广州,020,34508360,洛溪,北环路自编11号,景点,创意园区,113.292809,23.0508
小楼人家旅游风景区,广东,广州,广州,020,82843718,增城区,小楼镇,景点,特色乡村,113.803676,23.410985
钱岗古村,广东,广州,从化区,020,,从化区,太平镇,景点,古村古镇,113.546288,23.430405
大岭村,广东,广州,广州,020,,番禺区,石楼镇,景点,特色乡村,113.477386,22.985239
羊城创意产业园,广东,广州,广州,020,87133752,天河公园/上社,黄埔大道中311号,景点,创意园区,113.384621,23.118925
石围塘火车站,广东,广州,广州,020,81891101,芳村,芳村大道中与岭南街交口往珠江方向前行300米,景点,人文古迹,113.230003,23.10531
西门口古城墙,广东,广州,广州,020,,东风中路/越秀公园,中山七路北侧,景点,古代遗迹,113.263474,23.136414
广州溪头村,广东,广州,从化区,020,,溪头村,新街良口镇,景点,古村古镇,113.866386,23.714556
番禺冼星海纪念馆,广东,广州,广州,020,84668662,钟村,银平路121号,景点,纪念馆,113.345099,22.952369
林则徐纪念园,广东,广州,广州,020,,沿江路/二沙岛,沿江东路416号,景点,纪念公园,113.286781,23.111889
港中旅,广东,广州,广州,020,,江南大道沿线,江南大道中72号,景点,旅行社,113.269966,23.105207
广东熊猫国际旅游有限公司,广东,广州,广州,020,87248620;87248992,同和/京溪,广州大道北京溪街白灰场南路1号京隆大厦501室,景点,旅行社,113.326087,23.185707
蕉石岭森林公园,广东,广州,广州,020,,荔城,增江街东方村,景点,森林公园,113.864388,23.286766
洛浦公园,广东,广州,广州,020,33002780,洛溪,105国道如意路,景点,公园/广场,113.303314,23.043703
基督教芳村堂,广东,广州,广州,020,81580441,芳村,信义路27号,景点,宗教,113.243561,23.094328
滨海公园,广东,广州,南沙区,020,,南沙区,环市南路,景点,公园/广场,113.619705,22.756136
春园,广东,广州,广州,020,87606531,越秀区,新河浦路24号,景点,革命旧址,113.295796,23.118246
东西境古村落,广东,广州,广州,020,,增城区,增城区东西境古村落,景点,古村古镇,113.813343,23.420279
港中旅国际旅行社,广东,广州,广州,020,83326254,北京路商业区,教育路116号首层,景点,旅行社,113.265514,23.124614
蕉门公园,广东,广州,南沙区,020,,金州商业区,南沙街道海滨路171号附近,景点,城市公园,113.52961,22.795685
广东国旅电子商务部,广东,广州,广州,020,4006008888,北京路商业区,解放北路618号国旅大厦7楼,景点,旅行社,113.262322,23.128432
会展公园,广东,广州,广州,020,,琶洲,琶洲岛琶洲大道,景点,城市公园,113.353851,23.101896
金刚禅寺,广东,广州,广州,020,81992925,罗冲围/金沙洲,沙凤钟村横五巷46号,景点,宗教,113.188675,23.147537
世博广东馆,广东,广州,广州,020,39348080,大学城,大学城西六路168号广东科学中心,景点,展览馆,113.362434,23.039389
广州国际生物岛,广东,广州,广州,020,84293998,海珠区,大学城外环西路大学城佳苑西北400米,景点,公园/广场,113.375877,23.06584
港中旅国际旅行社,广东,广州,广州,020,37650585,中山二三路/东山口,农林下路二号大院12-16号首层,景点,旅行社,113.295597,23.124587
港中旅,广东,广州,广州,020,,区庄/动物园,环市东路465号106铺,景点,旅行社,113.299936,23.134776
港中旅（广东）国际旅行社有限公司,广东,广州,广州,020,84193419,客村/赤岗,新港西路184号之十,景点,旅行社,113.308217,23.095149
资政大夫祠,广东,广州,广州,020,86903863,花都区,新华街道花31路,景点,古代遗迹,113.191637,23.386593
张民达先生墓道,广东,广州,广州,020,,环市东路/区庄,先烈中路,景点,古代遗迹,113.302145,23.142965
叠翠园,广东,广州,广州,020,,海珠区,螺旋大道与星际一路交叉口东北200米,景点,城市公园,113.37716,23.067954
揽胜园,广东,广州,广州,020,,海珠区,广州国际生物岛内,景点,城市公园,113.374779,23.064166
假日通,广东,广州,广州,020,81068114,中山七八路,康王北路934号,景点,旅行社,113.247643,23.127383
河岛公园,广东,广州,从化区,020,,街口/新世纪广场,河滨北路,景点,城市公园,113.594383,23.548834
美术学院大学城美术馆,广东,广州,广州,020,39352149,大学城,大学城外环西路168号,景点,美术馆,113.384262,23.03594
旅日华侨楼,广东,广州,广州,020,,琶洲,黄埔村慵街8号,景点,历史建筑,113.396538,23.091349
新天地国际旅行社,广东,广州,广州,020,83809969,中山二三路/东山口,华乐路20号,景点,旅行社,113.286637,23.13381
流花展馆,广东,广州,广州,020,,火车站/人民北路,人民北路交易大厦,景点,展览馆,113.258179,23.142309
金马国际旅行社,广东,广州,广州,020,83192777,北京路商业区,起义路173号7楼,景点,旅行社,113.263962,23.120592
中易旅游,广东,广州,广州,020,61138246,天河城/体育中心,天河路351号外经贸大厦30楼3003-3010室,景点,旅行社,113.329022,23.13405
关帝岗,广东,广州,广州,020,84799177,大石,大石镇岗东路88号,景点,城市公园,113.30513,23.022009
永泰公园,广东,广州,广州,020,,白云大道沿线,永平街道永泰村元下田三路（近地铁三号线永泰站A出口）,景点,城市公园,113.305031,23.214254
青之旅国际旅行社,广东,广州,广州,020,61136259;61136213,沿江路/二沙岛,白云路38号红云大厦4楼,景点,旅行社,113.284325,23.118858
和平国旅,广东,广州,广州,020,66690596,环市东路/区庄,黄花岗街道环市东路450号华信中心14楼1402室,景点,旅行社,113.298965,23.134285
中信国际旅行社,广东,广州,广州,020,4006183933,中山二三路/东山口,竹丝岗二马路39号中航大厦403,景点,旅行社,113.295916,23.128786
辛亥革命纪念馆,广东,广州,广州,020,82525897,长洲岛,长洲岛金洲北路563号,景点,纪念馆,113.420357,23.072058
东方国旅,广东,广州,广州,020,135****7745,东晓南路沿线,晓园北路,景点,旅行社,113.279877,23.08843
922宏信创意园,广东,广州,广州,020,81899922;81575922,芳村,冲口街道芳村大道东杏花大街146号,景点,创意园区,113.245674,23.088938
广东省中国青年旅行社,广东,广州,广州,020,87304989;87304199,中山二三路/东山口,三育路东山宾馆3号楼7楼,景点,旅行社,113.30039,23.12947
广州东方博物馆,广东,广州,广州,020,39139778,石楼,石楼镇莲花山沿江街98号,景点,博物馆,113.49691,22.950245
猎人坊风情街,广东,广州,广州,020,38099888,兴盛路/跑马场,珠江新城猎德大道,景点,步行街,113.331932,23.114773
沙湾古镇,广东,广州,广州,020,84730318,市桥南,沙湾镇大巷涌路64号,景点,古村古镇,113.331123,22.904261
国彩艺术馆,广东,广州,广州,020,87352206,滨江路沿线,二沙岛晴波路11号,景点,美术馆,113.302948,23.1078
广东中旅,广东,广州,广州,020,89081262,工业大道沿线,工业大道北82号82号之二富力现代首层,景点,旅行社,113.257941,23.091631
天客旅行社,广东,广州,广州,020,29122682,中山七八路,西华路134号创新科技院创意楼606-608室,景点,旅行社,113.245685,23.132525
平和大押,广东,广州,广州,020,86200757,嘉禾/人和,均禾一街,景点,历史建筑,113.262233,23.255313
周氏大宗祠,广东,广州,广州,020,,龙归镇,太和镇南村南岭中路,景点,宗教,113.294296,23.281494
石马桃花公园,广东,广州,广州,020,,均禾,马岗岭街67号,景点,城市公园,113.256447,23.267256
彭加木公园,广东,广州,广州,020,81999119,同德围,槎溪大道15号,景点,城市公园,113.22924,23.178272
升平社学,广东,广州,广州,020,,石井,升平下街11号,景点,历史建筑,113.239044,23.206556
玉岩书院,广东,广州,广州,020,,中心城,峰寺高架桥北,景点,历史建筑,113.525688,23.185591
水西村,广东,广州,广州,020,,中心城,萝岗镇,景点,古村古镇,113.486679,23.19269
狮子山公园,广东,广州,广州,020,,狮岭,平步大道雅宝新城后山,景点,公园/广场,113.178688,23.435747
海珠梁氏宗祠,广东,广州,广州,020,84135758;34046520,琶洲,新港东路黄埔村埠康里6号,景点,宗教,113.39312,23.089462
胡氏宗祠,广东,广州,广州,020,,嘉禾/人和,黄埔古港垂思街,景点,宗教,113.268731,23.245341
亚运文化村,广东,广州,广州,020,,石楼,石楼镇浮莲路99号,景点,城市公园,113.49675,22.955223
大浮莲岗公园,广东,广州,广州,020,,石楼,石楼镇浮莲路,景点,城市公园,113.499229,22.962091
白云滨江公园,广东,广州,广州,020,,罗冲围/金沙洲,金沙街道彩滨中路与环洲三路交汇处附近,景点,城市公园,113.215126,23.159157
曾氏大宗祠,广东,广州,广州,020,,钟落潭,龙岗街114号附近,景点,宗教,113.382454,23.392694
石门观音庙,广东,广州,广州,020,,石井,庆丰村内,景点,宗教,113.222466,23.213015
红山村,广东,广州,广州,020,180****2128,花都区,梯面镇红山村民委员会,景点,特色乡村,113.28006,23.578854
长洲一号涌,广东,广州,广州,020,,长洲岛,军校路170号大院,景点,城市公园,113.42437,23.086739
宝趣玫瑰世界,广东,广州,从化区,020,87907777,温泉镇,城郊街西河村,景点,植物园,113.584366,23.624538
太和文化广场,广东,广州,广州,020,136****4652,太和镇,太营路43号,景点,公园/广场,113.354797,23.295301
珠江美术馆,广东,广州,广州,020,62383999,客村/赤岗,赤岗北路珠江帝景灏景轩A座首层,景点,美术馆,113.326141,23.104494
广印创意产业园,广东,广州,广州,020,,东晓南路沿线,燕子岗南路83号人民印刷厂内,景点,创意园区,113.279266,23.075033
职工国际旅行社,广东,广州,广州,020,34351955,滨江路沿线,同福东路644号天一酒店1楼,景点,旅行社,113.269312,23.10604
陈寅恪故居,广东,广州,广州,020,84112421,新港西路沿线,新港西路135号中山大学南校区内东北区309号2楼,景点,名人故居,113.299423,23.096516
广弘中旅国际旅行社有限公司,广东,广州,广州,020,87278669;87278839,燕岭/五山,燕岭路120号916房,景点,旅行社,113.327411,23.158862
许广平故居,广东,广州,广州,020,,北京路商业区,高第街许地巷37号,景点,纪念馆,113.266176,23.119176
广弘中旅,广东,广州,广州,020,66699303,环市东路/区庄,先烈中路102号华盛大厦北塔2103-2105,景点,旅行社,113.301065,23.141141
远景国旅,广东,广州,广州,020,81072288,中山七八路,西华路525号新川大厦16楼,景点,旅行社,113.253029,23.129349
张九龄纪念公园,广东,广州,广州,020,,石井,金碧南路与石槎路交口西100米,景点,纪念公园,113.24147,23.200796
许地,广东,广州,广州,020,,北京路商业区,人民街道威利斯商业广场D座大南路82号,景点,步行街,113.266081,23.118341
中心湖公园,广东,广州,广州,020,,大学城,南三路与环湖路交汇处,景点,城市公园,113.394218,23.049557
大江埔古村,广东,广州,从化区,020,,江埔,江埔镇大江埔村内,景点,古村古镇,113.60334,23.544859
深井公园,广东,广州,广州,020,132****2050,长洲岛,丛桂东横街16号,景点,城市公园,113.412636,23.072374
凌氏宗祠,广东,广州,广州,020,,长洲岛,深井村岐西坊6号,景点,宗教,113.409485,23.072008
正果寺,广东,广州,广州,020,26224556,增城区,正果镇正桥街18号,景点,宗教,113.895688,23.418764
上涌果树公园,广东,广州,广州,020,,海珠区,新蛭髀68号,景点,城市公园,113.307771,23.07495
佰信国际旅行社,广东,广州,广州,020,135****1252,车陂/东圃,汉溪大道东保利大都汇A区1308室（近地铁汉溪长隆站）,景点,旅行社,113.390579,23.119542
团一大广场,广东,广州,广州,020,,沿江路/二沙岛,越秀南路,景点,广场,113.278076,23.118582
西园,广东,广州,广州,020,83054078,市桥,市桥解放路,景点,公园/广场,113.358475,22.936222
增江画廊,广东,广州,广州,020,,增城区,荔湖街道景观大道与林屋村前路交叉口东北150米,景点,自然风光,113.825989,23.256626
凯撒旅游,广东,广州,广州,020,28387555,天河城/体育中心,天河路230-232号万菱国际中心9楼,景点,旅行社,113.329107,23.132827
玉树公园,广东,广州,广州,020,,科学城/萝岗高德汇,联和街道揽月路与科学大道交叉口（近科学大道）,景点,城市公园,113.441589,23.163307
太平洋国旅,广东,广州,广州,020,82289839,三元里,三元里大道718号7158-7159房,景点,旅行社,113.253364,23.166923
大沙河湿地公园,广东,广州,广州,020,,荔湾区,中南街道海中北路,景点,自然风光,113.198494,23.064069
草暖公园,广东,广州,广州,020,86666199,火车站/人民北路,环市西路187号,景点,公园/广场,113.261032,23.146835
星海体育公园,广东,广州,广州,020,39997222,番禺区,迎宾路218、220、222号,景点,城市公园,113.407767,23.02408
莲塘春色,广东,广州,广州,020,82622632,增城区,荔城街莲塘村上莲塘路,景点,更多景点/周边游,113.843651,23.35054
明远楼,广东,广州,广州,020,,中山二三路/东山口,越秀中路125号大院内,景点,历史建筑,113.277412,23.124914
康辉旅行社,广东,广州,广州,020,85591999,北京路商业区,北京街道广卫路23号,景点,旅行社,113.267855,23.125093
圣堂山公园,广东,广州,广州,020,,长洲岛,金洲南路深井古村南田大街1号,景点,城市公园,113.406754,23.070194
螺涌公园,广东,广州,广州,020,,罗冲围/金沙洲,松洲街道罗冲围螺涌北路螺涌工业区,景点,城市公园,113.226517,23.153744
阳光假日国旅,广东,广州,广州,020,83340162;83344891,北京路商业区,广卫路2号广卫商务大厦6楼、18楼1811室,景点,旅行社,113.267996,23.127676
名骏旅行社,广东,广州,广州,020,81262187,中山七八路,荔湾路小梅大街33号皇上皇大厦A804,景点,旅行社,113.246524,23.130883
铁幕画廊,广东,广州,广州,020,,天河公园/上社,员村四横路128号红专厂艺术区F9室,景点,展览馆,113.370649,23.110849
海南海之缘国际旅行社,广东,广州,广州,020,4008600192;139****5667,机场路沿线,棠景街道乐嘉路宏景街2楼AA202室,景点,旅行社,113.254829,23.166725
省港罢工纪念馆,广东,广州,广州,020,,沿江路/二沙岛,越秀南路,景点,纪念馆,113.277328,23.117886
珠江国际旅行社总社,广东,广州,广州,020,66603674;83374038,沿江路/二沙岛,东园路33号首层,景点,旅行社,113.276675,23.116787
星海假期旅行社,广东,广州,广州,020,83297619,沿江路/二沙岛,八旗二马路48号广东航运大厦5层,景点,旅行社,113.273773,23.116074
广州市花都革命烈士陵园,广东,广州,广州,020,133****4252,花都体育馆/花果山公园,体育路7号,景点,烈士陵园,113.220543,23.382202
广裕祠,广东,广州,从化区,020,,从化区,太平镇钱岗古村,景点,宗教,113.546391,23.430741
气象卫星地面站,广东,广州,广州,020,87726672,燕岭/五山,东莞庄路280号,景点,科技馆,113.344444,23.161531
广东省中国青年旅行社,广东,广州,广州,020,83373273,中山七八路,中山八路23号富力商贸大厦7楼703室,景点,旅行社,113.239812,23.125232
萝岗区儿童公园,广东,广州,广州,020,,萝岗万达广场,联和街道水西路暹岗山庄对面,景点,游乐场,113.469543,23.172934
大都市国际旅行社,广东,广州,广州,020,84121911,北京路商业区,广卫路2号广卫商务大厦1216室,景点,旅行社,113.267884,23.127614
海南辉煌国际旅行社,广东,广州,广州,020,87663662,五羊新城,寺右新马路19号长城大厦907,景点,旅行社,113.305548,23.119638
海珠国家湿地公园,广东,广州,广州,020,89638189,海珠区,新蛑新妨潭立交,景点,自然风光,113.3386,23.078159
永善村,广东,广州,广州,020,,石,石镇,景点,古村古镇,113.459922,22.957652
清新假期旅行社,广东,广州,广州,020,3667680,江南西,宝岗大道杏园大街27号,景点,旅行社,113.266006,23.095246
康辉国际旅行社,广东,广州,广州,020,36076999,三元里,矿泉街道三元里大道268号三元里国际都会广场14楼（近地铁三元里站B出口）,景点,旅行社,113.254525,23.161735
广州市消防局旧址,广东,广州,广州,020,83390940,北京路商业区,文明路47号,景点,历史建筑,113.270265,23.121825
毛泽东旧居遗址,广东,广州,广州,020,,中山二三路/东山口,庙前西街36号,景点,名人故居,113.293114,23.122004
享度旅游,广东,广州,广州,020,4008313800,江南西,沙园街道江南西路28号南油写字楼804室,景点,旅行社,113.273889,23.095199
广州机器局旧址,广东,广州,广州,020,,北京路商业区,德政中路清水濠聚仁坊,景点,历史建筑,113.274438,23.121258
广州起义史迹八旗会馆遗址,广东,广州,广州,020,,沿江路/二沙岛,东堤二马路30号附近,景点,古代遗迹,113.276016,23.116116
羊城之旅国际旅行社,广东,广州,广州,020,81197810,火车站/人民北路,人民北路829号环球广场611-713单元,景点,旅行社,113.254273,23.129323
广州佰粤旅行社公司,广东,广州,广州,020,139****2391,长隆/南村,迎宾路万博中心A2栋1-2楼,景点,旅行社,113.3422,23.00856
广东外事博物馆,广东,广州,广州,020,81219772,沙面,沙面南街20号,景点,博物馆,113.24823,23.10622
佰旅旅行社,广东,广州,广州,020,29123384,江南大道沿线,宝岗大道268号1314室,景点,旅行社,113.263311,23.099141
大都市国际旅行社,广东,广州,从化区,020,87975762;87975763,街口/新世纪广场,城郊街向阳大道城市印象花园四栋105号,景点,旅行社,113.594928,23.553938
广东青旅,广东,广州,广州,020,87346038,沿江路/二沙岛,八旗二马路48号近沿江中路,景点,旅行社,113.273812,23.116054
广东省农民协会旧址,广东,广州,广州,020,,中山二三路/东山口,中山三路东皋大道礼兴街6号,景点,历史建筑,113.280641,23.128371
南浦文化创意产业园,广东,广州,广州,020,,南浦,南浦岛北岸,景点,创意园区,113.27803,23.036978
天后庙,广东,广州,广州,020,,花城汇/高德置地,猎德西浦大街2号,景点,宗教,113.330612,23.114073
康辉旅行社,广东,广州,广州,020,66681159,三元里,三元里大道瑶丽酒店220房,景点,旅行社,113.254521,23.161711
荔湾观音庙,广东,广州,广州,020,,芳村,坑口大街坑口新村69号,景点,宗教,113.237099,23.074654
康辉旅行社,广东,广州,广州,020,,江南西,江南中街道江南西路紫琪大街4号,景点,旅行社,113.269882,23.09537
白云公园,广东,广州,广州,020,,机场路沿线,云城西路,景点,公园/广场,113.271187,23.182232
广州志愿者公园,广东,广州,广州,020,,工业大道沿线,天鹅街13号,景点,城市公园,113.251282,23.091393
牛头山,广东,广州,广州,020,,黄埔区,联和街道艺术家村（近木棉东街）,景点,自然风光,113.434578,23.208397
陈田花园,广东,广州,广州,020,,白云大道沿线,白云大道北陈田苗圃地块,景点,植物园,113.292198,23.210373
国民政府旧址,广东,广州,广州,020,,北京路商业区,越华路118号,景点,历史建筑,113.266279,23.129199
银排岭公园,广东,广州,广州,020,,龙洞/岑村,广汕一路297号,景点,城市公园,113.380638,23.195295
龙眼洞抗清遗址公园,广东,广州,广州,020,82563668,龙洞/岑村,迎新路,景点,纪念公园,113.366538,23.197958
黄陂生态湿地园,广东,广州,广州,020,,黄埔区,圣堂山公园联和东路,景点,公园/广场,113.430155,23.190428
卓旅旅行社,广东,广州,广州,020,22104717;186****0396,大学城,大学城商业北区N3-105号,景点,旅行社,113.383983,23.061193
荔枝红温泉庄园,广东,广州,从化区,020,87842818;37951318,碧水湾/碧水新村,良口御泉大道338号,景点,温泉,113.711472,23.691336
广东中旅,广东,广州,广州,020,81033900,中山七八路,荔湾路133号,景点,旅行社,113.244431,23.132201
七彩旅游,广东,广州,广州,020,84412446,滨江路沿线,江南大道中后街10号102之2,景点,旅行社,113.273094,23.096814
龙母庙,广东,广州,广州,020,,兴盛路/跑马场,猎德龙母庙,景点,宗教,113.334358,23.114088
主山冯公祠,广东,广州,广州,020,,琶洲,逢源居9号,景点,宗教,113.394931,23.090501
郭氏大宗祠,广东,广州,广州,020,,芳村,东]街东]社区龙溪东路仁秀坊185号,景点,宗教,113.222339,23.079579
亚运会亚残运会博物馆,广东,广州,广州,020,,天河城/体育中心,天河南街道体育西路42号,景点,博物馆,113.322538,23.138568
千适国旅,广东,广州,广州,020,81251677,中山七八路,中山八路65号1022铺,景点,旅行社,113.236508,23.124826
芳村中市谢家祠,广东,广州,广州,020,,芳村,中市南街,景点,宗教,113.238438,23.096258
荔湾简氏宗祠,广东,广州,广州,020,,芳村,汾水大街61号-67号,景点,宗教,113.226179,23.087679
广弘中旅旅行社,广东,广州,广州,020,,车陂/东圃,中山大道中38号,景点,旅行社,113.394472,23.123832
科技关关通商旅中心,广东,广州,广州,020,61308558,天河北/广州东站,广州东站火车站3号门,景点,旅行社,113.323775,23.150385
小二票务,广东,广州,广州,020,135****3837,番禺广场,富华东路296号创润大厦5楼A012-017,景点,旅行社,113.377472,22.946119
南湖国旅,广东,广州,广州,020,83337822;83171954,中山七八路,逢源街道中山八路富力商贸大厦首层,景点,旅行社,113.241233,23.124946
农艺创意园,广东,广州,广州,020,,白云区,白云山风景区内,景点,创意园区,113.29514,23.183218
粤侨签证中心,广东,广州,广州,020,83812162,中山二三路/东山口,越秀北路粤豪大厦4楼408室,景点,旅行社,113.278061,23.129011
梁询故居,广东,广州,广州,020,,琶洲,黄埔村吉辰大街5号,景点,名人故居,113.394592,23.089892
何仙姑景区,广东,广州,广州,020,82849116,增城区,小楼镇,景点,更多景点/周边游,113.826727,23.379064
南湖国旅,广东,广州,广州,020,81728161;81727771,机场路沿线,机场路111号144号铺,景点,旅行社,113.258976,23.168316
广州雕塑公园,广东,广州,广州,020,86351663,越秀区,下塘西路545号,景点,文化公园,113.270546,23.148788
中国十八先贤铜像广场,广东,广州,广州,020,,新港西路沿线,新港西路135号中山大学南校区,景点,广场,113.297417,23.096258
中国青年旅行社,广东,广州,广州,020,28849868;28849822,环市东路/区庄,先烈中路102号华盛大厦北塔1505-1507,景点,旅行社,113.300944,23.140934
锦粤旅行社,广东,广州,广州,020,61291688,五羊新城,寺右新马路4号长城大厦9楼,景点,旅行社,113.305501,23.119701
快乐出发,广东,广州,广州,020,86311821;86311820,机场路沿线,机场路棠景街6号,景点,旅行社,113.256633,23.173843
玉华堂,广东,广州,广州,020,,滨江路沿线,怡乐路33号嘉仕花园2楼,景点,宗教,113.295715,23.102645
拜庭许大夫家庙,广东,广州,广州,020,,北京路商业区,高第街许地41号后座,景点,宗教,113.266386,23.119306
春秋旅游,广东,广州,广州,020,83380000,江南大道沿线,江南大道中路153号A05房,景点,旅行社,113.271456,23.101946
天马国旅,广东,广州,广州,020,,车陂/东圃,车陂路413号天朗明居101铺,景点,旅行社,113.390983,23.125054
狮山公园,广东,广州,广州,020,,鱼珠,中山大道东,景点,公园/广场,113.442238,23.099064
流花西苑,广东,广州,广州,020,86664095,中山七八路,站前街道东风西路132号,景点,城市公园,113.244827,23.137613
永和文化中心,广东,广州,广州,020,,永和镇,荔园大道金港湾幼儿园东北侧约90米,景点,展览馆,113.594514,23.176084
新塘滨江公园,广东,广州,广州,020,,新塘,新塘镇,景点,城市公园,113.619188,23.106418
坑贝村,广东,广州,广州,020,,增城区,坑贝村,景点,古村古镇,113.650269,23.277539
兰溪森林公园,广东,广州,广州,020,,增城区,正果镇X293号（兰溪中心路）,景点,森林公园,113.951965,23.374943
凤凰山公园,广东,广州,广州,020,,荔城,西角里40号,景点,公园/广场,113.836639,23.287127
叶岭村文化室,广东,广州,广州,020,,增城区,永宁街叶岭村段心街一号叶岭村村委会附近,景点,展览馆,113.600823,23.232784
永庆古庵,广东,广州,广州,020,,增城区,增派公路与棠村二路交叉路口往西北约110米,景点,宗教,113.833619,23.329237
新塘倚岩寺,广东,广州,广州,020,82778746,新塘,港口大道石巷倚岩寺,景点,宗教,113.600409,23.10756
广之旅国际旅行社,广东,广州,广州,020,82882255,新好景/大润发,新塘广深大道西11号新好景大酒店西楼首层,景点,旅行社,113.602683,23.122243
西洲村文化室,广东,广州,广州,020,,新塘,新塘镇西洲大道3号,景点,展览馆,113.581313,23.101473
增城东湖公园,广东,广州,广州,020,,荔城,增江街道东湖东路,景点,城市公园,113.849602,23.28487
崔太师祠,广东,广州,广州,020,,增城区,坑呗村丞相路一巷1号,景点,宗教,113.650394,23.279815
白湖公园,广东,广州,广州,020,,增城区,增江街道一一九省道村尾段,景点,城市公园,113.846519,23.360925
华光神庙,广东,广州,广州,020,,开发区东区,水南大道东14号对面,景点,宗教,113.559036,23.105303
九如村文化室,广东,广州,广州,020,,永和镇,新和北路宁西街道九如小学东侧约100米,景点,展览馆,113.633805,23.183965
新塘镇白江村东宁社文化中心,广东,广州,广州,020,,新塘,新塘镇东宁东街1号,景点,展览馆,113.600146,23.113166
新墩村文化室,广东,广州,广州,020,,开发区东区,新墩大道50号,景点,展览馆,113.559484,23.110354
太平村文化室,广东,广州,广州,020,,增城区,东厂村前二巷与东厂村前路交叉口南150米,景点,展览馆,113.76423,23.24619
增城公园,广东,广州,广州,020,82640738,东汇城/人人乐,荔城街道光明西路7号,景点,城市公园,113.821648,23.286915
新城公园,广东,广州,广州,020,,永和镇,永和镇熊岭路与永贤路交口,景点,公园/广场,113.58773,23.182817
基督教堂,广东,广州,广州,020,82746674,荔城,民主街2号,景点,宗教,113.838509,23.288899
和平国旅,广东,广州,广州,020,82652277,荔城,荔城街园圃路53号,景点,旅行社,113.828671,23.284341
刘家村文化室,广东,广州,广州,020,,白水寨/派潭,256省道刘家村委会附近,景点,展览馆,113.76925,23.4864
石湖公园,广东,广州,广州,020,,增城区,田心西八巷,景点,城市公园,113.739542,23.209582
初溪休闲公园,广东,广州,广州,020,,增城区,初溪码头西侧,景点,城市公园,113.840884,23.223482
岗尾村文化室,广东,广州,广州,020,,沙埔镇,岗尾街楼亭园巷11号,景点,展览馆,113.665733,23.161443
东岳庙,广东,广州,广州,020,,荔城,城北路与怡丰路交叉口西南50米,景点,景点/周边游,113.834677,23.29548
麻荽逦幕室,广东,广州,广州,020,,增城区,S119麻菪⊙南侧约110米,景点,展览馆,113.901344,23.455614
三忠古庙,广东,广州,广州,020,,增城区,256省道与291县道交叉口东南200米,景点,宗教,113.834855,23.330605
宁西广场,广东,广州,广州,020,,沙埔镇,朱宁路19号东北方向130米,景点,广场,113.660866,23.221712
黄何乡村公园,广东,广州,广州,020,,增城区,海坑街与新围一街交叉路口往西南约110米,景点,城市公园,113.934892,23.471444
郑中钧故居,广东,广州,广州,020,,增城区,新村路与940县道交叉口西南100米,景点,名人故居,113.680869,23.424919
中新镇文化站,广东,广州,广州,020,32976399,中新镇,中福南路17号,景点,展览馆,113.622826,23.29204
霞余村,广东,广州,广州,020,,荔城,增江街道霞余路附近,景点,古村古镇,113.840659,23.269819
番丰村文化室,广东,广州,广州,020,,增城区,380省道正果镇番丰村经济联合社附近,景点,展览馆,113.890381,23.41947
金福星广场,广东,广州,广州,020,82693326,新塘,新塘大道中88号,景点,公园/广场,113.609985,23.118162
拖罗村文化室,广东,广州,广州,020,,白水寨/派潭,Y278拖罗小学西南侧约120米,景点,展览馆,113.721899,23.483342
正果镇月亮湾公园,广东,广州,广州,020,,增城区,正果大桥以西,景点,城市公园,113.885383,23.41873
西瓜岭村文化室,广东,广州,广州,020,,增城区,荔新公路辅路西50米,景点,展览馆,113.754838,23.239694
广东省中国青年旅行社,广东,广州,广州,020,26250150;26250225,新塘,海关大道锦绣银苑旁,景点,旅行社,113.603555,23.106195
大封门水库,广东,广州,广州,020,,白水寨/派潭,派潭镇302乡道,景点,现代建筑,113.818039,23.583139
石迳村文化室,广东,广州,广州,020,,沙埔镇,村东路宁西石迳村游泳池西侧约120米,景点,展览馆,113.673514,23.233474
白花寺,广东,广州,广州,020,,沙埔镇,宁西街道,景点,宗教,113.662546,23.207246
塔岗村文化室,广东,广州,广州,020,,永和镇,新新大道中翟洞综合市场南侧约180米,景点,展览馆,113.597171,23.198811
新兴步行街,广东,广州,广州,020,,新塘,新塘镇新兴街66号,景点,步行街,113.6129,23.108717
天后宫,广东,广州,广州,020,,沙埔镇,仙村一路73号,景点,历史建筑,113.718346,23.167528
向阳二社文化广场,广东,广州,从化区,020,,街口/新世纪广场,长流埔附近,景点,公园/广场,113.589434,23.561358
宣星人家,广东,广州,从化区,020,135****0256,温泉镇,温泉镇宣星村,景点,古村古镇,113.644897,23.60059
飞鹅村文化室,广东,广州,从化区,020,,从化区,沙溪大道附近,景点,展览馆,113.518947,23.422807
迳吓村文化室,广东,广州,广州,020,,荔城,增迳吓路14号附近,景点,展览馆,113.795519,23.299579
广州市从化温泉自然保护区科普馆,广东,广州,从化区,020,,温泉镇,温泉西路25号,景点,科技馆,113.644151,23.638331
苏东坡纪念馆,广东,广州,从化区,020,87836066,温泉镇,温泉东路75号,景点,纪念馆,113.657074,23.641092
骆氏宗祠,广东,广州,从化区,020,,从化区,太原路,景点,宗教,113.500672,23.460481
东方夏湾拿美术馆,广东,广州,从化区,020,,从化区,夏湾拿大道10号,景点,美术馆,113.501134,23.473734
罗氏宗祠,广东,广州,从化区,020,,鳌头/旗杆,大i村南街,景点,宗教,113.48542,23.577247
欢乐佤谷,广东,广州,从化区,020,87835918,良口镇,新温泉旅游区105国道东侧,景点,游乐场,113.703827,23.683777
易欢游旅行社,广东,广州,从化区,020,61700017,街口/新世纪广场,街口街开源路二巷4栋201房,景点,旅行社,113.587943,23.546333
民乐文化站,广东,广州,从化区,020,,鳌头/旗杆,新车东路与新龙二巷交叉口西北100米,景点,展览馆,113.473114,23.657463
从化山顶公园,广东,广州,从化区,020,,温泉镇,C区二路,景点,城市公园,113.642799,23.60717
洲洞庙,广东,广州,从化区,020,,从化区,631乡道北50米,景点,宗教,113.349324,23.598664
水榭山溪旅游公司,广东,广州,从化区,020,87826555,从化区,广从南路夏湾拿往从化方向100米,景点,旅行社,113.507298,23.471918
流溪温泉,广东,广州,从化区,020,,温泉镇,温泉东路51号,景点,温泉,113.655502,23.642761
宣星运动谷,广东,广州,从化区,020,,温泉镇,温泉镇宣星五六街,景点,自然风光,113.643776,23.599092
积安陈公祠,广东,广州,从化区,020,,鳌头/旗杆,西塘大围一街,景点,宗教,113.50013,23.610485
长兴庙,广东,广州,从化区,020,,从化区,思泉路,景点,宗教,113.965558,23.768968
北星文化广场,广东,广州,从化区,020,,街口/新世纪广场,城郊街,景点,公园/广场,113.586595,23.556454
龙皇庙,广东,广州,从化区,020,,从化区,S16派街高速,景点,宗教,113.579062,23.529911
谷灵庙,广东,广州,从化区,020,,从化区,谷星街与谷星下洞街交叉口西南方向180米,景点,宗教,113.791124,23.80452
洪圣大王庙,广东,广州,从化区,020,,从化区,鳌头镇山心村卫生站附近,景点,宗教,113.31951,23.616719
桃源花立方,广东,广州,从化区,020,,温泉镇,龙宣街与宣星东华街交叉路口南侧,景点,人文古迹,113.645432,23.599771
中田社区文化室,广东,广州,从化区,020,87922925,街口/新世纪广场,建云七巷与建云东路交叉口东南50米,景点,展览馆,113.586931,23.542571
瓦壶岗公园,广东,广州,广州,020,82337050,鱼珠,蟹山路35号,景点,文化公园,113.43898,23.09926
玄帝古庙,广东,广州,广州,020,,开发区东区,笔村大路169号,景点,宗教,113.526103,23.113233
榕村会场,广东,广州,广州,020,,开发区东区,榕华路榕村幼儿园北30米,景点,景点/周边游,113.54705,23.112377
螺壳山公园,广东,广州,广州,020,,生活区/南岗,广江路广州冶炼厂附近,景点,城市公园,113.4944,23.086752
夏园体育文化公园,广东,广州,广州,020,,夏园,夏园社区夏园路93号,景点,文化公园,113.518608,23.078119
石化展览馆,广东,广州,广州,020,,文冲,石化路明珠宾馆,景点,博物馆,113.471728,23.108835
黄埔南山公园,广东,广州,广州,020,,生活区/南岗,南岗南园花园大街6号,景点,城市公园,113.54657,23.089401
姬堂公园,广东,广州,广州,020,,黄埔区,大沙街姬堂社区,景点,城市公园,113.461289,23.132459
黄埔军博训练基地,广东,广州,广州,020,29039393,长洲岛,长洲岛海虹路,景点,博物馆,113.427143,23.077023
蟹山公园,广东,广州,广州,020,82279745,鱼珠,蟹山路2号,景点,城市公园,113.436172,23.096676
鹿沙区公祠,广东,广州,广州,020,,夏园,沙涌大街十五巷8号,景点,宗教,113.529046,23.084036
黄埔街文化站分站,广东,广州,广州,020,82290757,大沙地,怡园东街与怡园街交叉口北100米,景点,展览馆,113.451584,23.103136
荔联街文化站,广东,广州,广州,020,82269139;82268141,开发区东区,沙园东街诚联公园东南侧约80米,景点,展览馆,113.539536,23.127977
洪圣公园,广东,广州,广州,020,,长洲岛,金洲北路26号,景点,公园/广场,113.432192,23.084681
小浮莲休闲登山径,广东,广州,广州,020,,石楼,沙环西街,景点,自然风光,113.495934,22.953243
CYTS中青旅,广东,广州,广州,020,,洛溪,如意三马路,景点,旅行社,113.300683,23.041315
梁氏宗祠,广东,广州,广州,020,,大学城,北亭大街87号,景点,宗教,113.373405,23.050312
陈涌公园,广东,广州,广州,020,,市桥南,兴业大道与兴业大道东十横路交叉口西100米,景点,城市公园,113.368523,22.909122
广东中旅假日国际旅行社有限公司,广东,广州,广州,020,34706868,洛溪,105国道华进明苑33号铺,景点,旅行社,113.305187,23.04213
沙墟公园,广东,广州,广州,020,,市桥,村心下街,景点,城市公园,113.379105,22.942655
新水坑村生态园,广东,广州,广州,020,,番禺区,环村东路与环村中路路口以西,景点,城市公园,113.393905,22.972018
袁氏宗祠,广东,广州,广州,020,,番禺区,桥联大街49号,景点,宗教,113.451246,22.977848
小罗公园,广东,广州,广州,020,,钟村,进村大街52号,景点,城市公园,113.344841,22.966621
侯宗祠,广东,广州,广州,020,,番禺区,大岭村安和街8号,景点,宗教,113.473888,22.988659
邵氏宗祠,广东,广州,广州,020,,大学城,大学城北三路,景点,宗教,113.394825,23.05881
水晶宫文化公园,广东,广州,广州,020,,市桥,光明南路9号,景点,文化公园,113.363038,22.935108
大街公园,广东,广州,广州,020,,番禺区,塘口街与柏堂路交叉口西北100米,景点,城市公园,113.453316,23.048416
番禺区地震科普教育馆,广东,广州,广州,020,,市桥南,汇景大道373-375号,景点,科技馆,113.378723,22.920506
三善村共青团环保公园,广东,广州,广州,020,,沙湾镇,福善路2号旁,景点,城市公园,113.297675,22.892635
灵山中心公园,广东,广州,南沙区,020,,大岗,环城东路14号,景点,森林公园,113.416473,22.807409
新水坑公园,广东,广州,广州,020,,番禺区,新水坑村委会旁,景点,城市公园,113.392871,22.975336
东溪公园,广东,广州,广州,020,,番禺区,化龙镇沙亭路与柏堂路交界处,景点,公园/广场,113.451493,23.055783
渡头公园,广东,广州,广州,020,,市桥南,龙福路60号,景点,公园/广场,113.342893,22.925697
化龙镇明经村共青团环保公园,广东,广州,广州,020,34755928,番禺区,左里安定大街,景点,文化公园,113.467435,23.012012
沙湾文化广场,广东,广州,广州,020,,市桥南,中华大道217-221号,景点,广场,113.342697,22.904696
坑头文化体育公园,广东,广州,广州,020,,番禺区,市新路北段188号4楼,景点,文化公园,113.395172,22.984634
潭洲公园,广东,广州,南沙区,020,,大岗,大岗镇欣荣路52号附近,景点,城市公园,113.388115,22.781565
东林梁公祠,广东,广州,广州,020,,大学城,北亭大街69号,景点,宗教,113.374987,23.052181
新造镇公园,广东,广州,广州,020,84755447,番禺区,新造镇兴华路115号,景点,城市公园,113.421918,23.035849
桥头公园,广东,广州,广州,020,,番禺区,大岭村安和街,景点,公园/广场,113.474083,22.988182
九比公园,广东,广州,南沙区,020,,榄核镇,安乐街2号,景点,城市公园,113.388673,22.843525
邬氏宗祠,广东,广州,广州,020,,长隆/南村,南山大道13号,景点,宗教,113.392355,23.007695
东池胡公祠,广东,广州,广州,020,,番禺区,左里祠堂大街5号,景点,宗教,113.466436,23.012986
钟二公园,广东,广州,广州,020,,钟村,隔坑大街二巷,景点,城市公园,113.321389,22.975686
六福文化博览园,广东,广州,广州,020,,沙湾镇,沙湾镇市良路950号,景点,更多景点/周边游,113.330811,22.891201
赤岗公园,广东,广州,广州,020,,石楼,庐山路12号,景点,城市公园,113.482033,22.962637
五帅府古庙,广东,广州,广州,020,,番禺区,金马大街12号,景点,宗教,113.305517,22.933397
灵蟠庙,广东,广州,广州,020,,番禺区,石楼路段346号,景点,宗教,113.481114,22.976944
番禺旅游总公司国际旅行社,广东,广州,广州,020,22882288,市桥,繁华路8号,景点,旅行社,113.358698,22.941958
西三公园,广东,广州,广州,020,,南浦,西乡三路与教育路交界处,景点,城市公园,113.263862,23.039989
沙湾公园,广东,广州,广州,020,,市桥南,沙湾大道37号,景点,公园/广场,113.345024,22.907036
石文化广场,广东,广州,广州,020,84859298,石,岐山中路63号,景点,广场,113.439751,22.9555
东涌水乡风情街,广东,广州,南沙区,020,84905903,东涌镇,东涌镇,景点,步行街,113.462296,22.882391
迎宾广场,广东,广州,广州,020,,石,兴亚3路15号,景点,广场,113.479869,22.943497
康辉游踪,广东,广州,广州,020,84633377,市桥,东兴路41号,景点,游乐场,113.379712,22.928906
城北公园,广东,广州,广州,020,,市桥,彩虹路东,景点,公园/广场,113.367615,22.960201
石桥公园,广东,广州,广州,020,,市桥,地铁市桥站旁,景点,城市公园,113.362666,22.950196
番禺简氏宗祠,广东,广州,广州,020,,石,昌平大街,景点,宗教,113.443747,22.947981
胜福冯公祠,广东,广州,广州,020,,长隆/南村,为民中路樟边农贸市场东侧约50米,景点,宗教,113.383504,22.983364
欧洲风情街,广东,广州,广州,020,,市桥南,福德路与花岸东街交叉口东北100米,景点,步行街,113.354797,22.923851
尹氏宗祠,广东,广州,广州,020,,长隆/南村,金源路3巷4号,景点,宗教,113.385946,23.016166
高峰崔公祠,广东,广州,广州,020,,长隆/南村,长堤大街16号,景点,宗教,113.359444,23.020793
唐氏宗祠,广东,广州,广州,020,,长隆/南村,晋胜大街2号,景点,宗教,113.394527,23.007264
南山古庙,广东,广州,广州,020,,长隆/南村,南村镇南村村沙市上街兴仁里二横巷8号,景点,宗教,113.395793,23.007555
涌口公园,广东,广州,广州,020,,大石,大桥收费站西侧,景点,城市公园,113.33524,23.024177
松侣朱公祠,广东,广州,广州,020,,长隆/南村,街南村晋胜坊沙塘新区北侧约130米,景点,宗教,113.394468,23.009588
新二村公园,广东,广州,南沙区,020,,大岗,300县道东150米,景点,城市公园,113.456713,22.751811
冼星海故居,广东,广州,南沙区,020,,南沙区,泰幼儿园西侧),景点,名人故居,113.322332,22.862432
海韵画廊,广东,广州,广州,020,,钟村,福临路,景点,美术馆,113.334641,22.968331
石岗松岗公园,广东,广州,广州,020,,石,石岗东村松岗路,景点,城市公园,113.393353,22.942358
钟村镇文化广场,广东,广州,广州,020,,钟村,304县道,景点,广场,113.301208,22.965468
鳌山古庙,广东,广州,广州,020,,沙湾镇,沙湾镇福善路三善村共青团环保公园,景点,宗教,113.297256,22.891455
神农古庙,广东,广州,广州,020,,沙湾镇,福善路2号附近,景点,宗教,113.29731,22.891411
祠堂大街刘氏宗祠,广东,广州,广州,020,,番禺区,中约发展路卡度尼大厦西侧约180米,景点,宗教,113.467752,23.017982
时代旅业,广东,广州,广州,020,61958066,番禺区,新华路同发时代广场C37,景点,旅行社,113.418809,23.036029
李氏大宗祠,广东,广州,广州,020,,番禺区,南社下街塘边街乾隆二十六年辛科二十九名举人李光汪立东侧,景点,宗教,113.464018,23.025094
大岗镇文化广场,广东,广州,南沙区,020,,大岗,欣荣路与民生路交叉口西南,景点,广场,113.388991,22.783241
北峙公园,广东,广州,广州,020,,广州南站,石陈路43号,景点,城市公园,113.267982,23.003487
石公园,广东,广州,广州,020,,石,大龙街,景点,城市公园,113.434013,22.950974
龙湾公园,广东,广州,广州,020,,番禺区,沙湾镇龙华路龙湾涌湿地公园,景点,公园/广场,113.295991,22.901568
三善梁氏宗祠,广东,广州,广州,020,,沙湾镇,福善路十四巷34号,景点,宗教,113.297701,22.894141
王后宫,广东,广州,南沙区,020,,大岗,庙前街大岗公园西侧,景点,宗教,113.40947,22.803551
番禺观音庙,广东,广州,广州,020,,广州南站,南边牌坊路,景点,宗教,113.258446,22.968899
立邦商旅,广东,广州,广州,020,34617679;34617609,市桥,东方花园二区车库70号,景点,旅行社,113.379613,22.93193
新和村综合文化室,广东,广州,广州,020,,白云国际机场,新和村街新和小学北侧约120米,景点,展览馆,113.256151,23.414331
古树园,广东,广州,广州,020,,美林湖,美林湖大道,景点,城市公园,113.038498,23.469481
宗贤梁公祠,广东,广州,广州,020,,花都区,曙光大道东150米,景点,宗教,113.230364,23.415721
雅瑶镇三向村文化广场,广东,广州,广州,020,,雅瑶,聚宝路5-1号附近,景点,公园/广场,113.221058,23.36298
芙蓉峰公园,广东,广州,广州,020,,花都区,狮岭镇芙蓉度假区,景点,城市公园,113.223414,23.512912
水仙古庙,广东,广州,广州,020,,花都区,都区新华三华小学西,景点,宗教,113.191998,23.387511
朱氏大宗祠,广东,广州,广州,020,,花都区,紫阳路1-3号,景点,宗教,113.167672,23.373562
三东村公园,广东,广州,广州,020,,花都区,花城街道凤凰北路与三东大道西交汇处,景点,城市公园,113.233631,23.410381
洪秀全纪念馆,广东,广州,广州,020,86832232,秀全公园,大布村吉祥街1号,景点,博物馆,113.213593,23.374014
气象天文科普馆,广东,广州,广州,020,,花都区,花城街道平石东路1-30号东南方向40米,景点,陈列馆,113.241737,23.418173
昌甫刘公祠,广东,广州,广州,020,,花都体育馆/花果山公园,东拾二街泊岸君庭东侧约50米,景点,宗教,113.222954,23.39165
花东镇凤岗村文化室,广东,广州,广州,020,,花东,795乡道南50米,景点,展览馆,113.314555,23.447225
花东镇河联村文化室,广东,广州,广州,020,,花东,790乡道西100米,景点,展览馆,113.354744,23.450935
龙王古庙,广东,广州,广州,020,,花都区,芙峰路20西北方向120号号米,景点,宗教,113.234361,23.514971
蟾蜍石水库,广东,广州,广州,020,,花都区,花东镇789乡道,景点,现代建筑,113.35865,23.492786
花都梁氏大宗祠,广东,广州,广州,020,,花都区,华洲路285号,景点,宗教,113.231473,23.414262
莲塘村文化活动中心,广东,广州,广州,020,,莲塘,莲塘大街新华莲塘小学东南侧约130米,景点,展览馆,113.247406,23.393032
瑞边群安社文化室,广东,广州,广州,020,,花都区,瑞边村大瑞西路与瑞边村新安路交叉路口东北侧,景点,展览馆,113.238621,23.491611
维龙潘公祠,广东,广州,广州,020,,狮岭,益群广场东北,景点,宗教,113.186765,23.472358
龙王公园,广东,广州,广州,020,86853846,花都区,芙蓉度假区,景点,公园/广场,113.233898,23.514908
赤坭镇横沙村文化室,广东,广州,广州,020,,赤坭,横沙村三巷1号,景点,展览馆,113.072769,23.383305
电视塔公园,广东,广州,广州,020,,花都体育馆/花果山公园,体育路30号,景点,公园/广场,113.218056,23.38485
阳升村文化广场,广东,广州,广州,020,,花东,(大东小学往前200米)阳升村委会附近,景点,公园/广场,113.315642,23.4758
岐北村文化室,广东,广州,广州,020,,花都区,花港大道道显黄公祠,景点,展览馆,113.160849,23.36717
横潭公园,广东,广州,广州,020,,秀全公园,滨湖路21号,景点,城市公园,113.221817,23.374926
大坑册文化室,广东,广州,广州,020,,狮岭,金狮三街,景点,展览馆,113.136922,23.462902
日义谭公祠,广东,广州,广州,020,,花都区,平步大道东与天贵北路交叉口东南侧,景点,宗教,113.228564,23.421664
芙蓉省级旅游度假区旅游部,广东,广州,广州,020,,花都区,芙滨路与芙峰路交叉路口往西北约50米,景点,旅行社,113.236191,23.510281
凤凰国际旅行社有限公司,广东,广州,广州,020,22686121;22686126,花都区,风神大道10号B栋第一层,景点,旅行社,113.169871,23.379661
狮岭镇文化广场,广东,广州,广州,020,86998433,狮岭,雄狮东路124号狮山公园(振兴路)附近,景点,公园/广场,113.158774,23.459962
星缘商业街,广东,广州,广州,020,,来又来/大润发,新华镇龙珠路碧秀路星缘街,景点,观光街区,113.230484,23.396606
花东镇塘星村文化室,广东,广州,广州,020,,花东,塘星村村委大楼1楼正南方向40米,景点,展览馆,113.349356,23.455466
文楼公园,广东,广州,广州,020,,炭步,广源路,景点,文化公园,113.095749,23.341587
同盟会番花分会旧址,广东,广州,广州,020,,花都区,东华大街7号正西方向20米,景点,历史建筑,113.194659,23.390499
鹏程假期,广东,广州,广州,020,,北站/建设路,站前路31-1号,景点,旅行社,113.20328,23.38268
赤坭镇文化体育服务中心,广东,广州,广州,020,,赤坭,赤坭大道中49号,景点,展览馆,113.078362,23.389559
五华公园,广东,广州,广州,020,,建设北路,花城北路63-6号,景点,城市公园,113.208206,23.388807
花都洪圣古庙,广东,广州,广州,020,,花都区,734乡道藏书院村附近,景点,宗教,113.054232,23.318643
花东镇竹湖村文化室,广东,广州,广州,020,,花东,Y792,景点,展览馆,113.352142,23.464272
川秀钟公祠,广东,广州,广州,020,,狮岭,381省道附近,景点,宗教,113.18222,23.47756
道显黄公祠,广东,广州,广州,020,,花都区,环村北街锦丰苑(环村东路)北侧约130米,景点,宗教,113.160731,23.367197
马溪公园,广东,广州,广州,020,,马溪,新华镇马溪村西湖新社区32号,景点,城市公园,113.152664,23.352989
花东镇凤凰村文化室,广东,广州,广州,020,,白云国际机场,东凤一路5号附近,景点,展览馆,113.252681,23.405421
北兴文化站,广东,广州,广州,020,,花都区,高鹤路7号附近,景点,展览馆,113.423958,23.425152
大塘公园,广东,广州,南沙区,020,,黄阁镇,麒龙中路89号附近,景点,公园/广场,113.505669,22.827593
东井公园,广东,广州,南沙区,020,,珠江旧镇,东井大街49号,景点,城市公园,113.584023,22.764267
共青团公园,广东,广州,南沙区,020,,黄阁镇,清河路,景点,城市公园,113.505638,22.821009
莲溪凤山公园,广东,广州,南沙区,020,,黄阁镇,黄阁中学旁边,景点,文化公园,113.508965,22.82963
南沙区文化馆,广东,广州,南沙区,020,,金州商业区,金蕉大道,景点,陈列馆,113.535667,22.787878
鹿颈公园,广东,广州,南沙区,020,,南沙区,南沙街道鹿颈村工业园简易厂房6号对面,景点,城市公园,113.613469,22.755619
沙尾一公园,广东,广州,南沙区,020,,南沙区,万顷沙镇粤海大道九涌段21号附近,景点,城市公园,113.572567,22.674385
小虎岛,广东,广州,南沙区,020,,南沙区,黄阁大道北,景点,自然风光,113.535393,22.840429
横沥文化体育广场,广东,广州,南沙区,020,,南沙区,横沥镇中环路54-1号,景点,公园/广场,113.488247,22.732936
黄阁镇沙仔村文化活动中心,广东,广州,南沙区,020,,南沙区,沙中下街116-2号西南方向60米,景点,展览馆,113.549503,22.855593
滨海旅游风景区,广东,广州,南沙区,020,,南沙区,南沙街道环市大道南与海滨路交汇处,景点,自然风光,113.619049,22.749737
万顷沙镇沙尾二村综合文化室,广东,广州,南沙区,020,,百万葵园/十九涌,粤海大道十一涌段4号,景点,展览馆,113.589134,22.660912
天后古庙,广东,广州,南沙区,020,,黄阁镇,丹桂路20号,景点,宗教,113.502495,22.830673
蝴蝶洲公园,广东,广州,南沙区,020,,南沙区,南沙街道进港大道320号附近,景点,城市公园,113.56501,22.797064
塘坑村文化中心,广东,广州,南沙区,020,,珠江旧镇,塘坑中街一巷8号,景点,展览馆,113.570732,22.754208
南塘公园,广东,广州,南沙区,020,,黄阁镇,黄阁镇陆南东街与大南路交汇处附近,景点,城市公园,113.505215,22.819212
广东国旅,广东,广州,南沙区,020,39090488,金州商业区,金洲进港大道33号,景点,旅行社,113.546585,22.800625
南沙街广隆村综合文化室,广东,广州,南沙区,020,,大涌,金岭北路南沙心意华庭南侧约70米,景点,展览馆,113.547401,22.77916
罗氏大宗祠,广东,广州,广州,020,,科学城/萝岗高德汇,广汕路沙湾北街28号,景点,宗教,113.428236,23.191124
盈翠公园,广东,广州,广州,020,,中心城,萝岗街道创业公园总站,景点,城市公园,113.480301,23.184708
九龙文化中心,广东,广州,广州,020,,黄埔区,九佛建设新街1号,景点,展览馆,113.522578,23.354388
甘竹山公园,广东,广州,广州,020,136****8036,永和镇,布岭路,景点,城市公园,113.564346,23.201365
莲塘白玉兰森林公园,广东,广州,广州,020,,钟落潭,九佛街道267省道,景点,森林公园,113.484032,23.334393
行三祖祠,广东,广州,广州,020,,中心城,岗潮东二街5号,景点,宗教,113.515074,23.18063
市民公园,广东,广州,广州,020,,中心城,萝岗街道香雪三路与香雪大道西交叉路口东侧（萝岗市民广场）,景点,公园/广场,113.479218,23.179777
中新知识城规划展示厅,广东,广州,广州,020,,旺村/何棠下,九龙大道,景点,展览馆,113.542252,23.331692
广东省凉茶博物馆,广东,广州,广州,020,22211057,科学城/萝岗高德汇,联和街道科学城金峰园路2号,景点,博物馆,113.450272,23.17959
体育生态公园,广东,广州,广州,020,,开发区东区,云骏路2号,景点,公园/广场,113.53856,23.143019
萝峰寺,广东,广州,广州,020,,中心城,萝岗镇萝峰路,景点,宗教,113.526008,23.185488
东江纵队纪念广场,广东,广州,广州,020,,永和镇,永和大道与永安大道交叉口南100米,景点,广场,113.561684,23.21439
黄埔洪圣古庙,广东,广州,广州,020,,开发区东区,经济开发区东区宏明路,景点,宗教,113.508449,23.135589
坑口公园,广东,广州,广州,020,81809221,芳村,坑口紫竹苑20号,景点,城市公园,113.236793,23.074267
坦尾村江边公园,广东,广州,广州,020,,芳村,坦尾西路108号,景点,城市公园,113.219598,23.116866
新爵公园,广东,广州,广州,020,81236608,荔湾区,新爵村福禄大街80号3楼,景点,城市公园,113.252278,23.063084
西基公园,广东,广州,广州,020,,开发区西区,东基村中成街与育才大街交叉口西北角,景点,城市公园,113.511536,23.062979
增蚩道衷,广东,广州,广州,020,,芳村,龙溪中路149号附近,景点,园林,113.210115,23.074616
运泰创意园,广东,广州,广州,020,136****8233,西村/西场,南岸路84号,景点,创意园区,113.233845,23.137025
宝庆粤艺文化园,广东,广州,广州,020,,上下九商业区,多宝街道多宝路234号,景点,文化公园,113.238197,23.116364
泮塘壹,广东,广州,广州,020,,坦尾/河沙,桥中中路188号,景点,旅行社,113.218834,23.131863
中国广州观赏鱼博览中心,广东,广州,广州,020,185****0432,芳村,花地大道南86号,景点,展览馆,113.226729,23.064829
天天假期旅行社,广东,广州,广州,020,,中山七八路,中山七路93-99号广东抽纱大厦16层,景点,旅行社,113.25122,23.123622
海中村,广东,广州,广州,020,,荔湾区,中南街道,景点,古村古镇,113.202026,23.053996
荔湾区普洱茶文化协会博物馆,广东,广州,广州,020,81939917;81939917,中山七八路,龙津西路88号附近,景点,博物馆,113.237282,23.120407
站前街文化站,广东,广州,广州,020,86433836,火车站/人民北路,站前街道流花路中展里72号,景点,展览馆,113.248291,23.139671
多宝街文化站,广东,广州,广州,020,81247401,上下九商业区,丛桂路179号之62层,景点,展览馆,113.241077,23.112598
协同和机器厂博物馆,广东,广州,广州,020,81899922,芳村,冲口街方清大道东146号,景点,博物馆,113.246094,23.089134
西固炮台抗英遗址,广东,广州,广州,020,,沙面,沙面北街101号,景点,古代遗迹,113.240364,23.108011
金花文化广场,广东,广州,广州,020,,中山七八路,西华路金花直街79号,景点,广场,113.250139,23.129077
北山公园,广东,广州,广州,020,,海珠区,北山社区仑头路78号,景点,公园/广场,113.372057,23.081367
滨江水上居民民俗博物馆,广东,广州,广州,020,89033243,滨江路沿线,怡安路179号2楼,景点,博物馆,113.275271,23.108781
沙园公园,广东,广州,广州,020,,江南大道沿线,宝岗大道22号-1,景点,城市公园,113.268484,23.090114
上涌公园,广东,广州,广州,020,,客村/赤岗,东约新大街北100上冲东约26巷3号,景点,城市公园,113.320509,23.080107
中华姓名博物馆,广东,广州,广州,020,,海珠区,仓头村166号,景点,博物馆,113.377343,23.075666
胡一川美术馆,广东,广州,广州,020,84017023,江南大道沿线,昌岗东路257号广州美术学院,景点,美术馆,113.278241,23.092111
康乐园早期建筑群,广东,广州,广州,020,,新港西路沿线,新港西路135号中山大学西南区493号楼,景点,历史建筑,113.297081,23.095718
中华图腾博物馆,广东,广州,广州,020,,海珠区,启明坊外街5号,景点,博物馆,113.377354,23.075594
西聚园,广东,广州,广州,020,,新港西路沿线,大榕路与蒲园路交叉口西200米,景点,城市公园,113.292961,23.095032
龙凤街文化站,广东,广州,广州,020,,滨江路沿线,七间直街与龙导通津交叉口东50米,景点,展览馆,113.258472,23.100037
陈嘉庚纪念堂,广东,广州,广州,020,135****8232,新港西路沿线,新港西路135号中山大学东北区341号,景点,纪念馆,113.299942,23.098402
港中旅,广东,广州,广州,020,34092938,客村/赤岗,汇龙居自编门牌18号铺,景点,旅行社,113.330321,23.089651
石崖卫公祠,广东,广州,广州,020,,海珠区,南洲路沥虼辶蚨街4号,景点,宗教,113.315825,23.058365
文峰画廊,广东,广州,广州,020,136****0677,客村/赤岗,金菊路15号,景点,展览馆,113.313118,23.101067
康辉国际旅行社,广东,广州,广州,020,159****0852,客村/赤岗,广州大道南823号,景点,旅行社,113.316226,23.090933
南洲街沥蚬园,广东,广州,广州,020,,海珠区,五约大街与沥蛩基大街交汇处附近,景点,城市公园,113.317141,23.060592
华南茶叶广场,广东,广州,广州,020,34138333,海珠区,广州大道南1499号,景点,公园/广场,113.310711,23.067934
东壁花园,广东,广州,广州,020,,工业大道沿线,冲边街1-6号,景点,城市公园,113.281641,23.068327
滨江婚育文化园,广东,广州,广州,020,,滨江路沿线,草芳围46号,景点,文化公园,113.273979,23.111475
凤浦公园,广东,广州,广州,020,,琶洲,柳塘大街三巷11号,景点,城市公园,113.396684,23.092914
中纺南二街,广东,广州,广州,020,,新港西路沿线,凤阳街道瑞康路长江纺织城1楼,景点,观光街区,113.296173,23.081053
松岗楼,广东,广州,广州,020,,琶洲,北浦大街雅郡花园东侧约110米,景点,历史建筑,113.39028,23.092589
昌成朱公祠,广东,广州,广州,020,,东晓南路沿线,泰宁大街21号,景点,宗教,113.283455,23.085665
怀士堂,广东,广州,广州,020,,新港西路沿线,新港西路135号中山大学西南区492号,景点,历史建筑,113.298058,23.095631
锦田,广东,广州,广州,020,,海珠区,新锻反舐肺8号,景点,自然景观,113.353894,23.071974
陈氏宗祠,广东,广州,广州,020,,海珠区,东约后街,景点,宗教,113.356447,23.084809
国之旅国际旅行社,广东,广州,广州,020,,客村/赤岗,红卫新村西路29号UP+智谷B3栋410室,景点,旅行社,113.329769,23.087489
昌盛文体活动广场,广东,广州,广州,020,,工业大道沿线,宝岗大道昌盛大街27号,景点,公园/广场,113.259962,23.095462
南湖国旅,广东,广州,广州,020,34366121;34366083,滨江路沿线,滨江东路803号自编B2号之三,景点,旅行社,113.30943,23.10256
广东中旅,广东,广州,广州,020,84482628,江南大道沿线,前进路40号万国广场1层,景点,旅行社,113.273797,23.102467
何伯奕何善衡故居,广东,广州,广州,020,,工业大道沿线,涌边街6号,景点,名人故居,113.280766,23.068311
粤王井,广东,广州,广州,020,83568090,东风中路/越秀公园,应元路,景点,历史建筑,113.263107,23.13406
北京龙泽观光旅行社有限责任公司,广东,广州,广州,020,,中山六路,解放北路618-620号广东国旅大厦1805号,景点,旅行社,113.262445,23.128435
广州书院文化街,广东,广州,广州,020,,北京路商业区,西湖路70号附近,景点,古代遗迹,113.266637,23.123502
和平国际旅行社,广东,广州,广州,020,,滨江路沿线,滨江西路100号汇富商务楼2楼203室,景点,旅行社,113.25334,23.10561
乐耕陈公祠,广东,广州,广州,020,,三元里,村前大街45号,景点,宗教,113.248689,23.164609
煊煌书画美术馆,广东,广州,广州,020,,沿江路/二沙岛,东华东路638号东豪综合楼2层206室,景点,美术馆,113.292931,23.120003
凤翔公园,广东,广州,广州,020,,三元里,沙涌南莲涌街与沙涌南村前大街,景点,公园/广场,113.248421,23.162884
中国旅行社股份有限公司,广东,广州,广州,020,83368888;4008833870,沿江路/二沙岛,沿江中路195-197号沿江大厦20层,景点,旅行社,113.269847,23.114757
佛协道场,广东,广州,广州,020,,火车站/人民北路,六榕街道永安约31号,景点,宗教,113.253845,23.131279
广州市职工国际旅行社,广东,广州,广州,020,37638770;37638260,北京路商业区,文明路65号,景点,旅行社,113.271626,23.122356
濂溪书院旧址,广东,广州,广州,020,,北京路商业区,大马站,景点,历史建筑,113.266859,23.124909
百岁坊公园,广东,广州,广州,020,,北京路商业区,中山四路与秉政街交叉口附近,景点,城市公园,113.273637,23.125529
越秀区博物馆,广东,广州,广州,020,83323508,中山六路,惠福西路233号,景点,博物馆,113.259842,23.120319
西元岗社区文化室,广东,广州,广州,020,,五羊新城,老报社小区,景点,展览馆,113.303514,23.123634
大唐画苑,广东,广州,广州,020,,北京路商业区,秉政街17号,景点,展览馆,113.274127,23.125362
黄埔军校同学会旧址,广东,广州,广州,020,,沿江路/二沙岛,沿江中路239号,景点,历史建筑,113.272087,23.115318
东方旅行社有限公司,广东,广州,广州,020,,沿江路/二沙岛,德政南路48号德政大厦3层303室,景点,旅行社,113.276366,23.117496
广东中旅,广东,广州,广州,020,83194068,中山六路,百灵路99-107号,景点,旅行社,113.259132,23.130592
大夫葵轩陈公祠,广东,广州,广州,020,,三元里,村前大街7号,景点,宗教,113.248322,23.163523
天马国际旅行社,广东,广州,广州,020,137****3750,北京路商业区,连新路8号,景点,旅行社,113.263803,23.125093
市立中山图书馆旧址,广东,广州,广州,020,83822369,北京路商业区,文德北路81号,景点,历史建筑,113.270767,23.124172
先贤清真寺,广东,广州,广州,020,86692743,火车站/人民北路,环市西路204-1号,景点,宗教,113.260796,23.14559
中国青年旅行社,广东,广州,广州,020,83649670,北京路商业区,吉祥路2号(近中山五路),景点,旅行社,113.26386,23.12507
广东羊城之旅,广东,广州,广州,020,83811333,北京路商业区,德政北路508号,景点,旅行社,113.274501,23.129581
康辉旅行社,广东,广州,广州,020,83394929,火车站/人民北路,越华路华林里60号之一四铺,景点,旅行社,113.256013,23.145253
亚德走世界・熊猫国旅,广东,广州,广州,020,,北京路商业区,德政北路538号达信大厦17层1707室,景点,旅行社,113.274996,23.131646
中国旅行社出境旅游公司,广东,广州,广州,020,,沿江路/二沙岛,人民街道沿江中路195-197号沿江大厦21楼,景点,旅行社,113.269787,23.114807
兴中会坟场,广东,广州,广州,020,,环市东路/区庄,华乐街道先烈南路25号,景点,烈士陵园,113.291389,23.132835
越秀玉虚宫,广东,广州,广州,020,,火车站/人民北路,王圣堂大街98号,景点,景点/周边游,113.246811,23.150384
白云山旅行社,广东,广州,广州,020,83262558,北京路商业区,德政北路407号华兴大厦718室,景点,旅行社,113.274515,23.128515
同心公园,广东,广州,广州,020,,天河公园/上社,棠东丰华街与龙门路交叉口北50米,景点,城市公园,113.384407,23.130646
兴华公园,广东,广州,广州,020,,沙河/天平架/梅花园,兴华直街31号,景点,城市公园,113.324205,23.158661
刘氏家庙,广东,广州,广州,020,37234742,沙河/天平架/梅花园,广州大道中1430号之一,景点,宗教,113.314323,23.149668
广东中旅,广东,广州,广州,020,62215668,科学城/萝岗高德汇,揽月路1号,景点,旅行社,113.446406,23.163179
铁青国际旅行社有限责任公司,广东,广州,广州,020,85550004;85552205,天河公园/上社,员村二横路9号首层,景点,旅行社,113.362641,23.120281
员村新村商业街,广东,广州,广州,020,,天河公园/上社,员村二横路,景点,步行街,113.362503,23.120691
车陂街文化站,广东,广州,广州,020,82317112,车陂/东圃,湖边街88号,景点,展览馆,113.400072,23.113642
华南农业大学院士广场,广东,广州,广州,020,,燕岭/五山,五山路483号,景点,广场,113.35936,23.161041
文宣钟公祠,广东,广州,广州,020,,天河公园/上社,棠下北社大街9号,景点,宗教,113.382189,23.129479
黄村街龙步社区文化室,广东,广州,广州,020,,车陂/东圃,龙步大街15号,景点,展览馆,113.412249,23.120779
龙洞街文化站,广东,广州,广州,020,,龙洞/岑村,龙洞东路,景点,展览馆,113.369818,23.196299
钟氏宗祠,广东,广州,广州,020,,天河公园/上社,科新路8号,景点,宗教,113.380281,23.122951
车陂公园,广东,广州,广州,020,,车陂/东圃,东陂高地大街,景点,城市公园,113.395961,23.119896
广东国旅,广东,广州,广州,020,,龙洞/岑村,迎龙路2号,景点,旅行社,113.36775,23.19338
蔡冠深博物馆,广东,广州,广州,020,,珠江新城,黄埔大道西601号暨南大学,景点,博物馆,113.346043,23.128081
金陵学生文化广场,广东,广州,广州,020,,石牌/百脑汇,黄埔大道西601号暨南大学,景点,公园/广场,113.347328,23.132538
科学城体育公园,广东,广州,广州,020,,科学城/萝岗高德汇,科翔路开泰大道路口附近,景点,城市公园,113.44558,23.168228
南富钟公祠,广东,广州,广州,020,,天河公园/上社,员村南社南富大街11号,景点,宗教,113.356201,23.113931
逸夫人文馆,广东,广州,广州,020,,燕岭/五山,五山路381号华南理工大学湖滨北路,景点,展览馆,113.34523,23.154638
龙洞步行街,广东,广州,广州,020,,龙洞/岑村,龙洞街道天源路龙洞又一城旁,景点,步行街,113.366905,23.194609
圣路济亚堂,广东,广州,广州,020,,龙洞/岑村,蓝屋北街,景点,宗教,113.391807,23.211836
港中旅国际旅行社,广东,广州,广州,020,87537644,中山六路,光塔街道玉华坊与解放中路交叉口南50米,景点,旅行社,113.262371,23.120605
晴川苏公祠,广东,广州,广州,020,,车陂/东圃,车陂祠前大街2号,景点,宗教,113.395467,23.119574
世界大观,广东,广州,广州,020,82373888,小新塘,东圃大观南路888号,景点,更多景点/周边游,113.419296,23.149334
银河烈士陵园烈士纪念馆,广东,广州,广州,020,87042522,燕岭/五山,燕岭路394号,景点,纪念馆,113.336021,23.162336
铁青旅游,广东,广州,广州,020,38760089,天河公园/上社,石牌街,景点,旅行社,113.359035,23.138563
李氏宗祠,广东,广州,广州,020,,天河公园/上社,棠东龙门大街84号,景点,宗教,113.384861,23.130859
南方国际航空旅游,广东,广州,广州,020,,沙河/天平架/梅花园,先烈东路190号粤海凯旋大厦首层158-159号,景点,旅行社,113.305956,23.146062
岐山公园,广东,广州,广州,020,,车陂/东圃,岐山路岐山村,景点,文化公园,113.443627,23.136422
黎源光科学馆,广东,广州,广州,020,,沙河/天平架/梅花园,广州大道中1268号,景点,科技馆,113.315994,23.143051
天河冼星海纪念馆,广东,广州,广州,020,,沙河/天平架/梅花园,先烈东横路48号,景点,纪念馆,113.304558,23.149479
黄村街文化站分站,广东,广州,广州,020,32201303;189****5620,车陂/东圃,名圃街10号,景点,展览馆,113.409887,23.127437
林氏大宗祠,广东,广州,广州,020,,兴盛路/跑马场,海月路猎德村复建房西侧约40米,景点,宗教,113.334221,23.114594
潘氏宗祠,广东,广州,广州,020,,石牌/龙口,潘祠大街3号,景点,宗教,113.338631,23.129942
同章简公祠,广东,广州,广州,020,,车陂/东圃,永泰市大街20-1号,景点,宗教,113.39705,23.119113
天河水月宫,广东,广州,广州,020,,天河公园/上社,新庙前街13号,景点,宗教,113.383905,23.127825
华光庙,广东,广州,广州,020,,兴盛路/跑马场,临江大道中和广场附近正东方向110米,景点,宗教,113.334373,23.114077
抗日战争革命老区根据地长按寰芍,广东,广州,广州,020,,龙洞/岑村,长澳洗蠼5号,景点,革命旧址,113.352776,23.17079
白象岭公园,广东,广州,广州,020,,江高镇,人和镇蚌湖庙企路,景点,城市公园,113.252632,23.278568
联升学社,广东,广州,广州,020,,太和镇,联升西路131号,景点,人文古迹,113.357017,23.294338
龙岗公园,广东,广州,广州,020,,钟落潭,零一四乡道与龙岗街交汇处,景点,公园/广场,113.384361,23.393963
马务公园,广东,广州,广州,020,,新市,渝龙街中段,景点,广场,113.257698,23.209158
马洞村公园,广东,广州,广州,020,,钟落潭,钟落潭镇三零七县道马洞村村民委员会附近,景点,文化公园,113.45533,23.362848
基督教江高堂,广东,广州,广州,020,,江高镇,圩爱国西路18号,景点,宗教,113.227418,23.269278
南浦村文化广场,广东,广州,广州,020,,白云区,南浦街与南浦西街中华巷交叉口东50米,景点,公园/广场,113.175602,23.344875
民俗文化博物馆,广东,广州,广州,020,86200757,嘉禾/人和,均禾街均和墟均禾一街11号,景点,博物馆,113.262161,23.255441
南村文化室,广东,广州,广州,020,,龙归镇,蟠龙西街49号西北方向80米,景点,展览馆,113.294123,23.281353
柏塘中心公园,广东,广州,广州,020,,嘉禾/人和,草塘街与草塘路交汇处,景点,城市公园,113.321257,23.300112
江高文化体育公园,广东,广州,广州,020,86603835,江高镇,河心街1号,景点,城市公园,113.231049,23.269981
新村公园,广东,广州,广州,020,,嘉禾/人和,华成路168号,景点,公园/广场,113.295086,23.346323
车陂郝家祠,广东,广州,广州,020,,车陂/东圃,中山大道中85号,景点,宗教,113.395627,23.124957
白云玉虚宫,广东,广州,广州,020,,太和镇,大沥村13号,景点,古代遗迹,113.333473,23.308344
同和街白山社区文化室,广东,广州,广州,020,,同和/京溪,白山西街129号,景点,展览馆,113.32993,23.202382
石井城市广场,广东,广州,广州,020,62699888,石井,石槎路3号,景点,公园/广场,113.243042,23.206272
鹤鸣公园,广东,广州,广州,020,,白云区,鹤北东街10号,景点,公园/广场,113.268155,23.219763
夏良高桥公园,广东,广州,广州,020,,龙归镇,良溪大街64号,景点,城市公园,113.304008,23.290316
蚌湖公园,广东,广州,广州,020,,江高镇,江人路蚌湖段,景点,城市公园,113.260506,23.298592
黄石公园,广东,广州,广州,020,86467776,新市,黄石路江夏段,景点,城市公园,113.278995,23.204602
张王庙,广东,广州,广州,020,,白云区,大田西路166号北帝古庙(大田西路)附近,景点,宗教,113.199455,23.268605
国政周公祠,广东,广州,广州,020,,同德围,粤溪大街2号,景点,宗教,113.240495,23.165295
永兴公园,广东,广州,广州,020,,太和镇,龙兴中路132号附近,景点,城市公园,113.329346,23.264549
北帝古庙,广东,广州,广州,020,,嘉禾/人和,华榕中街43号,景点,宗教,113.302753,23.343554
夏良中心公园,广东,广州,广州,020,136****7285,龙归镇,龙归街道夏良路28号,景点,城市公园,113.306587,23.287266
八角古庙,广东,广州,广州,020,,龙归镇,南村西井大街,景点,宗教,113.296127,23.27928
白云山风景区游客中心,广东,广州,广州,020,,麓湖公园,白云大道1128号桃花涧附近,景点,公园/广场,113.295662,23.157345
钟落潭文化中心,广东,广州,广州,020,87400126,钟落潭,福龙路90号,景点,展览馆,113.405968,23.384811
农民工博物馆,广东,广州,广州,020,23326816,新市,黄园路33号,景点,博物馆,113.265419,23.20595
招氏大宗祠,广东,广州,广州,020,,罗冲围/金沙洲,横沙大街8号,景点,宗教,113.214249,23.162428
巾帼公园,广东,广州,广州,020,,黄石,兵房街215号,景点,文化公园,113.263285,23.215135
同德文化广场,广东,广州,广州,020,36474227,同德围,西槎路上步花园附近,景点,公园/广场,113.235985,23.169764
桃花湿地公园,广东,广州,广州,020,,嘉禾/人和,S41机场高速,景点,自然风光,113.271268,23.264798
环蚬园,广东,广州,广州,020,,石井,环虼蟮拦园前直街11号,景点,公园/广场,113.25115,23.218751
仙师宫,广东,广州,广州,020,,同和/京溪,蟾蜍石中街43号,景点,宗教,113.332935,23.190965
小塘文化广场,广东,广州,广州,020,,江高镇,小塘中心五街5号附近,景点,公园/广场,113.207056,23.276646
中国国际旅行社,广东,广州,广州,020,,同和/京溪,大道北白灰场南路1号,景点,旅行社,113.326085,23.185465
大田古迹文化公园,广东,广州,广州,020,,白云区,大田南街与大田西路交,景点,文化公园,113.199851,23.268047
唐阁北街洪圣古庙,广东,广州,广州,020,,均禾,唐阁街南,景点,宗教,113.241175,23.257045
均禾文化站,广东,广州,广州,020,31212370,均禾,平沙街54号,景点,展览馆,113.25666,23.249649
白云周氏宗祠,广东,广州,广州,020,137****2098,太和镇,上圳街35号,景点,宗教,113.326852,23.268942
大田村文化室,广东,广州,广州,020,,江高镇,大田南街80号,景点,展览馆,113.204739,23.270649
江南旅业,广东,广州,广州,020,81791265;153****9699,同德围,增槎路926号江南市场3号门旁,景点,旅行社,113.226006,23.174934
镇湖公园,广东,广州,广州,020,,嘉禾/人和,镇联街与蚌湖路交汇处,景点,城市公园,113.268318,23.297104
三泰公园西苑,广东,广州,广州,020,,广园新村,石榴桥路与松柏东街路口,景点,城市公园,113.266457,23.164972
御丰广场,广东,广州,广州,020,86298818,新市,鹤龙一路32号,景点,公园/广场,113.265617,23.210152
大岭森林公园,广东,广州,广州,020,86607050,白云区,神山镇,景点,森林公园,113.200471,23.350331
帽峰古庙,广东,广州,广州,020,87464696,太和镇,帽峰山森林公园内,景点,宗教,113.466934,23.303513
松溪彭公祠,广东,广州,广州,020,,石井,亭石北路261号,景点,宗教,113.208051,23.216901
长沙埔街洪圣古庙,广东,广州,广州,020,,钟落潭,长沙埔街5号,景点,宗教,113.411156,23.392008
十八涌,广东,广州,南沙区,020,,百万葵园/十九涌,298县道,景点,公园/广场,113.630463,22.614059
桃花涧,广东,广州,广州,020,37222222,白云区,白云大道1128号白云山明珠楼游览区,景点,自然风光,113.307396,23.191858
隅园,广东,广州,广州,020,,五羊新城,寺贝通津路44号,景点,人文古迹,113.300797,23.121458
和平国际旅行社,广东,广州,广州,020,139****1258,天河公园/上社,中山七路191号,景点,旅行社,113.362771,23.144331
广州南部假期国际旅行社,广东,广州,广州,020,36124438,五号停机坪,云霄路88号,景点,旅行社,113.2631,23.18177
九禾美术馆,广东,广州,广州,020,139****2694,江南大道沿线,昌岗中路信和广场东区一层,景点,美术馆,113.274134,23.090644
代理国际国内机票,广东,广州,广州,020,83856758,环市东路/区庄,先烈南路,景点,旅行社,113.28701,23.13195
清远国旅,广东,广州,广州,020,84411907;84411747,江南西,江南西路西杏园小区27号,景点,旅行社,113.267208,23.095354
天马国际旅行社,广东,广州,广州,020,86000933;86000633,天河城/体育中心,体育中心小东门体育中心地铁C出口,景点,旅行社,113.328226,23.13514
福胜庵,广东,广州,广州,020,,上下九商业区,福安街15-1号,景点,宗教,113.246895,23.112665
宁隐庵,广东,广州,广州,020,84395816,滨江路沿线,宁隐街2号,景点,宗教,113.258223,23.100773
将军府,广东,广州,广州,020,,中山六路,六榕路广东迎宾馆将军府,景点,历史建筑,113.260689,23.127897
广东花都湖国家湿地公园,广东,广州,广州,020,86817415,花都区,新雅街道新华路102号,景点,自然风光,113.231171,23.382038
中国青年旅行社,广东,广州,广州,020,66632326;66639136,五羊新城,东山街道寺右新马路25号兴城大厦2804号地铁5号线五羊站D出口直走150米,景点,旅行社,113.308981,23.119871
广州民间金融博物馆,广东,广州,广州,020,,沿江路/二沙岛,长堤大马路268号,景点,博物馆,113.260147,23.111538
三亚蜜月旅行,广东,广州,广州,020,,海珠区,地铁路口,景点,旅行社,113.327232,23.081862
广厦国际旅行社,广东,广州,广州,020,,北京路商业区,北京路374号,景点,旅行社,113.268939,23.127199
广东粤侨国际旅行社有限公司,广东,广州,广州,020,84644882;84644887,市桥,德胜路42-44号,景点,旅行社,113.373805,22.937665
广东中妇旅国际旅行社,广东,广州,广州,020,38371703,市桥,东环路与富怡路交叉口北100米,景点,旅行社,113.385341,22.947091
风行旅游,广东,广州,广州,020,,大沙地,港湾路192号,景点,旅行社,113.449442,23.097711
丽景国旅,广东,广州,广州,020,130****2269,滨江路沿线,海联路33号,景点,旅行社,113.286801,23.101731
星宸国际旅行社,广东,广州,广州,020,138****4258,环市东路/区庄,麓苑路41号,景点,旅行社,113.285631,23.141351
广东国旅,广东,广州,广州,020,,洛溪,洛涛居南区27幢12号,景点,旅行社,113.304293,23.039968
广州星宸国际旅行社,广东,广州,广州,020,136****7551,大学城,大学城外环西路,景点,旅行社,113.405701,23.035538
波楼,广东,广州,广州,020,,滨江路沿线,海天四望街42号,景点,历史建筑,113.248535,23.103201
乐游旅游,广东,广州,广州,020,,钟落潭,钟落潭综合市场d4层,景点,旅行社,113.407005,23.382735
广东环亚美容化妆品博物馆,广东,广州,广州,020,32098888;181****7803,科学城/萝岗高德汇,科学城南云一路18号,景点,博物馆,113.442781,23.156171
珠江夜游海心沙西区码头,广东,广州,广州,020,34377433;38063541,珠江新城,珠江新城临江大道海心沙亚运公园西区码头,景点,城市观光,113.323348,23.110359
微观旅游攻略网,广东,广州,广州,020,,中心城,荔红路158号201,景点,旅行社,113.508599,23.175499
广州水上巴士,广东,广州,广州,020,,沙面,珠江隧道,景点,城市观光,113.240311,23.106392
优游旅行社,广东,广州,广州,020,89790021,开发区东区,东城区东莞大道2号新世界花园5号A铺（东城区政府）,景点,旅行社,113.566378,23.108602
广州广之旅国际旅行社股份有限公司,广东,广州,广州,020,84444912,江南西,禺山大道7号自编A07-A08号,景点,旅行社,113.258142,23.091272
大路,广东,广州,广州,020,,中山七八路,宝善北街33号,景点,旅行社,113.239582,23.11869
中国国旅,广东,广州,广州,020,34588688;34588988,市桥,盛泰路沙墟一盛泰花园,景点,旅行社,113.381665,22.934475
海心沙亚运公园,广东,广州,广州,020,38089668,花城汇/高德置地,猎德街道珠江新城临江大道,景点,公园/广场,113.32724,23.111338
康辉旅行社,广东,广州,广州,020,39991389,市桥,市桥捷进中路四号之三铺,景点,旅行社,113.359356,22.950876
流金岁月美丽华假期,广东,广州,广州,020,,市桥,清河中路118号附近,景点,旅行社,113.370428,22.933808
日龙彩虹旅行社有限公司,广东,广州,广州,020,39990882;39990002,市桥,康乐路205号,景点,旅行社,113.353255,22.944645
广州三人行旅行社,广东,广州,广州,020,82288188,大沙地,大沙北路120号,景点,旅行社,113.457146,23.109116
中国国旅,广东,广州,广州,020,4006008888,工业大道沿线,淘金路163号,景点,旅行社,113.261971,23.091371
增城白水寨风景名胜区,广东,广州,广州,020,82820098,白水寨/派潭,派潭镇白水寨风景名胜区北山路74号,景点,自然风光,113.763809,23.580099
同德公园,广东,广州,广州,020,,同德围,同德街田心西路,景点,城市公园,113.237778,23.159357
炳灵古庙,广东,广州,广州,020,,市桥,东大街34号,景点,宗教,113.379853,22.942303
抽水蓄能电厂旅游度假区,广东,广州,从化区,020,,从化区,吕田镇思泉路26号,景点,自然风光,113.958252,23.768826
迪吉大押旧址,广东,广州,广州,020,,上下九商业区,珠玑路49号,景点,历史建筑,113.243378,23.110003
东山浸信会旧址,广东,广州,广州,020,,中山二三路/东山口,寺贝通津7号,景点,古代遗迹,113.297234,23.122435
复我祠,广东,广州,广州,020,,市桥,东大街35号,景点,宗教,113.379934,22.942214
广交会旧址,广东,广州,广州,020,,北京路商业区,广州起义路1号海印缤缤广场,景点,历史建筑,113.264937,23.115457
九世卫祖祠,广东,广州,广州,020,,市桥,捷进西路4号,景点,宗教,113.351746,22.948516
邝光慈故居,广东,广州,广州,020,,芳村,聚龙村民居2号,景点,名人故居,113.241014,23.088204
邝明觉旧居,广东,广州,广州,020,,芳村,聚龙村1号,景点,名人故居,113.241164,23.088224
逵园艺术馆,广东,广州,广州,020,87659746,中山二三路/东山口,恤孤院路9号,景点,美术馆,113.296387,23.119026
汀沙二大街刘氏宗祠,广东,广州,广州,020,,市桥,汀沙二大街57号,景点,宗教,113.364961,22.948891
文翘李公祠,广东,广州,广州,020,158****2123,天河公园/上社,棠东龙门大街86号,景点,宗教,113.384916,23.130556
中共第一支部成立旧址,广东,广州,广州,020,,北京路商业区,素波巷30号,景点,历史建筑,113.265422,23.117496
青年军人联合会旧址,广东,广州,广州,020,,沿江路/二沙岛,沿江中路239号,景点,革命旧址,113.272009,23.115329
中华书局分局旧址,广东,广州,广州,020,83306987,北京路商业区,中山五路与中山四路交叉口北50米,景点,古代遗迹,113.268986,23.124816
M3创意园,广东,广州,广州,020,,嘉禾/人和,鹤龙街道尖彭路南面2号,景点,创意园区,113.284058,23.225496
从化区街口街文化站,广东,广州,从化区,020,87912883,街口/新世纪广场,城中路119号,景点,展览馆,113.586815,23.540129
地震科普教育馆,广东,广州,广州,020,87688835,环市东路/区庄,先烈中路81号大院-1号,景点,科技馆,113.297356,23.139515
世界纺织博览中心,广东,广州,广州,020,,新港西路沿线,珠江梭织大厦5层,景点,展览馆,113.301534,23.084266
樟园创意产业园,广东,广州,广州,020,39999989,市桥,桥兴大道399号,景点,植物园,113.358201,22.952951
荔湾梁氏宗祠,广东,广州,广州,020,34046520,上下九商业区,梁家祠街34-1,景点,宗教,113.237495,23.121761
白云湖水上乐园1号码头,广东,广州,广州,020,186****2903,石井,石井大道白云湖水上乐园1号码头,景点,水上乐园,113.239334,23.228439
鸡枕山,广东,广州,从化区,020,,良口镇,良口镇105国道,景点,自然风光,113.806984,23.757582
黄牛山,广东,广州,从化区,020,,良口镇,287县道西50米,景点,自然风光,113.765984,23.767691
鹿湖山,广东,广州,从化区,020,,良口镇,287县道,景点,自然风光,113.766983,23.782194
西铁塔,广东,广州,广州,020,,中山六路,光孝路109号,景点,历史建筑,113.256004,23.128983
广佛数字创意园,广东,广州,广州,020,186****5155,芳村,东]街道龙溪东路1号,景点,创意园区,113.220079,23.07984
城市公园,广东,广州,广州,020,,大学城,大学城西四路附近,景点,公园/广场,113.383301,23.047314
金兰文化广场,广东,广州,广州,020,,芳村,剑兰街4号,景点,广场,113.223296,23.082682
临江带状公园,广东,广州,广州,020,,花城汇/高德置地,临江大道263号,景点,城市公园,113.334953,23.112066
珠江琶醍啤酒文化创意艺术区,广东,广州,广州,020,84060333,琶洲,阅江西路珠江琶醍啤酒文化创意艺术区,景点,创意园区,113.33857,23.107224
雁塔公园,广东,广州,广州,020,,荔城,雁塔大桥旁边,景点,城市公园,113.825874,23.274191
珍惜植物园,广东,广州,从化区,020,,良口镇,流溪河国家森林公园西侧约210米,景点,植物园,113.769005,23.757704
北溪会公祠,广东,广州,广州,020,,市桥,白沙堡村大街5号,景点,宗教,113.365893,22.953403
邓氏宗祠,广东,广州,广州,020,,来又来/大润发,新华街田美村,景点,宗教,113.230129,23.394889
德山公祠,广东,广州,广州,020,,花都体育馆/花果山公园,田美田东拾一街田美市场南侧,景点,宗教,113.225645,23.391713
花都杜氏宗祠,广东,广州,广州,020,,来又来/大润发,大松园一巷11号,景点,宗教,113.23082,23.392958
东征阵亡烈士纪念坊,广东,广州,广州,020,82202278,长洲岛,思亭路2号附近,景点,烈士陵园,113.417007,23.08387
番禺杜氏宗祠,广东,广州,广州,020,,市桥,德兴北路华怡居北侧约230米,景点,宗教,113.378221,22.949881
关氏五世祠,广东,广州,广州,020,,市桥,上关大街星海公园北侧约90米,景点,宗教,113.370817,22.945367
官福吴公祠,广东,广州,从化区,020,,江埔,环市东路323号,景点,宗教,113.609062,23.536269
增城观音庙,广东,广州,广州,020,,开发区东区,新墩村新墩路95号,景点,宗教,113.559041,23.110021
越秀何氏大宗祠,广东,广州,广州,020,,火车站/人民北路,王圣堂大街60号附近,景点,宗教,113.24836,23.150581
华叟黄公祠,广东,广州,广州,020,,沙埔镇,黄屋街2号,景点,宗教,113.649934,23.154704
华田神庙,广东,广州,广州,020,,增城区,龙眼n路2号,景点,宗教,113.646173,23.159293
华佗庙,广东,广州,广州,020,,开发区东区,丹水坑路1111号,景点,宗教,113.522987,23.106697
金花庙,广东,广州,广州,020,,开发区东区,丹水坑路丹水坑风景旅游区内,景点,宗教,113.52198,23.106491
白云梁氏大宗祠,广东,广州,广州,020,,机场路沿线,岗贝路南二巷4号,景点,宗教,113.253689,23.179653
挪威支柱教堂,广东,广州,广州,020,,科学城/萝岗高德汇,东圃大观南路888号,景点,宗教,113.420104,23.148464
沙圩陈尚书祠,广东,广州,广州,020,,市桥,平康路268号,景点,宗教,113.378227,22.941869
泉源林公祠,广东,广州,广州,020,,新港西路沿线,迎祥大街6号,景点,宗教,113.293524,23.084574
同寅医院旧址,广东,广州,广州,020,,滨江路沿线,同福西路166号,景点,历史建筑,113.252811,23.102441
吴氏大宗祠,广东,广州,广州,020,,沙埔镇,石新路,景点,宗教,113.664871,23.163303
仙姑庙,广东,广州,从化区,020,,良口镇,香雪大街1号,景点,宗教,113.772987,23.748795
颜氏大宗祠,广东,广州,广州,020,,机场路沿线,三元里大道862号,景点,宗教,113.251494,23.173782
于祯公祠,广东,广州,广州,020,,花都区,毕村牌坊大街毕村市场西侧约130米,景点,宗教,113.176753,23.388289
圆通寺,广东,广州,从化区,020,135****9093,江埔,七星西路红荔新村南侧约50米,景点,宗教,113.595863,23.540884
曾氏宗祠,广东,广州,广州,020,,市桥,白沙堡村大街16号,景点,宗教,113.366274,22.953264
登峰街城中村历史微博馆,广东,广州,广州,020,,麓湖公园,麓景路124号附近,景点,博物馆,113.278542,23.145432
东征史迹陈列室,广东,广州,广州,020,,长洲岛,思亭路长洲岛,景点,陈列馆,113.417343,23.083641
工人运动历史陈列馆,广东,广州,广州,020,,滨江路沿线,滨江西路232号,景点,陈列馆,113.264128,23.110118
广州市城市规划展览中心,广东,广州,广州,020,83520680,白云大道沿线,展览路1号,景点,展览馆,113.277481,23.191406
翰林斋美术馆,广东,广州,广州,020,,环市东路/区庄,水荫路113,景点,美术馆,113.310638,23.144697
航天科学馆,广东,广州,广州,020,,小新塘,大观公园路广州思源学校小学部东北侧约120米,景点,科技馆,113.409988,23.148481
鹤展创意园,广东,广州,广州,020,,芳村,培真路2号,景点,创意园区,113.246861,23.079241
巨大创意产业园,广东,广州,广州,020,39236333,番禺区,大石街道大石街石北工业大道644号,景点,创意园区,113.286469,23.015429
西园居委会文化室,广东,广州,广州,020,,东汇城/人人乐,荔城街健生西路16号,景点,展览馆,113.827957,23.290487
新港街民族文化活动中心,广东,广州,广州,020,,新港西路沿线,怡乐四巷17号附近,景点,展览馆,113.290894,23.097071
大石新兴广场,广东,广州,广州,020,34793728,大石,一零五国道大石段740号,景点,公园/广场,113.308729,23.01048
桥中商业第一街,广东,广州,广州,020,,坦尾/河沙,桥中南路48-52号,景点,步行街,113.221519,23.121199
普公汉代陶瓷博物馆,广东,广州,广州,020,,沿江路/二沙岛,珠光街德政南路51-55号,景点,博物馆,113.27562,23.117382
八旗博物馆,广东,广州,广州,020,,沿江路/二沙岛,德政南路51-55号5楼,景点,博物馆,113.275566,23.117403
3D魔幻艺术巡展,广东,广州,广州,020,,市桥,市桥光明北路雅居乐鸿禧广场4楼（市桥地铁站a出口，往前走50米，百佳超市楼上）,景点,展览馆,113.361777,22.952336
帷幕开啦（广州塔）蜡像馆,广东,广州,广州,020,31951019,客村/赤岗,阅江西路222号广州塔（小蛮腰）,景点,蜡像馆,113.325462,23.10667
王老吉凉茶博物馆,广东,广州,广州,020,66282302,同和/京溪,同和街道沙太北路389号白云山中药厂,景点,博物馆,113.336601,23.199343
驴妈妈旅游网,广东,广州,广州,020,83931688;83931388,环市东路/区庄,洪桥街道东风中路363号国信大厦3503室,景点,旅行社,113.270073,23.131523
柏塘一社公园,广东,广州,广州,020,,嘉禾/人和,柏塘一路9号附近,景点,城市公园,113.306586,23.299103
傍东公园,广东,广州,广州,020,,石,傍新路,景点,城市公园,113.405273,22.951181
北联村公园,广东,广州,广州,020,,大石,新联路84号,景点,城市公园,113.307685,23.026837
蔡三村体育公园,广东,广州,广州,020,,番禺区,蔡三村杠木坊大街6号对面,景点,城市公园,113.377415,22.967648
茶工艺品街,广东,广州,广州,020,,芳村,芳村南方茶叶市场洞企石路,景点,步行街,113.221684,23.100261
长洲街文化站,广东,广州,广州,020,82206153,长洲岛,大园坊一巷1-2号,景点,展览馆,113.424332,23.076384
陈子壮纪念馆,广东,广州,广州,020,,罗冲围/金沙洲,中元里大街38号,景点,纪念馆,113.206329,23.153
赤山公园,广东,广州,广州,020,,石楼,石楼镇鸡公桥大道,景点,公园/广场,113.481552,22.970991
大佛寺佛世山庄,广东,广州,广州,020,,同和/京溪,同和街道沙太北路603号大佛古寺,景点,宗教,113.339424,23.200564
大岗公园,广东,广州,广州,020,,大石,河村东路河村小学西南侧,景点,城市公园,113.332146,23.01333
读岗公园,广东,广州,广州,020,,新塘,沙园街25号,景点,文化公园,113.62085,23.108303
芙蓉桃花水母自然保护区,广东,广州,广州,020,86853355,花都区,狮岭镇776乡道西150米,景点,自然风光,113.223065,23.529521
广州起义纪念馆,广东,广州,广州,020,83341321,北京路商业区,起义路200-1号,景点,纪念馆,113.264244,23.12426
庚戌新军烈士墓,广东,广州,广州,020,,环市东路/区庄,先烈中路,景点,烈士陵园,113.300412,23.142642
红太阳展览馆,广东,广州,广州,020,,荔城,中山路37号,景点,陈列馆,113.837151,23.287711
江坳公园,广东,广州,广州,020,,增城区,景观大道与林屋村前路交叉口东北150米,景点,文化公园,113.819924,23.393004
九王庙公园,广东,广州,南沙区,020,,南沙区,南沙街道凤凰大道1号,景点,城市公园,113.592064,22.771643
坑头村生态公园,广东,广州,广州,020,,番禺区,南村镇西和路与南约街交汇处,景点,城市公园,113.400357,22.984458
塘美荔枝公园,广东,广州,广州,020,,新塘,塘美东路33号,景点,城市公园,113.636065,23.149752
岭南工艺美术馆,广东,广州,广州,020,83809943,沿江路/二沙岛,署前路8路越秀图书馆首层岭南九遗艺术中心,景点,美术馆,113.295423,23.122853
毛主席视察棠下纪念馆,广东,广州,广州,020,,天河公园/上社,棠下达善大街27号,景点,纪念馆,113.380318,23.127665
明德公园,广东,广州,南沙区,020,,珠江旧镇,塘坑中街与前进街交汇路口,景点,城市公园,113.571564,22.754381
南岗山公园,广东,广州,广州,020,,生活区/南岗,黄埔东路3731号南岗街道办附近,景点,城市公园,113.539223,23.098761
南郊公园,广东,广州,广州,020,84823304,市桥南,南堤西路与南怡大街交汇处,景点,城市公园,113.365211,22.930529
七仙湖公园,广东,广州,广州,020,,白水寨/派潭,白水寨风景区以北,景点,公园/广场,113.767296,23.604786
亲水公园,广东,广州,广州,020,,琶洲,琶洲街道阅江中路会展中心北侧,景点,城市公园,113.357208,23.104767
庆丰公园,广东,广州,广州,020,,石井,庆丰社区花园街10号,景点,公园/广场,113.225601,23.211357
庆丰九龙公园,广东,广州,广州,020,,石井,庆丰三路庆丰九龙基街路口附近,景点,城市公园,113.219877,23.213954
