名称,省份,真实城市,市县区,区号,电话,区域,地址,大分类,小分类,经度,纬度
河北省东方国际旅行社,河北,石家庄,石家庄,0311,86128980;86012681,世纪公园,槐安东路152号金源商务广场B座705室,景点,旅行社,114.557182,38.02207
康辉旅游,河北,石家庄,石家庄,0311,87662111,中山西路,中华北大街与宁安路南行200米路西,景点,旅行社,114.476881,38.052981
神州旅行社,河北,石家庄,石家庄,0311,86073041,中山东路,长征街8号三信写字楼206室,景点,旅行社,114.505493,38.044073
中国国际旅行社,河北,石家庄,石家庄,0311,87827997,中山西路,和平西路与友谊北大街交叉口东50米,景点,旅行社,114.453491,38.060931
滨河公园,河北,石家庄,石家庄,0311,,红旗大街槐安路,南环西路民心河旁,景点,公园/广场,114.471565,38.002045
封龙山风景区,河北,石家庄,鹿泉区,0311,82131148,鹿泉区其他,铜冶镇南故邑村,景点,自然风光,114.353607,37.912315
世纪公园,河北,石家庄,石家庄,0311,85895554,世纪公园,体育南大街,景点,城市公园,114.537201,38.019897
新华水上公园,河北,石家庄,石家庄,0311,87768238,水上公园,联盟路500号,景点,城市公园,114.45742,38.077057
月季公园,河北,石家庄,石家庄,0311,,桃园,北二环东路与新月街交叉口西北角,景点,公园/广场,114.538414,38.079262
中山公园,河北,石家庄,石家庄,0311,,中山西路,西二环北路与和平西路交口北,景点,公园/广场,114.434601,38.06728
天山海世界,河北,石家庄,石家庄,0311,85389244;85389330,天山海世界,高新技术开发区天山大街116号,景点,水上乐园,114.607338,38.038513
人民广场公园,河北,石家庄,石家庄,0311,,北国东尚,建设北大街1号,景点,广场,114.51516,38.044628
河北博物院,河北,石家庄,石家庄,0311,966518,中山东路,东大街4号,景点,博物馆,114.522659,38.040604
赵州桥景区,河北,石家庄,赵县,0311,84957077;156****7117,赵县其他,赵辛线大石桥村,景点,历史建筑,114.770279,37.721962
华北军区烈士陵园,河北,石家庄,石家庄,0311,67597209,中山西路,中山西路343号,景点,烈士陵园,114.464386,38.043533
天桂山,河北,石家庄,平山县,0311,82827203;82827667,平山县其他,北治乡天桂山015县道,景点,自然风光,113.749725,38.259876
西柏坡纪念馆,河北,石家庄,平山县,0311,82851381,平山县其他,西柏坡镇迎宾路（西柏坡纪念馆西北侧约250米）,景点,纪念馆,113.943558,38.34127
长安公园,河北,石家庄,石家庄,0311,86048360,中山东路,青园街道建设北大街13号,景点,公园/广场,114.514618,38.046844
平安公园,河北,石家庄,石家庄,0311,,中山西路,平安大街与裕华路交叉口东北角,景点,公园/广场,114.50267,38.037071
友谊公园,河北,石家庄,石家庄,0311,83635414,中山西路,友谊北大街87号,景点,公园/广场,114.45237,38.047169
裕西公园,河北,石家庄,石家庄,0311,83606158,中山西路,中山西路698号,景点,公园/广场,114.415565,38.037582
苍岩山风景名胜区,河北,石家庄,井陉县,0311,82324104,井陉县其他,苍岩山镇寺沟村,景点,自然风光,114.166328,37.834301
抱犊寨风景区,河北,石家庄,鹿泉区,0311,82013208;82011882,鹿泉区其他,太平河北路与观景大街交叉口西侧200米,景点,自然风光,114.277588,38.088249
荣国府,河北,石家庄,正定县,0311,88786107,子龙广场,兴荣路51号,景点,历史建筑,114.5793,38.147919
隆兴寺,河北,石家庄,正定县,0311,88789987;88786560,隆兴寺,中山东路109号,景点,宗教,114.58255,38.144314
驼梁风景区,河北,石家庄,平山县,0311,82499336,平山县其他,西北部前大地村,景点,自然风光,113.819984,38.724434
西清省会法制公园,河北,石家庄,石家庄,0311,,红旗大街槐安路,红旗大街与裕华路交叉口,景点,公园/广场,114.460701,38.033669
临济寺,河北,石家庄,正定县,0311,88022104,历史文化街,燕赵南大街济路,景点,宗教,114.57299,38.135635
陀罗尼经幢,河北,石家庄,赵县,0311,,柏林禅寺,石塔路与石桥大街交汇处,景点,更多景点/周边游,114.774643,37.748131
石门公园,河北,石家庄,石家庄,0311,85874042,世纪公园,富强大街18号,景点,公园/广场,114.524292,38.02953
石家庄植物园,河北,石家庄,鹿泉区,0311,83631094;83657368,植物园,植物园街60号,景点,植物园,114.381927,38.105759
石太公园,河北,石家庄,石家庄,0311,,三元,国泰街4号,景点,公园/广场,114.443504,38.059647
石家庄市动物园,河北,石家庄,鹿泉区,0311,83932005;83932000,动物园,向阳大街与观景大街交叉口西南角,景点,动物园,114.304375,38.06181
太平河公园,河北,石家庄,石家庄,0311,,岔河,柳源路与翠屏东路交叉口西南100米,景点,公园/广场,114.552635,38.115608
康辉旅游,河北,石家庄,石家庄,0311,186****0163,怀特商城,槐安路与育才街交叉口东北角,景点,旅行社,114.529335,38.022865
元南公园,河北,石家庄,石家庄,0311,86122959,火车站/解放广场,普圆街和建胜路交口,景点,公园/广场,114.495253,38.019364
国御温泉度假小镇,河北,石家庄,藁城区,0311,88926333,藁城区其他,307国道与机场路交叉口东2公里路北,景点,温泉,114.761269,38.03331
天宁寺,河北,石家庄,正定县,0311,,子龙广场,中山东路,景点,宗教,114.575371,38.142239
广惠寺华塔,河北,石家庄,正定县,0311,,历史文化街,燕赵南大街与广惠路交口东80米,景点,宗教,114.571701,38.13224
博物馆文化广场,河北,石家庄,新乐市,0311,,爱尚广场,礼堂街博物馆前,景点,广场,114.682915,38.345703
金鹿公园,河北,石家庄,辛集市,0311,83222457,泰和商圈,建设东大街与西华路交口东,景点,公园/广场,115.212509,37.917156
丽泽广场,河北,石家庄,深泽县,0311,,深泽县其他,石油大街198号正南方向150米,景点,广场,115.187477,38.180801
西柏坡温泉滑雪场,河北,石家庄,平山县,0311,82812222;180****1457,平山县其他,温塘镇白鹿温泉南行3公里北马冢村（近白鹿温泉）,景点,滑雪场,113.975166,38.211243
清利寺,河北,石家庄,辛集市,0311,,辛集市其他,市府街东路,景点,宗教,115.257919,37.941113
欧韵公园,河北,石家庄,石家庄,0311,,欧韵公园,建设南大街,景点,公园/广场,114.51123,38.01804
^^水生态风景区,河北,石家庄,平山县,0311,87036225,平山县其他,北冶乡^水村,景点,自然风光,113.752174,38.198372
希望绿洲公园,河北,石家庄,石家庄,0311,,大马庄园,塔北路和谈固东街交口西北角,景点,公园/广场,114.568993,38.012592
藁城水上公园,河北,石家庄,石家庄,0311,,井陉矿区,胜利西路426号,景点,公园/广场,114.041161,38.100819
赵佗公园,河北,石家庄,石家庄,0311,,赵佗公园,赵佗路街道赵佗路28号,景点,公园/广场,114.479141,38.094852
毗卢寺,河北,石家庄,石家庄,0311,87775241,新华区,滹沱河上京村,景点,宗教,114.426132,38.126652
东环公园,河北,石家庄,石家庄,0311,,大马庄园,南二环东路与谈固东街交叉口东环公园,景点,公园/广场,114.574081,38.005135
樱花公园,河北,石家庄,栾城区,0311,,栾城区其他,裕泰路与308国道三条交通干道围合区域,景点,城市公园,114.63147,37.89938
卓达国际会展中心,河北,石家庄,石家庄,0311,,东开发区,长江大道158号,景点,景点/周边游,114.628174,38.036434
海峡旅行社,河北,石家庄,石家庄,0311,80933086,中山西路,南长街道槐安西路35号瑞特家园4楼,景点,旅行社,114.479884,38.025354
儿童公园,河北,石家庄,藁城区,0311,,人民医院,四明南街,景点,公园/广场,114.85006,38.033409
明珠公园,河北,石家庄,藁城区,0311,,藁城开发区,开发大街与扬子路交汇附近,景点,公园/广场,114.682922,38.028942
海滨国际旅行社,河北,石家庄,石家庄,0311,85357811,中山东路,和平东路7号荣景园,景点,旅行社,114.50308,38.0549
河北美术馆,河北,石家庄,石家庄,0311,85695712;85695722,中山东路,槐安东路113号,景点,美术馆,114.537872,38.022842
槐北公园游乐场,河北,石家庄,石家庄,0311,133****0699,中山东路,谈固大街与槐北路交口东行300米路南,景点,游乐场,114.567207,38.032276
怀特美术馆,河北,石家庄,石家庄,0311,85815299,中山东路,体育南大街286号怀特古文化茶城,景点,美术馆,114.531556,38.024656
魏征公园,河北,石家庄,晋州市,0311,84337497,晋州市其他,滨河路594号,景点,公园/广场,115.016151,38.02552
晋州市烈士陵园,河北,石家庄,晋州市,0311,84338915,晋州市中心城区,东胜街49号,景点,烈士陵园,115.051758,38.023151
韩信公园,河北,石家庄,井陉县,0311,,井陉县其他,幸福东路45号,景点,公园/广场,114.152428,38.0303
三梦山,河北,石家庄,灵寿县,0311,82561039,灵寿县其他,320县道,景点,自然风光,114.147369,38.657478
西三教基督教教堂,河北,石家庄,石家庄,0311,,新火车站,南二环西路69号,景点,宗教,114.475182,38.005596
平山县博物馆,河北,石家庄,平山县,0311,82941369,平山平南路,文庙路35号,景点,博物馆,114.202347,38.252308
辛集和平公园,河北,石家庄,辛集市,0311,,辛集北国超市,兴华北路252号,景点,公园/广场,115.214157,37.930817
烈士纪念馆,河北,石家庄,辛集市,0311,,辛集北国超市,兴华北路252号,景点,纪念馆,115.214363,37.930973
石刻园,河北,石家庄,石家庄,0311,,红旗大街槐安路,新石南路263号,景点,公园/广场,114.451401,38.009212
三角河公园,河北,石家庄,石家庄,0311,,白佛,兴宁寺南侧,景点,公园/广场,114.587097,38.050148
兴宁寺,河北,石家庄,石家庄,0311,,白佛,和平东路596号,景点,宗教,114.585648,38.051544
民俗博物馆,河北,石家庄,石家庄,0311,85814700,中山东路,育才街181号,景点,博物馆,114.528791,38.028954
开元寺,河北,石家庄,正定县,0311,88786670,历史文化街,燕赵南大街109号,景点,宗教,114.57077,38.140175
河北博闻旅行社,河北,石家庄,石家庄,0311,159****6277,省二院,中华北大街98号通利商务603室,景点,旅行社,114.476723,38.052555
花卉园,河北,石家庄,石家庄,0311,85672648,中山东路,华清南街9号,景点,植物园,114.541,38.039543
河北航空国际旅行社,河北,石家庄,石家庄,0311,87010008,中山东路,中山东路471号民航售票处三楼,景点,旅行社,114.551051,38.043761
丁香园,河北,石家庄,石家庄,0311,,大石门,东岗路和谈固西街交叉口南行150米,景点,公园/广场,114.560707,38.014961
天山公园,河北,石家庄,石家庄,0311,,东开发区,苑东街,景点,公园/广场,114.615295,37.990002
基督教福音堂,河北,石家庄,石家庄,0311,87106029,中山西路,新华路94号,景点,宗教,114.480215,38.046953
白鹿温泉加勒比水上乐园,河北,石家庄,平山县,0311,82800937,平山县其他,温塘镇白鹿温泉景区内（近西柏坡）,景点,水上乐园,113.981506,38.249649
石津灌渠文化公园,河北,石家庄,石家庄,0311,,赵佗公园,古城西路与中华北大街交叉口东南270米,景点,文化公园,114.479736,38.101902
万寿寺,河北,石家庄,平山县,0311,,平山县其他,三汲乡东林山西麓,景点,宗教,114.20993,38.355129
佰程国际旅行社,河北,石家庄,石家庄,0311,80662316,中山东路,谈固西街111号商务楼3层3001室,景点,旅行社,114.55847,38.037405
太平河游乐场,河北,石家庄,石家庄,0311,152****7068,岔河,翠屏东路太平河游乐场,景点,游乐场,114.555122,38.117279
首信国际旅行社,河北,石家庄,石家庄,0311,80775290;80775280,中山东路,裕华东路方北高层4-1-1503室,景点,旅行社,114.535873,38.035105
君乐宝优致牧场,河北,石家庄,鹿泉区,0311,67362691;83884719,铜冶镇,环镇北路君乐宝优致牧场,景点,更多景点/周边游,114.3507,37.981331
佰程国旅,河北,石家庄,石家庄,0311,80662316,省二院,和平西路与水源街交口东南角自由立方,景点,旅行社,114.468636,38.058311
蟠龙湖西畔,河北,石家庄,元氏县,0311,84590000,元氏县其他,京赞路王村,景点,更多景点/周边游,114.357437,37.809746
新华明珠公园,河北,石家庄,石家庄,0311,,赵佗公园,北二环西路23号,景点,公园/广场,114.488518,38.085381
石家庄美术馆,河北,石家庄,石家庄,0311,89637819,中山西路,苑东街和裕华路交汇西北角,景点,美术馆,114.417709,38.035099
秦皇古驿道风景区,河北,石家庄,井陉县,0311,82341890,井陉县其他,上安镇白王庄村,景点,古代遗迹,114.190926,38.053207
野河漂流,河北,石家庄,平山县,0311,138****0724,平山县其他,城南6公里,景点,漂流,114.155891,38.225895
黑山大峡谷,河北,石家庄,平山县,0311,82887788,平山县其他,营里乡黑山关村西北2公里,景点,自然风光,113.592613,38.550316
隐凤山,河北,石家庄,井陉县,0311,,井陉县其他,南障城镇北障城村村北,景点,自然风光,114.101013,37.940441
怡桃源温泉养生会馆,河北,石家庄,平山县,0311,82816599,平山县其他,温塘镇怡桃源养生会所,景点,温泉,113.995384,38.266125
交通公园,河北,石家庄,栾城区,0311,,栾城区其他,交通局附近,景点,公园/广场,114.631111,37.901901
河北海外国际旅行社,河北,石家庄,石家庄,0311,157****0404,中山东路,平安大街4号,景点,旅行社,114.500534,38.043839
石家庄人民警察博物馆,河北,石家庄,石家庄,0311,86863405,火车站/解放广场,元南路66号石家庄市公安局,景点,博物馆,114.493561,38.020306
石家庄市公共交通总公司旅游出租汽车公司旅行社,河北,石家庄,石家庄,0311,87213118,红楼商圈,汇通路36号,景点,旅行社,114.4956,38.005314
若瑟堂南堂,河北,石家庄,石家庄,0311,,中山东路,煤市路新里绿地中山公馆,景点,宗教,114.493906,38.038946
微波公园,河北,石家庄,石家庄,0311,,桃园,沿东街与北二环东路交叉口西南角,景点,公园/广场,114.520599,38.078316
西兆通文化站,河北,石家庄,石家庄,0311,,长安区,西兆通镇兆通小区,景点,展览馆,114.599915,38.064121
天主堂,河北,石家庄,石家庄,0311,,中山东路,谈固北大街和平东路交汇处西南角,景点,宗教,114.561588,38.051818
中国国际旅行社,河北,石家庄,石家庄,0311,86053377;86057733,中山东路,中山东路326号先天下广场,景点,旅行社,114.521121,38.036781
观音寺,河北,石家庄,石家庄,0311,,桃园,丰收路81号,景点,宗教,114.550452,38.069882
白佛宠趣休闲广场,河北,石家庄,石家庄,0311,,中山东路,白佛西街银龙小区南区旁,景点,公园/广场,114.580996,38.046716
河北北方旅行社有限公司,河北,石家庄,石家庄,0311,,中山东路,建设北大街223号中浩第一商务3B,景点,旅行社,114.512177,38.062137
职工服务中心,河北,石家庄,石家庄,0311,,中山东路,光华路195号泽龙大厦底商,景点,展览馆,114.526303,38.059024
科学技术馆,河北,石家庄,石家庄,0311,85936789;85936788,中山东路,东大街1号,景点,科技馆,114.524887,38.042202
天恩堂,河北,石家庄,石家庄,0311,,天山海世界,西兆通镇民心河内,景点,宗教,114.606399,38.057118
真武庙,河北,石家庄,深泽县,0311,,深泽县其他,真武西路18号附近,景点,宗教,115.201603,38.187053
畅园,河北,石家庄,石家庄,0311,,中山东路,枫华园对过,景点,公园/广场,114.578495,38.038037
谛音寺,河北,石家庄,石家庄,0311,,红楼商圈,建设南大街171号,景点,宗教,114.513145,38.013199
中国旅行社,河北,石家庄,石家庄,0311,137****9035,中山东路,育才街槐中路交口北行500米,景点,旅行社,114.52853,38.029815
枫华园,河北,石家庄,石家庄,0311,,中山东路,裕东街10号,景点,公园/广场,114.57868,38.035867
国际旅行社,河北,石家庄,石家庄,0311,86123366,中华大街槐安路,槐中路116号华脉新村商务名座5楼806室,景点,旅行社,114.516449,38.027981
天山城市规划展览馆,河北,石家庄,石家庄,0311,66198888,东开发区,长江大道30号附近,景点,陈列馆,114.609077,38.038769
大西帐纪念堂,河北,石家庄,石家庄,0311,,东开发区,泰山街275号,景点,展览馆,114.65657,38.019035
尚游旅行社,河北,石家庄,石家庄,0311,,世纪公园,塔南路195号正西方向120米,景点,旅行社,114.55742,38.011161
龙卡公园,河北,石家庄,石家庄,0311,,世纪公园,裕翔街1号,景点,公园/广场,114.532593,38.011448
锦华国际旅游,河北,石家庄,石家庄,0311,,中山东路,谈固南大街150号,景点,旅行社,114.562855,38.027315
石家庄电视塔,河北,石家庄,石家庄,0311,81586688,世纪公园,体育南大街302号世纪公园电视塔,景点,高空观景,114.535805,38.020477
河北省旅游服务公司龙之旅旅行社,河北,石家庄,石家庄,0311,85814330;85885816,中山东路,东岗路34号电业小区(东岗路)42-1室,景点,旅行社,114.531249,38.015379
北大街天主堂,河北,石家庄,石家庄,0311,,中山西路,新华路北大街北行200米北大街54号,景点,宗教,114.486003,38.050309
北二环城市公园,河北,石家庄,石家庄,0311,,赵佗公园,北二环西路81号,景点,公园/广场,114.4701,38.086212
天鹅国旅,河北,石家庄,石家庄,0311,86956707,中山西路,泰华街61-1号,景点,旅行社,114.463104,38.049637
语林园,河北,石家庄,石家庄,0311,,新华区,西外环路辅路,景点,公园/广场,114.402817,38.101894
秋实公园,河北,石家庄,石家庄,0311,,新华区,利得市场路,景点,公园/广场,114.416954,38.107033
河北钱币博物馆,河北,石家庄,石家庄,0311,87871203,中山西路,中华北大街55号,景点,博物馆,114.477914,38.049809
藤园,河北,石家庄,石家庄,0311,,运河桥客运站,农机街27号,景点,公园/广场,114.498634,38.075771
临风田园,河北,石家庄,石家庄,0311,,新华区,石黄高速石清路收费站南侧,景点,公园/广场,114.437152,38.108397
纵横国际旅行社有限公司,河北,石家庄,石家庄,0311,87723833,中山西路,友谊北大街311号日盛商务大厦6层620室,景点,旅行社,114.454449,38.068769
九龙湖文化园,河北,石家庄,石家庄,0311,,新华区,石清路211号,景点,文化公园,114.426796,38.125797
河北航空国旅,河北,石家庄,石家庄,0311,,中山西路,和平西路442号,景点,旅行社,114.459614,38.059495
中国铁道旅行社河北分社,河北,石家庄,石家庄,0311,,中山西路,水源街93号,景点,旅行社,114.466011,38.052221
绿荫广场,河北,石家庄,石家庄,0311,,中山西路,宁安路与中华北大街交汇处东南侧,景点,广场,114.477722,38.053745
三教堂,河北,石家庄,石家庄,0311,,新华区,警安路与惠通路交口东50米路北,景点,宗教,114.419403,38.098457
太岳公园,河北,石家庄,石家庄,0311,,新华区,石纺路3-3号,景点,公园/广场,114.393089,38.094596
靶场街夜市,河北,石家庄,石家庄,0311,,中山西路,靶场街11号,景点,夜市,114.449402,38.042187
邑园,河北,石家庄,石家庄,0311,,中山西路,裕华西路126号,景点,公园/广场,114.452944,38.034461
圣母庙,河北,石家庄,石家庄,0311,,中山西路,石获南路29号,景点,宗教,114.426059,38.054469
振四街纪念堂,河北,石家庄,石家庄,0311,,中山西路,西二环南路188号,景点,历史建筑,114.434831,38.022032
习三内画民间工艺博物馆,河北,石家庄,石家庄,0311,87023110,中山西路,中山西路96号习三艺术大厦,景点,博物馆,114.480186,38.04303
元广寺,河北,石家庄,石家庄,0311,,简良,石获南路29号,景点,宗教,114.425117,38.054134
桥西区健康公园,河北,石家庄,石家庄,0311,,红旗大街槐安路,石铜路51号,景点,公园/广场,114.453049,38.011353
正定基督教堂,河北,石家庄,正定县,0311,,正定镇政府,镇州北街107号,景点,宗教,114.575272,38.150417
振壹街纪念堂,河北,石家庄,石家庄,0311,,红旗大街槐安路,红旗大街626号西南方向170米,景点,纪念公园,114.461727,37.975187
三官庙,河北,石家庄,石家庄,0311,,红旗大街槐安路,工农路与前进街交口北行100米路西金正帝景城,景点,宗教,114.472092,38.033791
真际禅林,河北,石家庄,石家庄,0311,,中山西路,裕华西路142号,景点,宗教,114.446711,38.034491
康辉旅游,河北,石家庄,石家庄,0311,87036666,中山西路,水产西街21号,景点,旅行社,114.458294,38.045044
桥西和平公园,河北,石家庄,石家庄,0311,67597209,中山西路,中山西路343号,景点,公园/广场,114.464852,38.045255
桥西天主堂,河北,石家庄,石家庄,0311,,中山西路,西里街11号,景点,宗教,114.457545,38.036281
振头关帝庙,河北,石家庄,石家庄,0311,,红旗大街槐安路,仓槐街8号,景点,宗教,114.454575,38.025986
民心广场,河北,石家庄,石家庄,0311,,红旗大街槐安路,维明南大街与裕华西路交口,景点,广场,114.468498,38.033428
五道庙,河北,石家庄,石家庄,0311,,井陉矿区,古槐街23号,景点,宗教,114.067497,38.091545
清凉湾湿地公园,河北,石家庄,石家庄,0311,,井陉矿区,202省道,景点,公园/广场,114.063316,38.085022
大厦旅社,河北,石家庄,石家庄,0311,,井陉矿区,南纬东路,景点,旅行社,114.065589,38.065269
天户峪昊源生态园,河北,石家庄,石家庄,0311,,井陉矿区,青园南路南150米,景点,动植物园,114.010994,38.0812
行宫,河北,石家庄,正定县,0311,,子龙广场,兴荣路46-3号,景点,历史建筑,114.579536,38.146961
高平地道战遗址,河北,石家庄,正定县,0311,,正定县其他,革命烈士纪念塔附近,景点,古代遗迹,114.468384,38.262238
三关雄镇,河北,石家庄,正定县,0311,,历史文化街,燕赵南大街382号,景点,古村古镇,114.570984,38.129223
职工服务中心,河北,石家庄,正定县,0311,,子龙广场,府西街6-5号,景点,展览馆,114.569038,38.146818
迎旭公园,河北,石家庄,正定县,0311,,正定县其他,城东街与恒山东路交叉口东南100米,景点,公园/广场,114.590622,38.15044
子龙广场,河北,石家庄,正定县,0311,,子龙广场,常山西路4号,景点,广场,114.568924,38.144852
正定城,河北,石家庄,正定县,0311,,正定镇政府,华安东路与镇州北街交叉口南150米,景点,人文古迹,114.576187,38.157436
罗家庄村文化广场,河北,石家庄,正定县,0311,,正定县其他,庆丰巷与康宁路交叉口南100米,景点,公园/广场,114.628606,38.146467
非常假期旅行社,河北,石家庄,正定县,0311,88012688,历史文化街,恒州南街西门里小学公交站,景点,旅行社,114.5645,38.14182
旭日国旅,河北,石家庄,正定县,0311,85171132;150****9963,正定火车站,华安西路28号,景点,旅行社,114.566414,38.159414
妇联旅游服务中心,河北,石家庄,正定县,0311,,隆兴寺,中山东路54号,景点,旅行社,114.578665,38.141248
良都公园,河北,石家庄,井陉县,0311,,井陉县其他,微新路东150米,景点,公园/广场,114.183822,37.999352
龙岩寺,河北,石家庄,井陉县,0311,,井陉县其他,X061,景点,宗教,114.142143,37.839714
千佛岩,河北,石家庄,井陉县,0311,,井陉县其他,七狮村平涉路,景点,人文古迹,114.081444,37.899651
朝阳寺,河北,石家庄,井陉县,0311,,井陉县其他,正一街6号,景点,宗教,114.085454,38.044704
杨庄公园,河北,石家庄,井陉县,0311,,井陉县其他,202省道南50米,景点,公园/广场,114.077232,37.828484
千年古刹灵岩寺,河北,石家庄,井陉县,0311,83973338,井陉县其他,202省道西50米,景点,宗教,114.073181,37.952564
井陉县宣传文化中心,河北,石家庄,井陉县,0311,,井陉中心市场,微水镇建设北路2号,景点,展览馆,114.14399,38.03302
辛庄公园,河北,石家庄,井陉县,0311,,井陉县其他,107乡道南100米,景点,公园/广场,113.902657,38.088558
井陉水上公园,河北,石家庄,井陉县,0311,,井陉县其他,307国道,景点,公园/广场,114.137589,38.041023
苍山园,河北,石家庄,井陉县,0311,,井陉县其他,X061与元大线交叉口东北方向30米,景点,公园/广场,114.112129,37.85009
石头民俗博物馆,河北,石家庄,井陉县,0311,82376064,井陉县其他,s202,景点,博物馆,114.032631,37.941906
幽居寺塔,河北,石家庄,灵寿县,0311,,灵寿县其他,寨头乡寺上附近,景点,宗教,114.04158,38.593491
关帝阁,河北,石家庄,高邑县,0311,,高邑县中心城区,旧城街,景点,人文古迹,114.618591,37.596413
凤北公园,河北,石家庄,高邑县,0311,,高邑县中心城区,府前路151号,景点,公园/广场,114.613548,37.617538
宸皈寺,河北,石家庄,栾城区,0311,,东开发区,栾城县056县道,景点,宗教,114.601906,37.967906
人民公园,河北,石家庄,栾城区,0311,,人民公园,天山水榭花都,景点,城市公园,114.648369,37.898067
楼底公园,河北,石家庄,石家庄,0311,,裕华区,景观路北150米,景点,公园/广场,114.545917,37.970722
郄马镇综合文化站,河北,石家庄,栾城区,0311,,东开发区,寿康大街石家庄高新技术产业开发区郄马镇人民政府西侧约120米,景点,展览馆,114.625854,37.978294
天阳商业街,河北,石家庄,栾城区,0311,,天阳商业街,宏达路与泰安街交叉口东北50米,景点,步行街,114.650917,37.893929
东街纪念堂,河北,石家庄,栾城区,0311,,栾城区其他,富强路38号,景点,纪念馆,114.638802,37.879364
香莲寺,河北,石家庄,行唐县,0311,,行唐县其他,龙州镇升仙桥路75号,景点,宗教,114.550902,38.441706
高客旅行社,河北,石家庄,行唐县,0311,,行唐县其他,玉城大街与花园胡同交叉口东100米,景点,旅行社,114.553925,38.438435
老母庙,河北,石家庄,行唐县,0311,,行唐县其他,顺城路51号,景点,宗教,114.551231,38.433239
林山风景名胜区,河北,石家庄,平山县,0311,,平山县其他,066县道,景点,自然风光,114.212814,38.333195
中山故城,河北,石家庄,平山县,0311,,平山县其他,066县道北50米,景点,人文古迹,114.272751,38.337898
四季青旅行社,河北,石家庄,平山县,0311,82931166;82931188,平山桥西,建设南大街4号,景点,旅行社,114.184549,38.258689
平山明珠公园,河北,石家庄,平山县,0311,,平山桥西,明珠公园,景点,公园/广场,114.193436,38.260635
东方巨龟苑景区,河北,石家庄,平山县,0311,82900815;89113166,平山县其他,平山镇东冶村健康街东方巨龟苑景区,景点,游乐场,114.155144,38.225758
西柏坡森林公园,河北,石家庄,平山县,0311,,平山县其他,018县道,景点,森林公园,113.973625,38.375175
敬业滨河公园,河北,石家庄,平山县,0311,,平山县其他,钢城大街24号正西方向130米,景点,公园/广场,114.137276,38.372295
温塘度假区,河北,石家庄,平山县,0311,,平山县其他,白鹿大道,景点,更多景点/周边游,113.964699,38.256363
中央宣传部旧址,河北,石家庄,平山县,0311,,平山县其他,西柏坡镇迎宾路2号,景点,古代遗迹,113.931847,38.344185
志远旅行社有限公司,河北,石家庄,平山县,0311,,平山县中心城区,建设南大街9号,景点,旅行社,114.18481,38.256789
石家庄志远国旅,河北,石家庄,平山县,0311,82915678;82916789,平山县中心城区,柏坡东路182号,景点,旅行社,114.213524,38.258739
游客服务中心,河北,石家庄,平山县,0311,,平山县其他,南冶东沟,景点,公园/广场,113.846571,38.216431
西柏坡博物馆,河北,石家庄,平山县,0311,82851858,平山县其他,岭北路西柏坡村,景点,博物馆,113.934509,38.345669
中山湖,河北,石家庄,鹿泉区,0311,,鹿泉区其他,外环路,景点,自然风光,114.262077,38.225975
曹火星纪念馆,河北,石家庄,平山县,0311,,平山县其他,商业西街20号,景点,纪念馆,114.013832,38.324265
中央统战部旧址,河北,石家庄,平山县,0311,,平山县其他,岗南镇李家庄村,景点,古代遗迹,114.008354,38.371147
驼梁景区旅游文化拓展中心,河北,石家庄,平山县,0311,,平山县其他,前大地村,景点,公园/广场,113.803169,38.721153
城隍庙,河北,石家庄,无极县,0311,,无极东路,无极路东段路北,景点,宗教,114.979774,38.177647
新城市旅行社,河北,石家庄,无极县,0311,,无极西路,正义北街,景点,旅行社,114.96887,38.17806
琉璃光净业寺,河北,石家庄,赞皇县,0311,150****8608,嶂石岩,县城东4公里处,景点,宗教,114.438896,37.677952
深泽县烈士陵园,河北,石家庄,深泽县,0311,,深泽县其他,钟楼路深泽县人民政府东北侧约200米,景点,烈士陵园,115.202353,38.185653
康辉旅游石油代办处,河北,石家庄,深泽县,0311,,深泽县其他,石油大街,景点,旅行社,115.188249,38.177589
永通桥公园,河北,石家庄,赵县,0311,,三零八,永通路157号,景点,公园/广场,114.767982,37.755184
古佛道场,河北,石家庄,赵县,0311,,柏林禅寺,柏林大街74号,景点,宗教,114.782921,37.749573
古城墙遗址园,河北,石家庄,赵县,0311,,赵县其他,临┞匪榭花都西北侧约180米,景点,古代遗迹,114.769135,37.742687
中国・元氏历史文化城,河北,石家庄,元氏县,0311,,元氏县其他,长春路金山城饺子对面,景点,文化公园,114.533508,37.752827
东阳村休闲广场,河北,石家庄,元氏县,0311,,元氏县其他,装院路东150米,景点,更多景点/周边游,114.410339,37.812923
大自然旅行社,河北,石家庄,元氏县,0311,80712007;80761216,元氏县其他,昌盛街天天烟酒超市旁,景点,旅行社,114.528087,37.763664
芳菲园博物馆,河北,石家庄,元氏县,0311,,元氏县其他,芳菲园博物馆,景点,博物馆,114.523772,37.751392
蟠龙湖吉达度假村会议中心,河北,石家庄,元氏县,0311,,元氏县其他,蟠龙湖吉达度假村,景点,景点/周边游,114.398041,37.802032
中华糕饼研究院中华糕饼河北博物馆,河北,石家庄,元氏县,0311,,元氏县其他,元氏大街377号,景点,博物馆,114.531006,37.836887
元氏会堂,河北,石家庄,元氏县,0311,,人口文化广场,槐阳大街,景点,景点/周边游,114.539978,37.752796
石家庄市动物园游客服务中心,河北,石家庄,鹿泉区,0311,,动物园,动物园大门口,景点,公园/广场,114.316676,38.066966
极乐寺,河北,石家庄,鹿泉区,0311,,鹿泉区其他,灵岩寺路,景点,宗教,114.27401,38.067657
秦庄荷花园,河北,石家庄,鹿泉区,0311,,鹿泉区其他,232省道,景点,植物园,114.355247,38.208496
寺家庄村民服务中心,河北,石家庄,鹿泉区,0311,,鹿泉区其他,天宁路家合园西南侧,景点,展览馆,114.455099,37.942299
龙泉寺,河北,石家庄,鹿泉区,0311,132****1404,鹿泉区其他,上庄镇韩庄,景点,宗教,114.309959,38.004135
秀水公园,河北,石家庄,石家庄,0311,,新华区,廉政路,景点,公园/广场,114.383583,38.091694
河北省鹿泉市烈士陵园,河北,石家庄,鹿泉区,0311,,鹿泉区其他,镇宁路,景点,烈士陵园,114.339141,38.091163
清真寺,河北,石家庄,新乐市,0311,,新乐市其他,G107新乐市彭家庄回族中学东侧约270米,景点,宗教,114.760262,38.374786
晋州市博物馆,河北,石家庄,晋州市,0311,,摩尔新街,向阳街113号,景点,博物馆,115.044823,38.03072
时代公园,河北,石家庄,晋州市,0311,,晋州市其他,迎宾大道,景点,公园/广场,115.074257,38.041782
兴国寺,河北,石家庄,藁城区,0311,,藁城区中心城区,东城北街207号,景点,宗教,114.85218,38.040581
长盛园,河北,石家庄,藁城区,0311,,人民医院,廉州医院附近,景点,公园/广场,114.859703,38.036568
九门清真女寺,河北,石家庄,藁城区,0311,,藁城区其他,204省道,景点,宗教,114.741999,38.104682
中青旅,河北,石家庄,藁城区,0311,,通安街,通安街122号,景点,旅行社,114.842856,38.021536
梅花惨案纪念馆,河北,石家庄,藁城区,0311,,藁城区其他,金龙路,景点,纪念馆,114.830154,37.88718
京铁昌龙国际旅行社营业部,河北,石家庄,藁城区,0311,,藁城区中心城区,市府西路138号,景点,旅行社,114.838864,38.035699
非常假期旅行社,河北,石家庄,藁城区,0311,,人民广场,四明南街80号,景点,旅行社,114.84776,38.023373
育才公园,河北,石家庄,藁城区,0311,,藁城区中心城区,广电局附近,景点,公园/广场,114.826431,38.017693
三皇庙,河北,石家庄,藁城区,0311,,藁城区其他,张家庄镇蔡家岗村,景点,更多景点/周边游,114.680275,38.153938
系井文体广场,河北,石家庄,藁城区,0311,,藁城区其他,繁荣中路与繁荣路交叉口东北50米,景点,广场,114.819237,38.005119
高台庙,河北,石家庄,藁城区,0311,,藁城区中心城区,新华街185号,景点,宗教,114.844116,38.040604
辛集电视塔,河北,石家庄,辛集市,0311,,商业城,方碑西大街,景点,高空观景,115.215614,37.931744
公木纪念馆,河北,石家庄,辛集市,0311,,泰和商圈,兴华北路与育红街交叉口东北150米,景点,纪念馆,115.216896,37.922848
市府广场,河北,石家庄,辛集市,0311,,商业城,兴华北路与市府西大街交叉口东100米,景点,广场,115.217018,37.942024
非凡之旅旅行社,河北,石家庄,石家庄,0311,189****0083,中山西路,友谊南大街38号,景点,旅行社,114.451592,38.035692
康辉旅游,河北,石家庄,石家庄,0311,67693318,谈固,中山东路与谈固大街交口西南角,景点,旅行社,114.561637,38.043127
光大国际旅行社,河北,石家庄,石家庄,0311,,中山西路,建国路55号,景点,旅行社,114.454023,38.027843
绿信旅行社,河北,石家庄,石家庄,0311,,中山东路,裕华东路108号方北商务精装写字楼24楼,景点,旅行社,114.539469,38.035839
河北首创国际旅行社,河北,石家庄,石家庄,0311,86979333;86979555,中山东路,中山东路350号裕彤国际体育中心东三楼,景点,旅行社,114.535921,38.042751
正定县文庙,河北,石家庄,正定县,0311,86045642,子龙广场,育才街与裕华路交叉口南100米路西（近正定县第六中学）,景点,宗教,114.567261,38.143383
大自然国际旅行社,河北,石家庄,藁城区,0311,88111818;139****5527,藁城区中心城区,东城北街,景点,旅行社,114.852699,38.030819
时代报业旅行社,河北,石家庄,新乐市,0311,153****5017,爱尚广场,长寿路134号市政府对面,景点,旅行社,114.683714,38.342934
光大旅游,河北,石家庄,石家庄,0311,86956579,水上公园,联盟路街道联盟路639号光大旅游机票签证水上公园店,景点,旅行社,114.462369,38.079369
平安世纪旅行社,河北,石家庄,石家庄,0311,83036111,中山西路,西里街32号,景点,旅行社,114.457236,38.041196
常山公园,河北,石家庄,正定县,0311,,子龙广场,常山路,景点,公园/广场,114.573837,38.146671
富强公园,河北,石家庄,石家庄,0311,,世纪公园,富强大街,景点,公园/广场,114.524834,38.011059
阳光公园,河北,石家庄,石家庄,0311,,中山东路,北二环东路与建华北大街交叉路口往南约180米,景点,公园/广场,114.545519,38.073974
森泰庄园,河北,石家庄,鹿泉区,0311,181****2707,鹿泉区其他,寺家庄镇南龙贵村,景点,动植物园,114.43232,37.927471
泊水公园,河北,石家庄,栾城区,0311,,东开发区,台上村,景点,公园/广场,114.589432,37.966835
河北国旅,河北,石家庄,石家庄,0311,69012535,中山西路,和平西路283号,景点,旅行社,114.475677,38.058227
槐阳公园,河北,石家庄,元氏县,0311,,元氏县其他,蟠龙路157号,景点,公园/广场,114.522125,37.757112
基督教会,河北,石家庄,石家庄,0311,,世纪公园,煤机街东明商102号,景点,宗教,114.550966,38.023866
蟠龙洞,河北,石家庄,元氏县,0311,84581130,元氏县其他,蟠龙湖附近,景点,自然风光,114.38549,37.801857
省会文化广场,河北,石家庄,石家庄,0311,,中山东路,中山东路316号,景点,公园/广场,114.522575,38.042267
太平河滑雪场,河北,石家庄,石家庄,0311,88021800,岔河,体育北大街子龙大桥南侧,景点,滑雪场,114.55542,38.112419
天台寺,河北,石家庄,藁城区,0311,,藁城区其他,廉州镇中照村村南,景点,宗教,114.777802,38.015545
龙泉山庄旅游度假有限公司,河北,石家庄,石家庄,0311,,红旗大街槐安路,槐安西路193号,景点,旅行社,114.448906,38.024416
魔幻镜宫,河北,石家庄,石家庄,0311,,世纪公园,世纪公园内部,景点,主题公园,114.53582,38.021523
千秋公园,河北,石家庄,高邑县,0311,,高邑县中心城区,京深线与滨榆线交叉路口往东北约100米,景点,公园/广场,114.59977,37.597179
人口文化广场,河北,石家庄,平山县,0311,,平山县其他,西柏坡镇迎宾路13号,景点,公园/广场,113.940186,38.350185
塔谈纪念堂,河北,石家庄,鹿泉区,0311,,鹿泉区其他,石家庄环城水系胜利公园,景点,纪念馆,114.496789,37.961469
学生社会实践服务中心,河北,石家庄,石家庄,0311,,中山东路,建设北大街228号东海国际15B5室,景点,展览馆,114.511503,38.062843
藁城现代农业观光园,河北,石家庄,藁城区,0311,86510066;86510088,藁城区其他,沿307往东机场路往北观光园1号,景点,自然风光,114.731737,38.061278
辛玛王国主题游乐园,河北,石家庄,鹿泉区,0311,67367176,动物园,向阳南大街石家庄市动物园北门内,景点,主题乐园,114.307144,38.068115
中游国际旅行社,河北,石家庄,石家庄,0311,66178758,中山东路,乐汇城B座2202,景点,旅行社,114.497632,38.044012
石家庄温塘会展服务有限公司,河北,石家庄,石家庄,0311,80771272,中山西路,中山东路与大经街交叉口中山华府7号楼2单元405,景点,旅行社,114.495885,38.040445
天尚旅行社总社,河北,石家庄,石家庄,0311,4006085261,中山东路,广安大街银泰国际B座2401室,景点,旅行社,114.521841,38.047051
河北风情旅行社,河北,石家庄,石家庄,0311,69017799,中山西路,和平路与泰华街交口南行50米路东,景点,旅行社,114.464035,38.058523
河北省园博园,河北,石家庄,正定县,0311,89197156,河北省园博园,天宁路与新城大街交叉口西南角,景点,植物园,114.613846,38.144329
赵云庙,河北,石家庄,正定县,0311,88786670,隆兴寺,正定镇兴荣东路77号,景点,宗教,114.586853,38.147537
石家庄七女山,河北,石家庄,灵寿县,0311,86820140,灵寿县其他,寨头乡漆油沟村,景点,自然风光,114.071007,38.547859
黄金寨原生态旅游区,河北,石家庄,平山县,0311,82899888,平山县其他,王坡乡曹土沟村土沟路16号,景点,自然景观,114.070351,38.428116
石家庄金华寺森林公园,河北,石家庄,井陉县,0311,82345010,井陉县其他,南王庄乡乡政府东500米,景点,森林公园,114.229866,37.907852
河北佰程国际旅行社有限公司,河北,石家庄,石家庄,0311,69038030;183****8030,中山西路,中山西路258号（烈士陵园对面）佳泰大厦0711室,景点,旅行社,114.465102,38.042242
河北国旅,河北,石家庄,石家庄,0311,86102598,火车站/解放广场,东风路66号华夏家园B区16-0110门市,景点,旅行社,114.497063,38.022503
纵横国际旅行社,河北,石家庄,石家庄,0311,86012678,世纪公园,东岗路75号世纪花园正门东行10米路北,景点,旅行社,114.540754,38.015964
非常假期旅行社,河北,石家庄,石家庄,0311,131****8813,大石门,槐安路与谈固大街交口鑫科国际广场A座1307室,景点,旅行社,114.560906,38.022206
西柏坡景区,河北,石家庄,平山县,0311,82851390;82851381,平山县其他,西柏坡镇迎宾路,景点,革命根据地,113.942055,38.341576
大马村纪念堂,河北,石家庄,石家庄,0311,155****1359,大马庄园,东二环南路99号,景点,纪念馆,114.580269,38.015484
泰华惠民夜市,河北,石家庄,石家庄,0311,177****6127,水上公园,联盟路与泰华街交口西南角（近水上公园）,景点,夜市,114.462891,38.078705
美景天下国际旅行社,河北,石家庄,石家庄,0311,4000311546,谈固,北宋路与谈固北大街交叉口东行100米，天元超市2楼,景点,旅行社,114.563423,38.046692
西部长青柳仙谷,河北,石家庄,鹿泉区,0311,82205999,鹿泉区其他,白鹿泉乡梁庄010乡道西100米,景点,自然风光,114.287521,38.02177
润泽湖公园,河北,石家庄,辛集市,0311,,辛集市其他,安定大街9号,景点,公园/广场,115.205208,37.940742
西部长青四季滑雪场,河北,石家庄,鹿泉区,0311,82205666,鹿泉区其他,白鹿泉乡梁庄村,景点,滑雪场,114.299042,38.029079
五马山,河北,石家庄,赞皇县,0311,,嶂石岩,城东5公里,景点,自然风光,114.435066,37.672054
光大旅游,河北,石家庄,石家庄,0311,139****9697,中山西路,裕华西路128号益友购物中心B座1F层,景点,旅行社,114.451604,38.033884
光大旅游,河北,石家庄,石家庄,0311,67262176,中华大街槐安路,平安南大街85号,景点,旅行社,114.502322,38.028673
真像寺,河北,石家庄,石家庄,0311,,简良,三简路51号,景点,宗教,114.413223,38.061134
百家园林生态园,河北,石家庄,石家庄,0311,87777888,岔河,学府路负3号（胜利北街与学府路交口西北角）,景点,动植物园,114.486295,38.134989
中佐村,河北,石家庄,深泽县,0311,,深泽县其他,铁杆镇,景点,古村古镇,115.257927,38.18784
锦旭生态园,河北,石家庄,藁城区,0311,,藁城区其他,小丰村北,景点,动植物园,114.709886,38.06751
万营艺术空间,河北,石家庄,石家庄,0311,83078881,大石门,翟营南大街41号财库国际商务港31层,景点,美术馆,114.555328,38.023327
祥安国际旅行社,河北,石家庄,石家庄,0311,66182217,益元百货,联盟东路88号,景点,旅行社,114.487486,38.078476
博雅旅行社,河北,石家庄,平山县,0311,82902255;186****2192,平山县其他,西柏坡镇西柏坡村西柏坡招待所,景点,旅行社,113.93938,38.33887
泡泡堂儿童乐园,河北,石家庄,石家庄,0311,180****3715,谈固,中山路与翟营大街交叉口东南角3楼,景点,游乐场,114.556038,38.043059
名车宝贝赛车体验馆,河北,石家庄,石家庄,0311,189****0727,赵佗公园,中华北大街与北二环交口南行100米稻米宝贝儿童城2楼,景点,游乐场,114.478493,38.081951
旅游百事通,河北,石家庄,正定县,0311,180****9259,正定北国,恒州南街36号,景点,旅行社,114.56427,38.150978
窦王岭景区游乐场,河北,石家庄,井陉县,0311,87540831;185****3286,鹿泉区其他,吴家窑乡石佛村,景点,游乐场,114.289162,37.942123
刘秀公园,河北,石家庄,高邑县,0311,,高邑县中心城区,城南2华里的花园村村南,景点,公园/广场,114.614578,37.586048
河北海外国际旅行社,河北,石家庄,石家庄,0311,89806678,省博物馆,广安大街与和平路交口时代方舟A1层,景点,旅行社,114.521744,38.053207
石家庄极地海洋世界,河北,石家庄,鹿泉区,0311,66886006;83932000,动物园,向阳南大街石家庄市动物园内餐饮中心西侧100米,景点,海洋馆,114.302658,38.060047
黄壁庄水库,河北,石家庄,灵寿县,0311,,五岳寨,中义羊村黄壁庄水库,景点,现代建筑,114.29155,38.264511
大唐清河郡王纪功载政之颂碑,河北,石家庄,正定县,0311,,子龙广场,燕赵南大街140号,景点,古代遗迹,114.571243,38.143272
东方国旅,河北,石家庄,石家庄,0311,80668707,建华百货,跃进街道北宋路178号,景点,旅行社,114.553322,38.046558
青岩寺,河北,石家庄,井陉县,0311,177****9121,井陉县其他,307国道旁,景点,宗教,114.088661,38.004009
开心童乐园,河北,石家庄,正定县,0311,180****3823,正定机场,新城铺市场东南角,景点,游乐场,114.688271,38.261654
王母山风景区,河北,石家庄,平山县,0311,82860999;177****9144,平山县其他,王坡乡营盘村,景点,自然风光,114.096664,38.493523
嘉年华国际旅行社有限公司,河北,石家庄,石家庄,0311,,新华区,石获北路26号文诚大酒店商务6楼A6一6室,景点,旅行社,114.423672,38.068419
生态谷,河北,石家庄,平山县,0311,,平山县其他,大吾乡北白楼村,景点,动植物园,114.153877,38.280441
盛宏温泉嘉苑,河北,石家庄,石家庄,0311,,东开发区,珠峰大道和长江大道交叉口东南,景点,温泉,114.621719,38.022266
中山华府玫瑰园,河北,石家庄,石家庄,0311,,南花园步行街,中山路交大经街,景点,植物园,114.495949,38.041916
大河村,河北,石家庄,鹿泉区,0311,,鹿泉区其他,河北省石家庄市鹿泉区大河镇,景点,古村古镇,114.387634,38.134632
温泉假日,河北,石家庄,平山县,0311,,平山县其他,汉塘路,景点,温泉,113.99791,38.260262
清清温泉世界,河北,石家庄,平山县,0311,,平山县其他,温塘路清清世界生态度假村,景点,温泉,113.979294,38.266968
谢庄梨花节,河北,石家庄,赵县,0311,,赵县其他,谢庄乡谢庄村,景点,旅游项目/观光项目,114.98465,37.809727
国旅,河北,石家庄,石家庄,0311,,国际城,金马小区,景点,旅行社,114.562859,38.027311
爱多多水趣游乐园,河北,石家庄,新乐市,0311,177****5667,新华路,新兴路与邮电街交叉路口西50米路南,景点,更多景点/周边游,114.687073,38.349365
梦幻水上乐园,河北,石家庄,新乐市,0311,150****3565,新乐市其他,南环路荣和世纪南行400米路东,景点,水上乐园,114.702873,38.330433
凡华润生园,河北,石家庄,栾城区,0311,89899688,科技大学,056县道北100米,景点,公园/广场,114.511444,37.963799
柏林公园,河北,石家庄,石家庄,0311,,赵佗公园,红星街与北二环交叉口西行300米路南,景点,公园/广场,114.489365,38.081856
龙山蜡像馆景区,河北,石家庄,鹿泉区,0311,83898586,鹿泉区其他,宜安镇东鲍庄村,景点,蜡像馆,114.239281,38.21846
锦华国际旅行社,河北,石家庄,石家庄,0311,66185252;66185251,中山东路,体育南大街186号,景点,旅行社,114.532872,38.029229
河北省科学技术馆,河北,石家庄,石家庄,0311,85936788;85936789,华夏家园,中山路和东大街交叉口,景点,科技馆,114.525291,38.042431
天铭中心湖,河北,石家庄,鹿泉区,0311,,鹿泉区其他,海山大街与龙泉东路交汇处南行200米路西,景点,自然景观,114.328828,38.071318
海山广场,河北,石家庄,鹿泉区,0311,,鹿泉区其他,海山大街与镇宁路交汇处南行100米路西,景点,公园/广场,114.344688,38.087908
成德金街,河北,石家庄,正定县,0311,,正定北国,成德街与中山路交口南行100米路西,景点,步行街,114.558406,38.138776
五岳溪谷,河北,石家庄,灵寿县,0311,,灵寿县其他,南营乡抓麻村五岳寨旁,景点,自然景观,113.890816,38.702164
杏花沟公园,河北,石家庄,石家庄,0311,,井陉矿区,金川中路北100米,景点,公园/广场,114.053162,38.059078
以岭健康城,河北,石家庄,石家庄,0311,66703174,东开发区,珠江大道珠峰大街交口东南角,景点,更多景点/周边游,114.604507,38.02235
河北省土岭寨旅游开发有限公司,河北,石家庄,行唐县,0311,,行唐县其他,香港路御苑小区,景点,旅行社,114.563268,38.4413
嘉年华国旅,河北,石家庄,藁城区,0311,,胜利西路,四明北街23号,景点,旅行社,114.848189,38.030956
长青旅行,河北,石家庄,石家庄,0311,156****9697,西三教,槐安路东明家具城,景点,旅行社,114.481544,38.023582
石家庄温泉桃花浴旅行社,河北,石家庄,平山县,0311,85126788,平山平南路,圣煜丽水湾商业步行街220号,景点,旅行社,114.19407,38.25309
周淑英剪纸艺术馆,河北,石家庄,石家庄,0311,80799999,桥西区,石铜路389号,景点,美术馆,114.438358,37.998577
河北海外国际旅行社,河北,石家庄,藁城区,0311,88166008;151****9173,人民广场,人民广场73号,景点,旅行社,114.849154,38.018323
天山健身服务有限公司,河北,石家庄,石家庄,0311,139****0073,天山海世界,长江大道13号北国超市长江店东临电信营业厅内,景点,旅行社,114.605065,38.037917
大雄宝殿,河北,石家庄,行唐县,0311,,行唐县其他,升仙桥北路153号附近,景点,人文古迹,114.550713,38.441284
河北中青旅,河北,石家庄,元氏县,0311,131****2618,元氏县其他,常山路三生旁,景点,旅行社,114.513052,37.765922
东方国旅丰收路服务网点,河北,石家庄,石家庄,0311,156****5765,中山东路,丰收路百花街南行20米,景点,旅行社,114.518639,38.07156
天龙国际旅行社,河北,石家庄,行唐县,0311,82695369,行唐县其他,永昌北路与龙州西大街交叉口西50米,景点,旅行社,114.558698,38.442468
河北芳草国际旅行社,河北,石家庄,正定县,0311,138****8903,正定北国,成德南街156号,景点,旅行社,114.559383,38.144767
小客龙山文化遗址,河北,石家庄,正定县,0311,,正定县其他,西北小客村正东,景点,古代遗迹,114.525574,38.23867
青年旅游,河北,石家庄,无极县,0311,,无极西路,无极西路与正义南街交叉口东100米,景点,旅行社,114.969894,38.176956
海底世界,河北,石家庄,晋州市,0311,,曼诺商厦,中兴路37号,景点,海洋馆,115.063245,38.024285
旅游百事通,河北,石家庄,正定县,0311,4006677067,正定县其他,302省道人民政府南,景点,旅行社,114.658089,38.153799
河北国旅赵县营业部,河北,石家庄,赵县,0311,80811155,信誉楼商圈,自强路信誉楼东行100米路南,景点,旅行社,114.778985,37.760231
旅游百事通,河北,石家庄,石家庄,0311,88817799,益元百货,联盟路449号附近,景点,旅行社,114.469995,38.079215
龙凤山,河北,石家庄,井陉县,0311,,井陉县其他,石家庄井陉,景点,自然风光,114.147018,37.776611
河北众信国旅,河北,石家庄,晋州市,0311,,摩尔新街,向阳街119号,景点,旅行社,115.044344,38.031444
易盛旅行社,河北,石家庄,藁城区,0311,85152331,廉州西路,廉州路127号检察院对过,景点,旅行社,114.838255,38.020935
嘉年华国旅,河北,石家庄,正定县,0311,80754780,正定火车站,晨光路33号小商品北门东行150米路南,景点,旅行社,114.563265,38.165922
河北中青旅栾城店,河北,石家庄,栾城区,0311,89899696,栾城区中心城区,宏达路9号,景点,旅行社,114.645712,37.893392
河北联运旅行,河北,石家庄,石家庄,0311,,国际城,槐中路国际城小区旁,景点,旅行社,114.569746,38.029556
华嘉旅行社,河北,石家庄,石家庄,0311,,东开发区,宋营镇学苑路金色超市斜对面,景点,旅行社,114.623468,38.013922
商业街游乐场,河北,石家庄,晋州市,0311,136****4886,曼诺商厦,中兴路商业街游乐场,景点,游乐场,115.06406,38.024158
河北汇鑫旅行社,河北,石家庄,栾城区,0311,88706888;151****2226,栾城区其他,中国农业银行AT,景点,旅行社,114.516925,37.899305
龙湾裂谷旅游开发总公司,河北,石家庄,平山县,0311,,北国商城,中山东路与康乐街交叉口东北200米,景点,旅行社,114.198074,38.259236
河北海外国旅,河北,石家庄,新乐市,0311,88589777,爱尚广场,建新街与新开路交叉口东100米,景点,旅行社,114.702589,38.346785
北航国旅,河北,石家庄,石家庄,0311,,东开发区,天山大街周通家园底商,景点,旅行社,114.608588,38.02688
锦华国旅,河北,石家庄,石家庄,0311,69004678,东开发区,珠峰大街与湘江道口东行50米路南,景点,旅行社,114.603664,38.032964
大兴寺居士林念佛堂,河北,石家庄,鹿泉区,0311,,鹿泉区其他,金河路红满楼超市对面,景点,景点/周边游,114.432501,37.982911
行唐县基督教会,河北,石家庄,行唐县,0311,,行唐县其他,009县道长城养殖中心对面,景点,宗教,114.544571,38.41996
高新区文化中心,河北,石家庄,石家庄,0311,,东开发区,高新技术开发区湘江道180号,景点,展览馆,114.633202,38.032921
海心石,河北,石家庄,行唐县,0311,,行唐县其他,320县道妈咪爱孕婴旁,景点,更多景点/周边游,114.461357,38.485374
群凯旅行社,河北,石家庄,石家庄,0311,85315118,东开发区,朝阳路河北交通职业技术学院西南侧约220米,景点,旅行社,114.639462,38.025562
易盛国旅,河北,石家庄,石家庄,0311,69008568,益元百货,联盟路与文苑街交口南行50米,景点,旅行社,114.466727,38.078486
海洋旅行社,河北,石家庄,灵寿县,0311,,灵寿县其他,人民东路与新开街交叉口东90米,景点,旅行社,114.385289,38.30883
紫藤葡萄庄,河北,石家庄,鹿泉区,0311,87659903,鹿泉区其他,学府路西头,景点,更多景点/周边游,114.421486,38.182877
中国旅行社,河北,石家庄,石家庄,0311,,红楼商圈,青园街333号沁舒园底商,景点,旅行社,114.518509,38.012455
风光国旅,河北,石家庄,灵寿县,0311,,灵寿县其他,人民东路7-3号,景点,旅行社,114.377387,38.308746
白鹿温泉,河北,石家庄,平山县,0311,82800937;82800888,平山县其他,温塘镇,景点,温泉,113.981583,38.24971
唐宋古城,河北,石家庄,井陉县,0311,,井陉县其他,天长镇中部,景点,古村古镇,114.021492,37.997471
东岳庙,河北,石家庄,晋州市,0311,,晋州市其他,G1811,景点,宗教,115.063644,38.050594
孤园,河北,石家庄,井陉县,0311,,井陉县其他,北孤台村,景点,人文古迹,114.084862,37.85495
莲花山,河北,石家庄,鹿泉区,0311,,鹿泉区其他,近郊抱犊寨风景区,景点,自然景观,114.273937,38.075987
中国纵横旅行社,河北,石家庄,藁城区,0311,,人民广场,四明南街与廉州东路交叉口东北50米,景点,旅行社,114.84825,38.0216
河北精英旅行社珍玉假期,河北,石家庄,石家庄,0311,,赵佗公园,中华北大街与新苑路交叉口东行200米,景点,旅行社,114.480348,38.092187
中国青年旅行社,河北,石家庄,正定县,0311,,历史文化街,中山西路,景点,旅行社,114.561882,38.141788
苍岩宫,河北,石家庄,平山县,0311,,平山县其他,天桂山景区内,景点,历史建筑,113.742966,38.259132
滨河水上乐园,河北,石家庄,深泽县,0311,,深泽县其他,西苑街1号,景点,游乐场,115.197227,38.160484
CTS中国旅行社,河北,石家庄,石家庄,0311,,东开发区,珠峰大街与槐安路交口西北角水榭花都底商,景点,旅行社,114.602102,38.023906
腾飞货运部,河北,石家庄,藁城区,0311,88332703,藁城区其他,富强大街,景点,旅行社,114.747054,38.153734
万寿寺塔林,河北,石家庄,平山县,0311,,平山县其他,三汲乡寺沟村,景点,宗教,114.206673,38.355045
百事通国际旅行社,河北,石家庄,石家庄,0311,138****9548,西美花街,红旗街道红旗大街汇丰路交口南行10米路西北国超市西美花街店收银口,景点,旅行社,114.460924,37.996003
人祖庙,河北,石家庄,新乐市,0311,,新乐市其他,近郊伏羲台,景点,宗教,114.715813,38.38147
虚云禅林,河北,石家庄,石家庄,0311,83625448,新华区,植物园街,景点,宗教,114.40139,38.08514
东天门,河北,石家庄,井陉县,0311,,井陉县其他,苍岩山风景名胜区内,景点,人文古迹,114.146523,37.829697
中山旅行社,河北,石家庄,鹿泉区,0311,,铜冶镇,石铜路18,景点,旅行社,114.384423,37.967397
游遍天下旅行社北斗路服务网点,河北,石家庄,鹿泉区,0311,82019993,鹿泉区其他,北斗东路与向阳北大街交叉口东行,景点,旅行社,114.31901,38.09053
河北省新闻国际旅行社,河北,石家庄,石家庄,0311,67562222,华夏家园,裕华路青园街河北日报生活小区7号楼,景点,旅行社,114.517804,38.034114
河北航丽国际旅行社,河北,石家庄,正定县,0311,89828419,正定北国,恒山西路40号,景点,旅行社,114.56751,38.15275
中国国际旅行社,河北,石家庄,石家庄,0311,66183330,盛世长安,跃进路79号正西方向50米,景点,旅行社,114.543085,38.051595
白毛女艺术陈列馆,河北,石家庄,平山县,0311,,平山县其他,燕尾庄村附近,景点,展览馆,113.735268,38.254421
春秋旅游,河北,石家庄,石家庄,0311,87042589,三元,合作路113-1号,景点,旅行社,114.457865,38.054253
河北省中国国际旅行社公司,河北,石家庄,石家庄,0311,,中山西路,浓情欧罗巴风情街2层2002室,景点,旅行社,114.476171,38.031761
灵寿县民众档案保管事务所,河北,石家庄,灵寿县,0311,,灵寿县其他,人民西路65-8号,景点,展览馆,114.366623,38.308323
振兴旅行社,河北,石家庄,石家庄,0311,,红楼商圈,建设南大街223,景点,旅行社,114.512851,38.013842
何家庄村纪念堂,河北,石家庄,新乐市,0311,,新乐市其他,何家庄村东北,景点,纪念馆,114.721558,38.391315
环球行旅行社,河北,石家庄,石家庄,0311,,中山东路,建设北大街223号中浩第一商务15层g室,景点,旅行社,114.51219,38.06218
北航国际旅行社,河北,石家庄,石家庄,0311,159****7744,中山西路,平安大街乐模大厦南座,景点,旅行社,114.501,38.04528
河北青年国旅,河北,石家庄,正定县,0311,139****4400,正定北国,成德南街156号,景点,旅行社,114.559251,38.143581
马于温泉,河北,石家庄,晋州市,0311,84455003,晋州市其他,X003,景点,温泉,115.130478,37.979229
萤火虫主题公园,河北,石家庄,石家庄,0311,,中山西路,裕华西路66号缔景城海悦天地4层正西方向30米,景点,公园/广场,114.474388,38.034744
中国国际旅行社,河北,石家庄,赵县,0311,,赵县其他,北环路与234省道交叉口东北50米,景点,旅行社,114.968511,37.780201
新闻国旅,河北,石家庄,石家庄,0311,,东开发区,高新技术开发区槐安路水榭花都33号楼底商103室,景点,旅行社,114.599438,38.023877
西部长青景区,河北,石家庄,鹿泉区,0311,82205888,鹿泉区其他,白鹿泉乡水峪村,景点,自然景观,114.292587,38.025021
西部长青休博城,河北,石家庄,鹿泉区,0311,89175000,鹿泉区其他,白鹿泉乡梁庄村,景点,更多景点/周边游,114.287056,38.019306
中国人民银行成立旧址纪念馆,河北,石家庄,石家庄,0311,87871203,新百广场,中华北大街55号,景点,纪念馆,114.477676,38.049782
河北国旅,河北,石家庄,石家庄,0311,,红旗大街槐安路,槐安西路121号北70米,景点,旅行社,114.463114,38.025134
北航国旅,河北,石家庄,鹿泉区,0311,83893031,鹿泉区其他,北斗西路实验小学附近,景点,旅行社,114.311681,38.088531
西洋仰韶文化遗址,河北,石家庄,正定县,0311,,正定县其他,新元高速,景点,古代遗迹,114.61618,38.175052
远方国际旅行社,河北,石家庄,石家庄,0311,,井陉矿区,红房街附近,景点,旅行社,114.069853,38.06394
安济广场,河北,石家庄,赵县,0311,,三零八,赵州镇308国道,景点,公园/广场,114.75927,37.759762
鳄鱼馆,河北,石家庄,石家庄,0311,,桃园,复兴街东150米,景点,动物园,114.522758,38.100222
从家飞商旅中心,河北,石家庄,正定县,0311,,正定机场,正定国际机场2层,景点,旅行社,114.698559,38.278758
中国旅行社,河北,石家庄,鹿泉区,0311,177****0703;83898661,鹿泉区其他,新北路与石邑大街交叉口东50米,景点,旅行社,114.321179,38.091661
明天圣・佛,河北,石家庄,正定县,0311,,历史文化街,正定镇燕赵南大街220号,景点,宗教,114.571648,38.138187
名典小镇,河北,石家庄,无极县,0311,,千山西路,贸易南街与234省道交汇处西北150米,景点,现代小镇,114.962959,38.167068
沃凯国旅,河北,石家庄,正定县,0311,,历史文化街,历史文化街牌楼北行20米路东,景点,旅行社,114.571744,38.138356
风情国旅,河北,石家庄,石家庄,0311,83070930,大马庄园,东岗路尚东绿洲底商11-7亮点眼镜2楼,景点,旅行社,114.565767,38.015904
嘉年华国旅,河北,石家庄,鹿泉区,0311,180****0760,鹿泉区其他,北斗东路与石邑大街交叉口西行正西方向160米,景点,旅行社,114.318243,38.090323
长兴国旅,河北,石家庄,石家庄,0311,,中山西路,东三教街Z郡1-2B01号,景点,旅行社,114.492877,38.021601
中桥旅行社,河北,石家庄,正定县,0311,,子龙广场,裕华路与育才街交口万隆国际2号楼3公寓712室,景点,旅行社,114.567231,38.144251
河北国旅,河北,石家庄,石家庄,0311,85026333;189****8912,新火车站,盛世华庭松涛园5-2-102室,景点,旅行社,114.471273,38.011123
天鹅国旅,河北,石家庄,石家庄,0311,,中山西路,北城路,景点,旅行社,114.46323,38.07554
新城铺商代遗址,河北,石家庄,正定县,0311,,正定机场,新城铺村空港国际小区北门21号西北方向140米,景点,古代遗迹,114.680763,38.280239
挂云山,河北,石家庄,井陉县,0311,,井陉县其他,东北部苍岩山内,景点,自然景观,114.245216,38.153519
非凡之旅旅行社有限公司,河北,石家庄,石家庄,0311,83999440,益友百货/西里,友谊南大街38号百度空间大厦1715室,景点,旅行社,114.451671,38.035781
石家庄市博物馆,河北,石家庄,石家庄,0311,67663039,中山东路,建设北大街11号,景点,博物馆,114.512695,38.045887
临济寺澄灵塔,河北,石家庄,正定县,0311,,历史文化街,燕赵南大街272号,景点,宗教,114.573021,38.135277
关山亲水公园,河北,石家庄,石家庄,0311,,中山东路,隆盛路1号,景点,公园/广场,114.480425,38.049566
锦华国旅,河北,石家庄,石家庄,0311,,中山东路,建设北大街48号,景点,旅行社,114.511141,38.061731
旅游百事通,河北,石家庄,石家庄,0311,,中山东路,建设北大街261号新浩城北区11-13号,景点,旅行社,114.514398,38.065308
联邦空中花园,河北,石家庄,石家庄,0311,80979666,空中花园,翟营南大街386号,景点,植物园,114.55442,38.010277
马家大院,河北,石家庄,正定县,0311,,历史文化街,园北路与燕赵南大街交叉口,景点,历史建筑,114.572182,38.141823
百事通国际旅行社,河北,石家庄,石家庄,0311,83830079,中山西路,师范街与支农路交叉口东南交,景点,旅行社,114.466381,38.028211
河北国旅,河北,石家庄,石家庄,0311,86988121,国际城,煤机街湘仔肥肠旁,景点,旅行社,114.550738,38.030558
河北海外国际旅行社有限公司,河北,石家庄,石家庄,0311,67665000,中山西路,中华南大街176号万豪大厦1906室,景点,旅行社,114.476911,38.031021
万千国旅,河北,石家庄,石家庄,0311,139****5627,中山西路,阜康街道胜利大街156号富天大厦4楼426室,景点,旅行社,114.500123,38.058913
中桥国际旅行社,河北,石家庄,石家庄,0311,153****3595,中山西路,中山西路258号嘉泰大厦1708室,景点,旅行社,114.464973,38.042353
石家庄春之旅旅行社,河北,石家庄,石家庄,0311,80660722,中山西路,中华南大街176号万豪大厦A座1017室,景点,旅行社,114.476824,38.031034
东焦天主堂,河北,石家庄,石家庄,0311,,中山西路,永泰街1号,景点,宗教,114.475911,38.053911
3D魔幻艺术馆,河北,石家庄,石家庄,0311,68030263,石岗大街,华林国际完美婚嫁广场3层,景点,美术馆,114.478836,38.075256
海山公园,河北,石家庄,鹿泉区,0311,,鹿泉区其他,获鹿镇北斗东路与海山北大街交叉口东北角,景点,公园/广场,114.330063,38.095146
石家庄当代美术馆,河北,石家庄,石家庄,0311,67567881,万象天成,中山西路96号习三艺术大厦6楼,景点,美术馆,114.480278,38.043041
神农福地种植专业合作社,河北,石家庄,栾城区,0311,85438999,栾城区其他,大任庄村任庄路,景点,动植物园,114.703705,37.911839
龙凤湖,河北,石家庄,鹿泉区,0311,,鹿泉区其他,天籁山水清音附近,景点,自然风光,114.37809,37.927753
河北汇春肖家营花卉基地,河北,石家庄,石家庄,0311,87160000,岔河,赵佗路街道古城西路3号,景点,更多景点/周边游,114.487867,38.104808
九龙潭,河北,石家庄,平山县,0311,,平山县其他,宅北乡会口村,景点,自然风光,114.018517,38.498669
想象国际体育公园,河北,石家庄,石家庄,0311,,东开发区,天山大街与闽江道交叉口西北角,景点,公园/广场,114.607216,38.029484
东天门景区,河北,石家庄,井陉县,0311,,井陉县其他,城东五华里处,景点,自然风光,114.183212,38.047367
河北省会儿童少年活动中心,河北,石家庄,石家庄,0311,87825954,中山西路,新华路275号,景点,游乐场,114.473061,38.049805
清真寺,河北,石家庄,正定县,0311,,历史文化街,清真寺街17号,景点,宗教,114.573662,38.132362
欢乐岛游乐场,河北,石家庄,石家庄,0311,67505899,岔河,翠屏路与柳荫街交口南行100米路西,景点,游乐场,114.49852,38.11153
口头水库,河北,石家庄,行唐县,0311,,行唐县其他,口头镇,景点,现代建筑,114.382919,38.625175
鹿泉龙凤园,河北,石家庄,鹿泉区,0311,82239402,鹿泉区其他,山尹村镇碧水街218号,景点,公园/广场,114.398758,37.92593
北正水库,河北,石家庄,元氏县,0311,,元氏县其他,井元公路,景点,现代建筑,114.288513,37.795834
平山将军岭,河北,石家庄,平山县,0311,,平山县其他,将军岭,景点,自然风光,113.65815,38.265366
石家庄横山岭水库,河北,石家庄,灵寿县,0311,,灵寿县其他,秋山景区北,景点,现代建筑,114.168144,38.573128
台湾小乌来风景特定区,河北,石家庄,石家庄,0311,,桃园,台湾桃园县复兴乡,景点,自然风光,114.52447,38.081
大风车游乐园,河北,石家庄,石家庄,0311,151****1457,新百广场,新华路275号河北省会儿童少年活动中心内,景点,游乐场,114.474358,38.048824
食草堂文化产业园,河北,石家庄,鹿泉区,0311,,龙泉花园,繁荣大街石家庄正道动物药业有限公司对面,景点,步行街,114.381187,37.990913
石家庄植物园好时光欢乐城,河北,石家庄,鹿泉区,0311,82298005;137****2117,植物园,植物园街60号石家庄植物园内北侧,景点,游乐场,114.384109,38.113426
鹿泉历史文化展示厅,河北,石家庄,鹿泉区,0311,,鹿泉区其他,石柏大街53号附近,景点,展览馆,114.327519,38.097129
梨花园,河北,石家庄,晋州市,0311,,摩尔新街,向阳街25号,景点,公园/广场,115.046219,38.023403
高邑县文化活动中心,河北,石家庄,高邑县,0311,138****3232,高邑县中心城区,顺城街11号附近,景点,展览馆,114.615817,37.600611
苏庆荣门市部,河北,石家庄,灵寿县,0311,137****8772,灵寿县其他,脾楼街附近,景点,旅行社,114.36931,38.31083
宇乾酒菜门市,河北,石家庄,元氏县,0311,151****5321,元氏县其他,府前路69号附近,景点,旅行社,114.514436,37.857838
振亮门市,河北,石家庄,赵县,0311,84938037;139****5993,赵县其他,033省道附近,景点,旅行社,114.724016,37.757276
禅日半,河北,石家庄,石家庄,0311,,三元,天翼路河北互联网大厦西侧约190米,景点,人文古迹,114.441574,38.075207
乡遥庄园,河北,石家庄,灵寿县,0311,152****0744,灵寿县其他,大地村,景点,更多景点/周边游,113.877632,38.705894
明杰适利门市,河北,石家庄,高邑县,0311,137****8343,高邑县其他,万城大街248号正北方向170米,景点,旅行社,114.540291,37.647841
藁城区绿地源粮食经销处,河北,石家庄,藁城区,0311,,藁城区其他,234省道附近,景点,更多景点/周边游,114.95668,38.066868
天圣庄园,河北,石家庄,灵寿县,0311,,灵寿县其他,天圣小区内,景点,更多景点/周边游,114.417778,38.300396
桥景区古桥展览馆,河北,石家庄,赵县,0311,82209599,赵县其他,河北赵州镇赵州桥景,景点,展览馆,114.771919,37.723698
石家庄城市规划馆,河北,石家庄,石家庄,0311,,怀特商城,体育南大街271号,景点,陈列馆,114.534348,38.018421
辛马王国,河北,石家庄,石家庄,0311,,棉五,平安北大街19号,景点,主题乐园,114.500186,38.051206
时光公园,河北,石家庄,石家庄,0311,,时光街,时光街133号,景点,公园/广场,114.429771,38.022972
时代报业旅行社灵寿营业部,河北,石家庄,灵寿县,0311,189****1935,灵寿县其他,工商银行北行100路东,景点,旅行社,114.388544,38.309279
沙滩沙雕主题乐园,河北,石家庄,鹿泉区,0311,85236085,鹿泉区其他,友谊北大街与学府路交叉口西行七公里,景点,主题乐园,114.40905,38.199753
石家庄海洋公园,河北,石家庄,石家庄,0311,66855506,中山西路,裕华西路66号海悦天地商场西门,景点,海洋馆,114.472145,38.034451
future未来士,河北,石家庄,石家庄,0311,82060051,东开发区,高新区花香漫城商业104A号商铺,景点,科技馆,114.595301,38.020814
灵寿欢乐谷,河北,石家庄,灵寿县,0311,,灵寿县其他,北环路灵寿县中天贸易有限公司一楼(中天商厦)中天商厦F5层,景点,主题公园,114.374992,38.316605
天鹅国旅,河北,石家庄,石家庄,0311,,中山西路,大经街22-16号,景点,旅行社,114.496682,38.041531
河北国旅,河北,石家庄,石家庄,0311,,盛世长安,翟营北大街33-12号,景点,旅行社,114.553815,38.054835
宏大旅行社,河北,石家庄,无极县,0311,,无极县其他,东南方向120米,景点,旅行社,114.958107,38.133417
轩坤旅游,河北,石家庄,石家庄,0311,130****0873,长安区,十里铺西街十里铺小学旁,景点,旅行社,114.573702,38.070542
河北纵横国际旅行社,河北,石家庄,石家庄,0311,,中山东路,谈固大街与北宋路交叉口东行300米路北,景点,旅行社,114.565294,38.046734
十里花廊,河北,石家庄,鹿泉区,0311,,鹿泉区其他,站前街45号,景点,自然风光,114.37468,38.086548
石家庄植物园冰雕大世界,河北,石家庄,鹿泉区,0311,89171880;186****0723,植物园,石家庄绕城高速石家庄市植物园内,景点,展览馆,114.373962,38.113552
东东国际旅行社,河北,石家庄,鹿泉区,0311,,鹿泉区其他,京深线与景观西路交叉路口往南约50米,景点,旅行社,114.502235,37.957405
美加乐儿童乐园,河北,石家庄,藁城区,0311,159****7969,藁城区中心城区,新华街40号,景点,游乐场,114.843987,38.033825
锦华国旅,河北,石家庄,石家庄,0311,,新华区,石获北路大郭新村2层底商,景点,旅行社,114.423754,38.068372
欧洲风情商业街,河北,石家庄,石家庄,0311,,红楼商圈,裕华路街道槐中路富强大街怀特超市对面,景点,观光街区,114.523911,38.023487
石家庄乾翔飞行俱乐部,河北,石家庄,正定县,0311,156****0396,岔河,滹沱码头叶子广场,景点,更多景点/周边游,114.523476,38.135105
保险旅游服务中心,河北,石家庄,鹿泉区,0311,,鹿泉区其他,大河路与014乡道交叉口旁,景点,旅行社,114.38451,38.134332
天尚旅游,河北,石家庄,石家庄,0311,,赵佗公园,新苑路与中华北大街辅路交叉口南100米,景点,旅行社,114.477489,38.091119
憩园温泉,河北,石家庄,辛集市,0311,83318333,辛集市其他,小辛庄村东温泉花园,景点,温泉,115.260979,38.095409
水依坊温泉休闲广场,河北,石家庄,深泽县,0311,69035888,深泽县其他,石油大街北苑路交叉口西150米路南,景点,温泉,115.186462,38.19112
赵孤园,河北,石家庄,井陉县,0311,,井陉县其他,元大线,景点,更多景点/周边游,114.084984,37.854977
生态园,河北,石家庄,栾城区,0311,157****6713,栾城区其他,大营村村润城东,景点,动植物园,114.690514,37.841423
天银广场,河北,石家庄,石家庄,0311,,建设南大街,裕华东路362号附近,景点,公园/广场,114.511147,38.036045
清凉湿地商业步行街,河北,石家庄,石家庄,0311,,井陉矿区,清凉湾公园入口两侧,景点,步行街,114.068626,38.062813
吉祥寺,河北,石家庄,鹿泉区,0311,,鹿泉区其他,054县道北150米,景点,宗教,114.383031,38.190571
华夏旅游,河北,石家庄,石家庄,0311,,运河桥客运站,联盟街道联盟路与红星街交叉口东100米路北临街门脸,景点,旅行社,114.494569,38.078629
四季嘉年华旅行社,河北,石家庄,无极县,0311,,无极东路,幸福街财政局南行100米路西,景点,旅行社,114.977947,38.170607
河北众信国际旅行社,河北,石家庄,无极县,0311,85588366;138****0911,无极西路,建设西路7号,景点,旅行社,114.972688,38.179478
鹿泉区青少年学生校外活动中心,河北,石家庄,鹿泉区,0311,,鹿泉区其他,福康小区斜对过,景点,展览馆,114.327101,38.097461
龙岗寺,河北,石家庄,石家庄,0311,85322959,东开发区,高新区福威北大街,景点,宗教,114.614212,38.001606
民生紫砂艺术馆,河北,石家庄,石家庄,0311,,中山西路,大经街48号,景点,美术馆,114.495647,38.041021
连洋国旅,河北,石家庄,辛集市,0311,,商业城,东华北路与集兴街交叉口西北50米,景点,旅行社,115.219248,37.935693
祥安国旅,河北,石家庄,赵县,0311,84906121,三零八,赵州镇石塔西路226号,景点,旅行社,114.768928,37.748373
深泽基督教堂,河北,石家庄,深泽县,0311,,深泽县其他,药王庙街文昌小区(文昌街)东南侧约250米,景点,宗教,115.209058,38.182298
宁王府实木文化生活艺术馆,河北,石家庄,石家庄,0311,186****9926,中华大街槐安路,建设南大街150号国富华庭2-117正西方向40米,景点,美术馆,114.508981,38.021331
灵山佛文化景区,河北,石家庄,鹿泉区,0311,,鹿泉区其他,灵岩寺路北100米,景点,自然风光,114.271675,38.0648
天泽阁内画艺术,河北,石家庄,石家庄,0311,87259788;159****0327,乐汇城,正东路31号太和文化礼品城3楼b区45室,景点,美术馆,114.498314,38.046421
阳光乐园,河北,石家庄,石家庄,0311,,中山东路,北国商城益东百货购物中心B1层,景点,主题公园,114.527466,38.042507
老母庙,河北,石家庄,石家庄,0311,,白佛,白佛三角河公园东南,景点,更多景点/周边游,114.587445,38.049405
塔冢院,河北,石家庄,石家庄,0311,,世纪公园,槐底街道东岗路28号,景点,人文古迹,114.530624,38.014824
圣达贞国门市部,河北,石家庄,无极县,0311,,无极西路,无极西路6号附近,景点,旅行社,114.972856,38.177066
庆林画廊,河北,石家庄,石家庄,0311,135****0946,世纪公园,体育南大街286号怀特古文化茶城四楼,景点,美术馆,114.531925,38.024745
驴妈妈旅游网,河北,石家庄,石家庄,0311,89295781,世纪公园,东岗路世纪花园2栋底商,景点,旅行社,114.536305,38.015775
东方国旅,河北,石家庄,石家庄,0311,80820876,省二院,北新街90号,景点,旅行社,114.48613,38.06102
旅游百事通,河北,石家庄,辛集市,0311,,泰和商圈,兴华北路与育红街交汇处东南角,景点,旅行社,115.216407,37.921817
天羽画廊,河北,石家庄,石家庄,0311,,西三教,槐安西路,景点,美术馆,114.470482,38.019142
新视界乐园,河北,石家庄,辛集市,0311,137****9822,北国商圈,辛集镇文化体育中心,景点,游乐场,115.217575,37.922813
河北旅游规划发展研究院,河北,石家庄,石家庄,0311,,裕华区,湘江道39号国家动漫产业孵化基地A座7层,景点,旅行社,114.596281,38.033756
健身广场,河北,石家庄,赵县,0311,,影剧院,驿里街66号,景点,公园/广场,114.774704,37.759003
时代旅游,河北,石家庄,新乐市,0311,,新华路,新华路翡翠苑西30米,景点,旅行社,114.682067,38.352662
正觉美术馆,河北,石家庄,石家庄,0311,139****7213,中山西路,中华北大街108号,景点,美术馆,114.476928,38.055408
向日葵少儿美术馆,河北,石家庄,正定县,0311,,正定火车站,北市场路金河国际花园63号,景点,美术馆,114.560204,38.156532
海盗船,河北,石家庄,晋州市,0311,,曼诺商厦,中兴路与南京路交叉口西南50米,景点,游乐场,115.064119,38.024096
气炮城,河北,石家庄,石家庄,0311,,水上公园,联盟路500号水上公园内,景点,游乐场,114.461752,38.077712
美院书画社,河北,石家庄,新乐市,0311,,新乐市其他,长寿街道河北美术学院南门右行50米,景点,美术馆,114.720181,38.345111
天马旅行社,河北,石家庄,新乐市,0311,139****6522,新乐市其他,X358号,景点,旅行社,114.867828,38.399788
途牛旅行社,河北,石家庄,平山县,0311,82895780;131****8694,平山平南路,康乐街平山县外国语中学西北侧,景点,旅行社,114.193505,38.250105
红崖谷滑雪场,河北,石家庄,平山县,0311,82810888;150****6687,平山县其他,温塘镇板山村,景点,滑雪场,113.960609,38.213169
风光旅行社,河北,石家庄,新乐市,0311,,新乐市其他,654乡道与203省道交叉口北150米,景点,旅行社,114.690766,38.36169
康辉旅游,河北,石家庄,石家庄,0311,,中山西路,平安北大街与胜利北街交叉口阿尔卡迪亚20号楼底商,景点,旅行社,114.501488,38.058378
东方国旅,河北,石家庄,石家庄,0311,,新石北路,友谊南大街265号,景点,旅行社,114.452872,38.024212
今古文化馆,河北,石家庄,石家庄,0311,,万象天成,槐安西路39号河北新合作4楼,景点,美术馆,114.481148,38.025318
东东旅游,河北,石家庄,栾城区,0311,,栾城区其他,景观路18号,景点,旅行社,114.545502,37.965255
天长古镇,河北,石家庄,井陉县,0311,,井陉县其他,天长镇东关大街与城壕街交叉口西北角,景点,古村古镇,114.024681,37.998425
槐北公园,河北,石家庄,石家庄,0311,,国际城,槐北路418号,景点,公园/广场,114.566193,38.031281
本笃庄教堂,河北,石家庄,石家庄,0311,,岔河,天兴路,景点,宗教,114.514229,38.128132
井陉拉花艺术风情园,河北,石家庄,井陉县,0311,82025999,井陉县其他,307国道,景点,更多景点/周边游,114.156891,38.052601
扬帆户外,河北,石家庄,鹿泉区,0311,151****2018,新凯路,新凯路与青园街交叉口西100米,景点,旅行社,114.323601,38.093548
森朝会展,河北,石家庄,石家庄,0311,,长安区,东二环石津灌渠北岸东行1000米(麦田汽车电影院)北拐500米路西,景点,景点/周边游,114.588985,38.067935
石家庄植物园-美食休闲广场,河北,石家庄,鹿泉区,0311,,植物园,石家庄植物园,景点,更多景点/周边游,114.386871,38.1115
清秀温泉养疗院,河北,石家庄,藁城区,0311,85156868,藁城区其他,藁城路6号国御温泉假日小镇内,景点,温泉,114.759331,38.031311
东方国旅谈固南大街服务网点,河北,石家庄,石家庄,0311,189****7215,国际城,谈固南大街金马小区(腾飞园),景点,旅行社,114.562855,38.027415
南田村烈士陵园,河北,石家庄,晋州市,0311,,晋州市其他,新开街,景点,烈士陵园,115.199679,38.040189
南席纪念堂,河北,石家庄,藁城区,0311,,藁城区其他,工业大街与祥和路交叉口,景点,展览馆,114.698547,37.998859
南智邱祠堂,河北,石家庄,辛集市,0311,,辛集市其他,南智邱镇233省道西250米,景点,人文古迹,115.238678,37.742741
赵县烈士陵园,河北,石家庄,赵县,0311,,赵县其他,商城大街,景点,烈士陵园,114.967875,37.765135
烈士陵园,河北,石家庄,平山县,0311,,平山县其他,中兴路东胜街交叉口南行,景点,烈士陵园,114.275021,38.336262
三家庄纪念馆,河北,石家庄,高邑县,0311,,高邑县其他,京港澳高速公路,景点,纪念馆,114.647676,37.607576
藁城区烈士陵园,河北,石家庄,藁城区,0311,,藁城区中心城区,水上公园北侧,景点,烈士陵园,114.827242,38.033362
梁氏宗祠,河北,石家庄,正定县,0311,,历史文化街,燕赵南大街218号,景点,人文古迹,114.57177,38.138229
元氏烈士陵园,河北,石家庄,元氏县,0311,,元氏县其他,蓝烁焊材有限公司附近,景点,烈士陵园,114.361431,37.823023
南简良纪念堂,河北,石家庄,石家庄,0311,,简良,建西北街石家庄天使护士学校东南侧约260米,景点,展览馆,114.414719,38.06356
赞皇县烈士陵园,河北,石家庄,赞皇县,0311,,嶂石岩,八达加油站西南,景点,烈士陵园,114.383554,37.62892
孔寨纪念堂,河北,石家庄,石家庄,0311,,桥西区,西三环路,景点,展览馆,114.390045,38.053207
武邱烈士亭,河北,石家庄,晋州市,0311,,晋州市其他,晋总路,景点,更多景点/周边游,115.032641,37.861151
西哈游乐场,河北,石家庄,行唐县,0311,,行唐县其他,南桥镇中华北路南桥中心卫生院西,景点,游乐场,114.567738,38.517818
周淑英剪纸艺术馆,河北,石家庄,石家庄,0311,,古韵广场,友谊南大街天伦锦城,景点,美术馆,114.45256,38.000973
中瓷艺术馆,河北,石家庄,石家庄,0311,68008895,三元,和平西路666号,景点,美术馆,114.438951,38.063171
宁荣街,河北,石家庄,正定县,0311,88786107,子龙广场,兴荣路51号,景点,观光街区,114.578705,38.147621
丹熊爱旅行体验店,河北,石家庄,石家庄,0311,,中山西路,中山西路83号银座商城F3层,景点,旅行社,114.485557,38.044277
石家庄植物园-红色文化收藏馆,河北,石家庄,鹿泉区,0311,,植物园,植物园内,景点,博物馆,114.386803,38.104271
新城铺文化广场,河北,石家庄,正定县,0311,,正定机场,中山路与鲜虞街交叉口东南50米,景点,公园/广场,114.692299,38.268333
高邑县文化馆,河北,石家庄,高邑县,0311,,高邑县中心城区,农林胡同高邑县高邑镇人民政府东侧约150米,景点,展览馆,114.617025,37.608374
西柏坡红色胜典景区,河北,石家庄,平山县,0311,,平山县其他,西柏坡镇西柏坡公路,景点,自然景观,113.954369,38.352406
灵山寺,河北,石家庄,灵寿县,0311,,灵寿县其他,横山岭水库北边,景点,宗教,114.177315,38.583038
新安镇权城联校少年宫,河北,石家庄,正定县,0311,,正定县其他,吉星路39号,景点,展览馆,114.574951,38.241402
方北文化广场,河北,石家庄,石家庄,0311,,方北,裕华东路117号,景点,公园/广场,114.534823,38.036433
豌豆农庄,河北,石家庄,井陉县,0311,132****1458,井陉县其他,孙庄乡北防口村西北55米,景点,更多景点/周边游,114.137894,38.17955
欣蕾游乐园,河北,石家庄,鹿泉区,0311,,鹿泉区其他,翠屏大街与玉石西路交叉口北行500米路西,景点,主题公园,114.310759,38.100798
狮子坪高空蹦极俱乐部,河北,石家庄,平山县,0311,150****3366,平山县其他,^^水景区下游狮子坪村西,景点,蹦极,113.772163,38.200432
滹沱河叶子广场,河北,石家庄,正定县,0311,68010055,岔河,胜利北大街与滹沱河大桥交叉口西1000米,景点,广场,114.523415,38.13517
东飞游乐园,河北,石家庄,鹿泉区,0311,137****2646,龙泉花园,上庄世纪工业园正北方向157米,景点,主题乐园,114.383932,38.018261
大鸣荷韵,河北,石家庄,正定县,0311,88023330,正定县其他,东曲阳村北行500米路西,景点,自然风光,114.492813,38.224445
河北康辉国际旅行社,河北,石家庄,新乐市,0311,88699996,新乐市中心城区,长寿街道长寿路136号,景点,旅行社,114.683308,38.342918
九景山庄,河北,石家庄,鹿泉区,0311,,动物园,向阳大街与观景大街交叉口西南角,景点,动物园,114.317765,38.067495
小红帽动漫水世界,河北,石家庄,石家庄,0311,186****4291,桃园,北二环东路与建华北大街交叉口东北100米,景点,水上乐园,114.545444,38.076814
晋州温泉圣地,河北,石家庄,晋州市,0311,84455003,晋州市其他,马于镇,景点,温泉,115.12925,37.979366
飞龙岛魔幻水上乐园,河北,石家庄,石家庄,0311,,岔河,滹沱河南岸叶子广场西100米,景点,水上乐园,114.518786,38.136666
河青旅行社,河北,石家庄,石家庄,0311,83865110,三元,友谊北大街330-4号,景点,旅行社,114.454055,38.072415
旅游百事通,河北,石家庄,石家庄,0311,,三元,和平西路506-10号,景点,旅行社,114.456274,38.060148
塔元庄生态园,河北,石家庄,正定县,0311,177****3323,正定县其他,塔元庄村慧聪网大楼往南50米,景点,动植物园,114.526321,38.156601
东方国旅,河北,石家庄,石家庄,0311,,建华百货,中山东路435-54号附近,景点,旅行社,114.544194,38.043549
梦乡小镇,河北,石家庄,正定县,0311,80951999,正定县其他,塔元庄梦乡小镇,景点,现代小镇,114.523333,38.157253
农耕时代休闲生态农场,河北,石家庄,正定县,0311,189****2372,正定县其他,友谊大街与学府路交叉口西200米,景点,更多景点/周边游,114.468881,38.152291
河北省中国旅行社,河北,石家庄,石家庄,0311,,桃园,胜利北大街368号益庄广场写字楼1楼,景点,旅行社,114.517503,38.086173
石家庄市群众艺术馆,河北,石家庄,石家庄,0311,87884351,南花园步行街,中山西路62号,景点,美术馆,114.482948,38.04298
乐斗熊嘉年华,河北,石家庄,石家庄,0311,153****5617,空中花园,翟营南大街386号空中花园负二层中心广场,景点,主题公园,114.554352,38.010094
荷花园游乐场,河北,石家庄,高邑县,0311,151****3868,高邑县其他,高邑镇张家庄村,景点,游乐场,114.622353,37.62151
土门关驿道小镇,河北,石家庄,鹿泉区,0311,82190000,鹿泉区其他,白鹿泉乡观景大街与灵隐路交叉口西行500米,景点,现代小镇,114.286354,38.074333
正定古城墙,河北,石家庄,正定县,0311,,正定北国,广惠寺南100米南城门附近,景点,古村古镇,114.576195,38.157421
圣地玫瑰园,河北,石家庄,平山县,0311,,平山县其他,商业东街65号附近,景点,植物园,114.023434,38.320024
世界湾收藏博物馆集群,河北,石家庄,石家庄,0311,,岔河,古城东路118号,景点,博物馆,114.549118,38.101196
王家庄村史馆,河北,石家庄,元氏县,0311,,元氏县其他,新西北街与龙山路交叉路口往西南约50米,景点,展览馆,114.371796,37.885235
盛益广场,河北,石家庄,石家庄,0311,80893537,先天下,谈北路38号,景点,公园/广场,114.530708,38.05072
石家庄植物园-海棠园,河北,石家庄,鹿泉区,0311,,植物园,植物园街60号,景点,植物园,114.374123,38.110825
乐华城,河北,石家庄,藁城区,0311,67096999,藁城区其他,小丰路与观光园路交叉口西北100米,景点,游乐场,114.707466,38.063362
御花园,河北,石家庄,平山县,0311,,平山县其他,天桂山景区内,景点,植物园,113.745483,38.257698
石柏公园,河北,石家庄,鹿泉区,0311,,鹿泉区其他,S232,景点,公园/广场,114.340385,38.083344
萌宠奇缘,河北,石家庄,石家庄,0311,69112299,益元百货,中华北大街 226号荣鼎Zoommall二层至三层,景点,动物园,114.477928,38.077545
开元寺钟楼,河北,石家庄,正定县,0311,88018545,历史文化街,燕赵南大街109号,景点,宗教,114.571182,38.140032
无极山滑雪场,河北,石家庄,元氏县,0311,87682808,元氏县其他,苏村乡无极山,景点,滑雪场,114.326912,37.775051
得力展示中心,河北,石家庄,石家庄,0311,,乐汇城,阜康街道南三条太和文化礼品城五楼,景点,展览馆,114.497505,38.046787
碧桂园福瑞锶温泉,河北,石家庄,元氏县,0311,86531888,元氏县其他,马村乡张掖村西红旗大街1298号碧桂园英伦商业街2号楼,景点,温泉,114.471817,37.915188
逸淘绘少儿美术馆,河北,石家庄,石家庄,0311,,新石北路,玉村南路玉龙小区,景点,美术馆,114.441231,38.008759
佐美庄园,河北,石家庄,栾城区,0311,81662776,栾城区其他,郄马镇太行南大街,景点,动植物园,114.642311,37.951385
灵岩寺,河北,石家庄,鹿泉区,0311,,鹿泉区其他,白鹿泉乡枣林村极乐寺,景点,宗教,114.274101,38.066456
河北省地质博物馆,河北,石家庄,石家庄,0311,66880728;66880788,益友百货/西里,工农路410号,景点,博物馆,114.450783,38.031536
正定南城门楼,河北,石家庄,正定县,0311,,历史文化街,河堤路与燕赵南大街交汇北侧500米,景点,历史建筑,114.570889,38.129727
石门弓射射箭俱乐部,河北,石家庄,石家庄,0311,85151155,中山东路,育才街与槐岭路南行70米路西怀特电动车自行车商城负二层,景点,旅游项目/观光项目,114.528091,38.024181
云归谷,河北,石家庄,石家庄,0311,,时光街,新石北路西二环交口西行500米桥西区法院对过卓达上苑底商,景点,自然景观,114.433723,38.018357
锦鲤俱乐部河北锦鲤园,河北,石家庄,石家庄,0311,,方北,华清南街9号,景点,更多景点/周边游,114.541878,38.039066
高邑建陶会展中心,河北,石家庄,高邑县,0311,,高邑县中心城区,刘秀路与工农街交叉路口往西北约100米,景点,景点/周边游,114.603121,37.615955
石家庄市鹿泉区获鹿镇文化站,河北,石家庄,鹿泉区,0311,,鹿泉区其他,五四路与光明东街交叉口西北50米,景点,展览馆,114.324942,38.071848
巴马氧吧体验馆,河北,石家庄,石家庄,0311,,运河桥客运站,义堂路与利民路交叉口西150米,景点,科技馆,114.494461,38.072235
国际会议厅,河北,石家庄,石家庄,0311,,华夏家园,平安南大街33号河北阳光大厦三楼,景点,景点/周边游,114.502579,38.034538
宏希堂红木,河北,石家庄,鹿泉区,0311,134****4936,鹿泉区其他,红旗大街西50米,景点,美术馆,114.464516,37.964027
赵陵铺镇文化站,河北,石家庄,石家庄,0311,,赵佗公园,太保中路57号,景点,展览馆,114.46119,38.107515
万里村文化活动中心,河北,石家庄,行唐县,0311,,行唐县其他,241省道西50米,景点,展览馆,114.373947,38.600269
茂伦鹿城展示中心,河北,石家庄,石家庄,0311,,新石北路,槐安路与友谊大街交口南行500米路西,景点,展览馆,114.451965,38.020031
华北革命战争纪念馆,河北,石家庄,石家庄,0311,,中山西路,新华路与水源街交叉口南100米,景点,纪念馆,114.464872,38.047363
孔寨公社美学,河北,石家庄,石家庄,0311,,桥西区,新华路688号附近,景点,更多景点/周边游,114.388441,38.061104
鹿泉岸下石窑小镇,河北,石家庄,鹿泉区,0311,,鹿泉区其他,石井乡岸下村,景点,现代小镇,114.261787,38.111164
迷你穿梭,河北,石家庄,石家庄,0311,,水上公园,泰华街西100米,景点,游乐场,114.461983,38.076679
海盗船,河北,石家庄,石家庄,0311,,水上公园,联盟路500号水上公园内,景点,游乐场,114.461699,38.076309
西部长青德明古镇,河北,石家庄,鹿泉区,0311,89175111,鹿泉区其他,白鹿泉乡梁庄村西部长青旅游度假区内,景点,古村古镇,114.291077,38.015556
东坡山文化体验园,河北,石家庄,鹿泉区,0311,150****2166,鹿泉区其他,宜安镇东焦东队,景点,公园/广场,114.238533,38.197769
土门关・驿道小镇,河北,石家庄,鹿泉区,0311,82190000,鹿泉区其他,观景大街与灵隐路交叉口西行500米,景点,更多景点/周边游,114.286209,38.074303
龙泉湖,河北,石家庄,鹿泉区,0311,81551173,山前大道,杏园街与玉泉路交叉口北50米,景点,公园/广场,114.344086,38.004826
烨京广场,河北,石家庄,新乐市,0311,,新华路,礼堂街118号,景点,公园/广场,114.681756,38.357656
藏谷影视创意园,河北,石家庄,石家庄,0311,188****1376,国际城,槐北路440号,景点,创意园区,114.563896,38.034489
社区综合文化服务中心,河北,石家庄,石家庄,0311,,中山东路,胜利北街141号附近,景点,展览馆,114.503371,38.061921
江山城市展厅,河北,石家庄,石家庄,0311,,红旗大街槐安路,红旗大街翰林观天下二期-东院,景点,展览馆,114.458439,38.026529
项目展示中心,河北,石家庄,石家庄,0311,,中山西路,平安北大街109号,景点,展览馆,114.501885,38.050835
海山公园-文化苑,河北,石家庄,鹿泉区,0311,,鹿泉区其他,北斗东路与海山北大街交叉口东北角,景点,公园/广场,114.329159,38.095909
和平天下国旅,河北,石家庄,石家庄,0311,180****6632,中山西路,和平西路256号北国超市地下,景点,旅行社,114.473442,38.057462
光大旅游,河北,石家庄,石家庄,0311,,大马庄园,谈固东街和槐中路交叉口东行100米路北,景点,旅行社,114.572067,38.029247
井陉县吴家窑乡新型生育文化大院,河北,石家庄,井陉县,0311,,井陉县其他,政府东北,景点,展览馆,114.265915,37.962505
广告设备展示中心,河北,石家庄,石家庄,0311,,运河桥客运站,义南路24号,景点,展览馆,114.504898,38.070728
力仁竞峰馆,河北,石家庄,行唐县,0311,,行唐县其他,龙州东大街北50米,景点,更多景点/周边游,114.568072,38.443062
云居湖,河北,石家庄,正定县,0311,,正定县其他,惠苑小区东南100米,景点,公园/广场,114.576691,38.131397
灵寿县大东关旧城改造展示中心,河北,石家庄,灵寿县,0311,,灵寿县其他,正南北大街71-4号附近,景点,展览馆,114.387039,38.314739
北方大厦-宏业会堂,河北,石家庄,石家庄,0311,,桃园,胜利北街309号,景点,景点/周边游,114.521717,38.090627
赵州民俗一条街,河北,石家庄,赵县,0311,,赵县其他,赵州桥景区内,景点,观光街区,114.770172,37.720844
民盟中央美术院河北分院石家庄市美术院,河北,石家庄,石家庄,0311,,北国东尚,青园街51号,景点,美术馆,114.51741,38.044525
陈庄歼灭战陈列馆,河北,石家庄,灵寿县,0311,,灵寿县其他,衡山岭水库旁,景点,纪念馆,114.192457,38.570647
国御温泉度假小镇-会议区,河北,石家庄,藁城区,0311,88926666,藁城区其他,藁新路6号国御温泉假日酒店2层,景点,展览馆,114.760413,38.031275
建筑节能产品绿建与CL建筑体系展示中心,河北,石家庄,无极县,0311,,无极东路,幸福南街中昌家园西侧约230米,景点,展览馆,114.978027,38.172455
石家庄驴妈妈国际旅行社有限公司,河北,石家庄,石家庄,0311,88658086,盛世长安,光华路紫晶悦城7号地8栋0101号,景点,旅行社,114.554444,38.061254
海德公园,河北,石家庄,石家庄,0311,,盛世长安,建华北大街182号附近,景点,公园/广场,114.545195,38.053205
石道文化艺术馆,河北,石家庄,石家庄,0311,131****0935,益元百货,艺术市场街31号,景点,美术馆,114.474182,38.081791
绿鑫集团产品展示中心,河北,石家庄,灵寿县,0311,,灵寿县其他,城北路与广场街交叉路口西侧,景点,展览馆,114.380333,38.304953
许香村,河北,石家庄,正定县,0311,,正定县其他,南楼乡,景点,古村古镇,114.496971,38.27943
天尚国旅,河北,石家庄,赵县,0311,,赵县其他,柏林大街与自强路交叉口东100米,景点,旅行社,114.784851,37.762741
水泉溪游客中心,河北,石家庄,灵寿县,0311,,灵寿县其他,木佛塔村水泉溪景区内,景点,公园/广场,113.921921,38.64679
石家庄城市学校少年宫,河北,石家庄,石家庄,0311,,华夏家园,东风路2号附近,景点,展览馆,114.493677,38.023657
王母山游客服务中心,河北,石家庄,平山县,0311,,平山县其他,营盘村,景点,公园/广场,114.096367,38.493305
邻里风情街,河北,石家庄,石家庄,0311,,大马庄园,谈固东街西150米,景点,观光街区,114.569971,38.00905
石家庄城市学校少年宫,河北,石家庄,石家庄,0311,,华夏家园,建设南大街69号附近,景点,展览馆,114.512263,38.033433
民族路步行街,河北,石家庄,石家庄,0311,,新百广场,新华路街道青年街与民族路交叉路口东北侧（华强广场公寓e座）,景点,步行街,114.478722,38.045021
石家庄市新华区石岗街道办事处红星街社区综合文化服务中心,河北,石家庄,石家庄,0311,,赵佗公园,宝力小区（北二环东路南）,景点,展览馆,114.497582,38.080239
航丽国旅旅游咨询处,河北,石家庄,正定县,0311,,正定县其他,文昌街恒丰翠庭西南侧,景点,旅行社,114.566885,38.146465
母婴科普馆,河北,石家庄,栾城区,0311,,卓达太阳城,阳光大道卓达太阳城阳光国际,景点,科技馆,114.595413,37.951786
社区综合文化服务中心,河北,石家庄,石家庄,0311,,怀特商城,富强大街青园小区,景点,展览馆,114.522116,38.018376
中华苏维埃共和国中央政府大礼堂,河北,石家庄,平山县,0311,,平山县其他,西柏坡红色胜典景区内,景点,展览馆,113.956833,38.355034
石家庄驴妈妈国际旅行社有限公司西大街营业部,河北,石家庄,石家庄,0311,,北国东尚,中山东路306号中山路与西大街交口西南角,景点,旅行社,114.52079,38.042545
同下村史馆,河北,石家庄,灵寿县,0311,,灵寿县其他,金星路同下小学东南侧约240米,景点,博物馆,114.429459,38.258377
段家楼游客服务中心,河北,石家庄,石家庄,0311,,井陉矿区,矿市街道红星路第三小学东200米,景点,公园/广场,114.033348,38.036568
苏阳乡文化站,河北,石家庄,元氏县,0311,,元氏县其他,育才街14号,景点,展览馆,114.459976,37.736954
中国国旅河北国旅,河北,石家庄,石家庄,0311,,大马庄园,裕强街道谈固东街槐安路交叉口北行200米路东,景点,旅行社,114.567002,38.018572
东岗头社区新型生育文化大院,河北,石家庄,石家庄,0311,,井陉矿区,矿市北街,景点,展览馆,114.061562,38.073647
汇通路社区综合文化服务中心,河北,石家庄,石家庄,0311,,红楼商圈,建通街旭景琴园,景点,展览馆,114.506516,38.010806
科学技术馆,河北,石家庄,石家庄,0311,,中山西路,中山东路199号图书大厦4层,景点,科技馆,114.512749,38.044169
新乐市佳景雕塑艺术中心,河北,石家庄,新乐市,0311,88511096,新乐市其他,正莫高新技术开发区镇政府斜对面,景点,美术馆,114.749523,38.470483
康辉旅游,河北,石家庄,平山县,0311,82908058,平山县其他,柏坡东路15号,景点,旅行社,114.201229,38.260369
聂家庄村,河北,石家庄,栾城区,0311,,栾城区其他,栾城镇,景点,古村古镇,114.682732,37.887768
西柏坡行政旅游服务中心,河北,石家庄,平山县,0311,,平山县其他,西柏坡公路西柏坡红色胜典景区,景点,旅行社,113.985382,38.35965
河北省非物质文化遗产展厅,河北,石家庄,平山县,0311,,平山县其他,迎宾路西柏坡景区,景点,展览馆,113.942937,38.341357
平山县职工服务中心,河北,石家庄,平山县,0311,,福美佳广场,冶河东路62号,景点,展览馆,114.203201,38.256271
新乐时代旅游一店,河北,石家庄,新乐市,0311,88593366,爱尚广场,长寿路134号,景点,更多景点/周边游,114.678482,38.343082
南郄马村,河北,石家庄,栾城区,0311,,东开发区,石家庄市栾城区栾城区,景点,更多景点/周边游,114.631185,37.976915
第二会议室,河北,石家庄,石家庄,0311,,国际城,槐中路415号河北友爱医院内,景点,景点/周边游,114.555672,38.030178
绿色建筑展示中心,河北,石家庄,石家庄,0311,,赵佗公园,北二环西路9号,景点,展览馆,114.499719,38.08238
北杜村,河北,石家庄,元氏县,0311,,元氏县其他,石家庄市元氏县,景点,古村古镇,114.555664,37.793827
春秋旅游,河北,石家庄,石家庄,0311,137****6050,国际城,谈固东街与隆泰路交口南行50米路东,景点,旅行社,114.570711,38.026211
绿地・中山里,河北,石家庄,石家庄,0311,68036883,中山西路,东华街道大经街26号（中山东路与大经街交汇处南200米路西）,景点,步行街,114.494315,38.041023
樱花,河北,石家庄,石家庄,0311,87258596,乐汇城,车辆厂前街233号,景点,公园/广场,114.491822,38.054322
柴王推车,河北,石家庄,赵县,0311,,赵县其他,城南2公里处(大石桥村附近)赵州桥景区内,景点,更多景点/周边游,114.769656,37.721464
金丰画廊,河北,石家庄,石家庄,0311,,白佛,东二环南路与槐北路交叉口东明国际家居1F层,景点,美术馆,114.578769,38.032339
驴妈妈旅游网门市,河北,石家庄,栾城区,0311,,天阳商业街,栾城镇宏达路121号,景点,旅行社,114.653564,37.893884
小羊时代牧场,河北,石家庄,灵寿县,0311,177****1031,灵寿县其他,小羊时代牧场,景点,更多景点/周边游,114.308739,38.330929
正定高远古家具博物馆,河北,石家庄,正定县,0311,85176917,正定火车站,车站北大街与107国道交叉口南150米,景点,博物馆,114.561426,38.170496
西山动漫水世界,河北,石家庄,鹿泉区,0311,152****9668,山前大道,山前大道东侧领地生态园,景点,水上乐园,114.324799,37.982201
瑜伽山,河北,石家庄,平山县,0311,,平山县其他,县城西40公里南冶村西,景点,自然风光,113.793568,38.223498
普庵寺,河北,石家庄,石家庄,0311,,中华大街槐安路,东平路9号东三教新村生活区元南公园东门,景点,宗教,114.496754,38.019492
河北文学馆,河北,石家庄,石家庄,0311,,华夏家园,槐北路192号,景点,展览馆,114.525064,38.031415
常河・常馨谷生态休闲乐园,河北,石家庄,鹿泉区,0311,82238888,鹿泉区其他,上寨乡梁常路常河村,景点,动植物园,114.285651,37.907021
北国水世界,河北,石家庄,鹿泉区,0311,89173333,铜冶镇,青龙山大道88号北国奥特莱斯南侧,景点,水上乐园,114.400087,37.954171
东南关村村民中心,河北,石家庄,高邑县,0311,,高邑县中心城区,兴华路264号附近,景点,展览馆,114.621087,37.599827
万联苑,河北,石家庄,鹿泉区,0311,82011882,鹿泉区其他,抱犊寨风景区内,景点,更多景点/周边游,114.266917,38.091127
鹿泉区大河镇综合文化站,河北,石家庄,鹿泉区,0311,,鹿泉区其他,大河路50号附近,景点,展览馆,114.394724,38.135074
乾艺文化艺术馆,河北,石家庄,石家庄,0311,137****1255,众美凤凰城,建华大街仓裕路凤凰城梧桐苑32AB102室,景点,美术馆,114.54601,37.996655
梵蒂美术馆,河北,石家庄,石家庄,0311,173****7180,众美凤凰城,方文路凤凰城紫薇苑底商,景点,美术馆,114.544823,37.99802
智慧城市广场,河北,石家庄,鹿泉区,0311,,鹿泉区其他,山前大道抱犊寨荣逸度假酒店东侧约90米,景点,公园/广场,114.292229,38.099609
石家庄6号水世界,河北,石家庄,无极县,0311,88888080;131****4888,无极县其他,6号水世界,景点,水上乐园,114.943847,38.176307
驰迪儿童活动中心,河北,石家庄,石家庄,0311,,中山西路,中华北大街北国超市中华北店三楼,景点,游乐场,114.470497,38.055248
首度旅游辰光国旅,河北,石家庄,石家庄,0311,,益友百货/西里,裕华西路128号北国商城益友购物中心B座C馆1层,景点,旅行社,114.449867,38.034417
大自然园艺,河北,石家庄,石家庄,0311,,岔河,中华北大街与学府路交口东行200米路南,景点,更多景点/周边游,114.486026,38.135354
杀九坨,河北,石家庄,平山县,0311,,平山县其他,天桂山附近,景点,自然风光,113.703572,38.248922
众信旅游,河北,石家庄,石家庄,0311,,新石北路,振岗路105号,景点,旅行社,114.44376,38.02175
激情跳跃,河北,石家庄,石家庄,0311,,世纪公园,世纪公园内部,景点,游乐场,114.535641,38.021571
东渡黄河,河北,石家庄,平山县,0311,,平山县其他,红色胜典景区内,景点,自然景观,113.94904,38.34737
章鱼王国,河北,石家庄,鹿泉区,0311,,动物园,向阳南大街动物园北门辛玛王国主题乐园内,景点,游乐场,114.30735,38.069012
步步惊魂,河北,石家庄,石家庄,0311,,中山西路,水上公园内,景点,游乐场,114.461033,38.075233
激战鲨鱼岛,河北,石家庄,石家庄,0311,,水上公园,水上公园内,景点,游乐场,114.461053,38.077303
开心游乐厅,河北,石家庄,石家庄,0311,,水上公园,水上公园内,景点,游乐场,114.461256,38.077816
蓝岛游乐园,河北,石家庄,高邑县,0311,83956666,高邑县中心城区,新城大街信合怡园南侧约140米,景点,游乐场,114.606234,37.596203
野生原大会堂,河北,石家庄,平山县,0311,82886666,平山县其他,钢城路北行3公里,景点,景点/周边游,114.147408,38.324108
空中漫步,河北,石家庄,石家庄,0311,,世纪公园,体育南大街298号附近,景点,游乐场,114.537187,38.020817
雷神之锤,河北,石家庄,鹿泉区,0311,,动物园,获鹿镇观景大街与山前大道交叉口西南处石家庄市动物园内,景点,游乐场,114.305473,38.066799
海底世界,河北,石家庄,石家庄,0311,,水上公园,泰华街532号附近,景点,海洋馆,114.462231,38.077211
超级水战,河北,石家庄,石家庄,0311,,水上公园,泰华街西200米,景点,游乐场,114.461211,38.077491
三星飞旋,河北,石家庄,石家庄,0311,,世纪公园,世纪公园内部,景点,游乐场,114.53538,38.02147
太空漫步,河北,石家庄,石家庄,0311,85895554,世纪公园,世纪公园内部,景点,游乐场,114.535466,38.021466
柏坡水寨,河北,石家庄,平山县,0311,153****9881,平山县其他,西柏坡镇窑上村,景点,古村古镇,113.899743,38.332708
富民海底世界,河北,石家庄,平山县,0311,,平山县其他,东冶村海庭路东方巨龟苑附近,景点,海洋馆,114.155731,38.225559
民防公园,河北,石家庄,石家庄,0311,,桃园,体育大街与丰收路交口东行500米路南建佳地产,景点,公园/广场,114.536681,38.071702
哈雷星水上乐园,河北,石家庄,石家庄,0311,89209288,建华百货,中山东路周六福对面,景点,水上乐园,114.546835,38.043933
康辉旅游,河北,石家庄,石家庄,0311,,北国东尚,范西路78号,景点,旅行社,114.519103,38.039493
飞艇玩偶,河北,石家庄,石家庄,0311,,红旗大街槐安路,新石南路师大家属院东区底商,景点,主题公园,114.459792,38.007802
太阳神阿波罗喷泉,河北,石家庄,石家庄,0311,,水上公园,联盟路500号水上公园内,景点,景点/周边游,114.455621,38.078061
华北大学旧址,河北,石家庄,正定县,0311,,子龙广场,常山东路60号,景点,古代遗迹,114.580188,38.144248
百音堂,河北,石家庄,石家庄,0311,180****6832,桃园,丰收路奥北公元商业街二期9号住宅楼109铺,景点,宗教,114.552441,38.067971
河北纵横国际旅行社,河北,石家庄,石家庄,0311,135****5559,中山东路,丰收路北城国际步行街南口底商,景点,旅行社,114.519361,38.072498
途牛旅游,河北,石家庄,石家庄,0311,,省二院,北新街60-3号,景点,旅行社,114.485929,38.057629
众信旅游,河北,石家庄,石家庄,0311,,建华百货,建华北大街乐成苑底商铺1号商铺,景点,旅行社,114.545329,38.047669
七彩桥国际旅行社,河北,石家庄,石家庄,0311,89623666,谈固,中山东路514号东胜广场,景点,旅行社,114.55702,38.043047
河北国旅平山服务网点,河北,石家庄,平山县,0311,,平山桥西,正义路59号,景点,旅行社,114.178055,38.265245
旅游百事通,河北,石家庄,石家庄,0311,,华夏家园,槐中路,景点,旅行社,114.517947,38.028001
白果寺,河北,石家庄,元氏县,0311,,元氏县其他,封龙山风景区,景点,宗教,114.253285,37.909465
四明楼,河北,石家庄,藁城区,0311,,藁城区中心城区,四明北街北50米,景点,历史建筑,114.847438,38.040678
西部长青温泉谷,河北,石家庄,鹿泉区,0311,89175022,鹿泉区其他,白鹿泉乡西部长青旅游度假区德明古镇门口,景点,温泉,114.294325,38.014841
南位纪念堂,河北,石家庄,石家庄,0311,,科技大学,科大学苑街嘉华园东南侧约220米,景点,纪念馆,114.511141,37.970468
西仰陵纪念堂,河北,石家庄,石家庄,0311,,东开发区,新元高速与南二环东延交叉路口往东南约260米,景点,古代遗迹,114.586308,38.000838
怡心智广场,河北,石家庄,平山县,0311,,平山县其他,钢城大街44号正东方向140米,景点,公园/广场,114.140501,38.370066
北京凯撒国际旅行社有限责任公司,河北,石家庄,石家庄,0311,68055511,勒泰中心,中山东路39号勒泰中心A座11楼1113室,景点,旅行社,114.506301,38.044021
蟠龙广场,河北,石家庄,平山县,0311,,平山县其他,柏坡东路与柏坡西路交叉口北100米,景点,公园/广场,114.199976,38.261105
点将台,河北,石家庄,鹿泉区,0311,82011882,鹿泉区其他,抱犊寨风景区内,景点,景点/周边游,114.267867,38.091167
中国旅行社,河北,石家庄,石家庄,0311,,大石门,裕强街道塔北路与谈固南大街交口东行200米路南,景点,旅行社,114.565232,38.010672
河北冀蔚科技有限公司成果展示厅,河北,石家庄,石家庄,0311,,三元,和平西路598号西南方向120米,景点,展览馆,114.450672,38.060472
野生原度假村缥缈间温泉,河北,石家庄,平山县,0311,82886700,平山县其他,钢城路,景点,温泉,114.145487,38.324332
汇文街社区综合文化服务中心,河北,石家庄,石家庄,0311,,古韵广场,汇文街天伦锦城,景点,展览馆,114.450699,37.999029
法米动物乐园,河北,石家庄,石家庄,0311,4000505011,中山东路,建设北大街20号蜂巢购物中心7F,景点,动物园,114.511338,38.047688
中承国旅,河北,石家庄,井陉县,0311,,井陉县其他,建设南路33号,景点,旅行社,114.148086,38.028666
中青国旅,河北,石家庄,井陉县,0311,185****7447,井陉中心市场,建设南路36号,景点,旅行社,114.147731,38.028381
众信旅游,河北,石家庄,井陉县,0311,150****8266,井陉县其他,建设南路34号,景点,旅行社,114.147692,38.028422
箐瞳艺术,河北,石家庄,石家庄,0311,,白佛,槐北路东二环交口东行1000米中城兰溪谷8号楼底商,景点,美术馆,114.580774,38.032754
石门九友书画社,河北,石家庄,石家庄,0311,,中山西路,裕华西路162号,景点,美术馆,114.4422,38.034322
河北中青国际旅行社,河北,石家庄,石家庄,0311,,建华百货,建明北路与煤机街交叉口东50米,景点,旅行社,114.551268,38.041054
研佳国旅,河北,石家庄,平山县,0311,151****6958,平山平南路,平光南大街63号,景点,旅行社,114.205808,38.251129
西张村,河北,石家庄,高邑县,0311,,高邑县其他,富村镇西张村,景点,古村古镇,114.584431,37.597181
河北美术出版社美术馆,河北,石家庄,石家庄,0311,,石家庄北站,和平西路新文里8号,景点,美术馆,114.475457,38.059127
爱国主义教育展室,河北,石家庄,平山县,0311,,平山县其他,东冶村东方巨龟苑内,景点,展览馆,114.153761,38.221591
平山县青少年宫,河北,石家庄,平山县,0311,136****2702,北国商城,中山东路与康乐街交叉口北国商城南门,景点,展览馆,114.19776,38.256508
石家庄青年国际旅行社,河北,石家庄,石家庄,0311,,友谊公园,新华路与泰华街29号,景点,旅行社,114.462925,38.048535
西南岩,河北,石家庄,高邑县,0311,,高邑县其他,集贸大街,景点,自然景观,114.578211,37.651271
南白娄村,河北,石家庄,元氏县,0311,,元氏县其他,南白娄村一街25号,景点,古村古镇,114.47293,37.728525
南焦村,河北,石家庄,无极县,0311,,无极县其他,北苏镇,景点,古村古镇,114.856149,38.148369
江西赣浔园林文化石,河北,石家庄,石家庄,0311,132****3228;139****3942,桃园,古城东路54号附近,景点,展览馆,114.535212,38.103532
凯撒旅游体验店,河北,石家庄,石家庄,0311,,万象天成,中山街道中山西路108号华润万象城5层L514室,景点,旅行社,114.478358,38.041878
凯撒旅游恒大华府店,河北,石家庄,石家庄,0311,85236330,西三教,师范街与槐安路交汇处南行400米恒大华府运动中心1层,景点,旅行社,114.466618,38.021018
净莲天香,河北,石家庄,石家庄,0311,,乐汇城,南三条聚缘城二楼,景点,更多景点/周边游,114.498825,38.047865
综合文化服务中心,河北,石家庄,石家庄,0311,,西三教,平祥路槐安西路36号院西侧约80米,景点,展览馆,114.478912,38.021662
爱民国际旅行社,河北,石家庄,石家庄,0311,151****9857,井陉矿区,矿市街道南纬西路1正东方向180米,景点,旅行社,114.064903,38.064623
富嘉商业街,河北,石家庄,高邑县,0311,83950818,高邑县其他,苗大线西凤酒楼北100米,景点,观光街区,114.546543,37.586963
优米艺术,河北,石家庄,鹿泉区,0311,,果岭湾,鹿泉区龙泉东路160号附近,景点,美术馆,114.359273,38.064174
河北现代旅行社,河北,石家庄,晋州市,0311,84400550,新华街,新华街96号,景点,旅行社,115.022229,38.030301
石境园,河北,石家庄,晋州市,0311,,晋州市其他,滨河路594号正东方向140米,景点,公园/广场,115.018244,38.024544
高邑烈士陵园,河北,石家庄,高邑县,0311,89200628,高邑县其他,357乡道北50米,景点,烈士陵园,114.539433,37.667023
正定古城小火车,河北,石家庄,正定县,0311,,历史文化街,燕赵南大街193号,景点,古村古镇,114.571321,38.135261
九色焱画苑,河北,石家庄,石家庄,0311,180****5823,天山海世界,汾河道48号附近,景点,美术馆,114.612565,38.048094
东方国旅,河北,石家庄,石家庄,0311,,中山东路,丰收路百花街南行20米,景点,旅行社,114.51862,38.071449
大福星儿童游乐场,河北,石家庄,石家庄,0311,,裕华区,东明家具城负一层,景点,游乐场,114.578424,38.031324
游客服务中心,河北,石家庄,藁城区,0311,,藁城区其他,藁城区公园西路146号附近,景点,公园/广场,114.816097,38.027967
元南旅游,河北,石家庄,高邑县,0311,4001662024,高邑县中心城区,兴华路36号正西方向50米,景点,旅行社,114.603508,37.601638
社区综合文化服务中心,河北,石家庄,石家庄,0311,,中山东路,槐中路498-1号附近,景点,展览馆,114.553111,38.029238
崖柏艺术品展览中心,河北,石家庄,石家庄,0311,,白佛,黄河大道3号附近,景点,展览馆,114.593031,38.044631
璞睿生活艺术馆,河北,石家庄,石家庄,0311,,中山东路,裕华东路133号412室,景点,美术馆,114.541304,38.036974
辰光国旅,河北,石家庄,高邑县,0311,84033369,高邑县中心城区,育才街16号,景点,旅行社,114.613095,37.605221
石家庄久福茶文化广场,河北,石家庄,石家庄,0311,88828898,天山海世界,天山大街51号久福茶文化广场,景点,公园/广场,114.608581,38.047551
南高基公园,河北,石家庄,石家庄,0311,,岔河,杜北街道翠屏西路（近太平河）,景点,公园/广场,114.480653,38.11587
东方国旅,河北,石家庄,石家庄,0311,88803171,中山西路,广源路3正东方向3号0米,景点,旅行社,114.439994,38.058805
三圣寺,河北,石家庄,石家庄,0311,,桥西区,良中路23号,景点,宗教,114.43265,38.000009
清风峡风景区,河北,石家庄,平山县,0311,173****3668,平山县其他,北冶乡清风村东南,景点,自然风光,113.802174,38.168259
财神阁,河北,石家庄,赵县,0311,,赵县其他,赵州桥景区对面,景点,人文古迹,114.771114,37.723424
民俗文化艺术长廊,河北,石家庄,鹿泉区,0311,,植物园,植物园街60号石家庄植物园内,景点,展览馆,114.387041,38.105341
法云寺,河北,石家庄,无极县,0311,,无极县其他,兴达路54号,景点,宗教,114.902208,38.184389
星球基地,河北,石家庄,石家庄,0311,,勒泰中心,蜂巢购物中心三楼,景点,游乐场,114.511451,38.047621
岗南水库,河北,石家庄,平山县,0311,,平山平南路,石家庄平山县岗南水库,景点,现代建筑,114.199131,38.247141
携程旅游,河北,石家庄,石家庄,0311,185****7363,中山东路,中山路与煤机街交叉口东北角民航大厦底商,景点,旅行社,114.551396,38.043796
烤串 翟营夜市,河北,石家庄,石家庄,0311,,空中花园,塔南路195号卓达书香园1区14号楼,景点,夜市,114.560905,38.00874
中青国旅,河北,石家庄,石家庄,0311,,中山西路,南简良东街,景点,旅行社,114.418878,38.056889
东方国旅,河北,石家庄,石家庄,0311,,中山西路,新华路,景点,旅行社,114.444051,38.049001
河北海外国旅,河北,石家庄,石家庄,0311,,中山东路,园东园6号楼1单元103室,景点,旅行社,114.517508,38.050528
旅游百事通,河北,石家庄,石家庄,0311,89229008,盛世长安,紫晶悦城2号地红街北26号紫晶公园对面,景点,旅行社,114.551602,38.061232
驴妈妈旅游网,河北,石家庄,石家庄,0311,,欧韵公园,槐安路与建设大街交叉口东岗怡园底商,景点,旅行社,114.512815,38.019925
和平天下国旅,河北,石家庄,鹿泉区,0311,,鹿泉区其他,北斗东路慧昌海山湖3-201室,景点,旅行社,114.329544,38.092226
西清公园游乐场,河北,石家庄,石家庄,0311,155****1851,中山西路,红旗大街裕华路交叉口,景点,游乐场,114.473793,38.035566
大年初一风情小镇,河北,石家庄,鹿泉区,0311,137****5571,鹿泉区其他,石井乡翠屏大街西500米,景点,更多景点/周边游,114.309117,38.109228
和平天下国旅,河北,石家庄,石家庄,0311,,中山西路,红旗大街268号祥隆泰超市服务中心旁,景点,旅行社,114.452691,38.016071
隆兴别苑公园,河北,石家庄,正定县,0311,,隆兴寺,正定镇卫前路158号附近,景点,公园/广场,114.585205,38.137846
中游国际旅行社,河北,石家庄,无极县,0311,139****8020;150****3336,无极县中心城区,中昌路与光明街交叉口乐泰商厦底商,景点,旅行社,114.973575,38.172215
河北省英烈纪念园,河北,石家庄,鹿泉区,0311,83985835;83986172,鹿泉区其他,惠民路,景点,烈士陵园,114.391147,38.015046
天尚旅游,河北,石家庄,新乐市,0311,155****1259,新华路,新华路102号附近,景点,旅行社,114.688628,38.352918
天空之城游乐场,河北,石家庄,石家庄,0311,89669199,新火车站,塔坛国际商贸城东区四号门旁,景点,游乐场,114.489692,37.999492
和平天下国旅,河北,石家庄,石家庄,0311,,裕华区,东岗天海・誉天下A区,景点,旅行社,114.543642,38.012782
众信旅游,河北,石家庄,石家庄,0311,,裕华区,天海誉天下C区底商北国超市,景点,旅行社,114.543491,38.013181
纵横国际旅行社,河北,石家庄,石家庄,0311,150****1229,大马庄园,东岗路大马庄园,景点,旅行社,114.567696,38.016056
中青国旅,河北,石家庄,石家庄,0311,181****9098,中山东路,中山东路508号东胜广场后身金色里程底商,景点,旅行社,114.556582,38.042392
旅游百事通,河北,石家庄,石家庄,0311,188****9326,国际城,银通小区11号,景点,旅行社,114.569844,38.029508
孕婴超市盈科旅游,河北,石家庄,石家庄,0311,,新华区,西营上水园东门,景点,旅行社,114.455113,38.118173
河北青年国旅,河北,石家庄,栾城区,0311,137****5828,栾城区中心城区,龙威街149号,景点,旅行社,114.661187,37.891097
众信旅游,河北,石家庄,石家庄,0311,,中山西路,中山东路188号北国商城东区2层,景点,旅行社,114.510876,38.042764
阿里山风景区,河北,石家庄,石家庄,0311,,中山西路,裕华西路66号海悦天地购物广场B1层,景点,自然景观,114.472598,38.034808
爱情博物馆,河北,石家庄,石家庄,0311,,中山西路,中山东路11号乐汇城3层,景点,博物馆,114.497779,38.044869
天尚国旅,河北,石家庄,栾城区,0311,189****3015,栾城区中心城区,鱼塘街4号大桥路与鱼塘街交叉口欧邦眼镜南行10米路西,景点,旅行社,114.652301,37.885744
引力骑技山地车公园,河北,石家庄,石家庄,0311,177****8515,东开发区,华纺街与景观路交叉口西行100米,景点,公园/广场,114.592822,37.971562
河北泰达旅行社,河北,石家庄,石家庄,0311,,中山西路,槐安西路88号卓达集团中苑商务大厦A座612室,景点,旅行社,114.462824,38.024254
兴国寺,河北,石家庄,石家庄,0311,,中山东路,槐中路312号附近,景点,宗教,114.539489,38.028292
见义勇为公园,河北,石家庄,石家庄,0311,,新石北路,振头街道玉村南路与育新路商业街交叉路口往西南约100米（西环公园）,景点,公园/广场,114.441373,38.006519
携程旅游,河北,石家庄,石家庄,0311,155****3227,中山东路,建华大街与槐中路西南角万达底商2层,景点,旅行社,114.545856,38.028686
中国旅行社,河北,石家庄,辛集市,0311,152****6253,泰和商圈,兴华南路13号,景点,旅行社,115.221208,37.918178
北航国旅,河北,石家庄,辛集市,0311,133****6665,大丰源购物广场,康乐小区,景点,旅行社,115.232366,37.920226
长兴旅游,河北,石家庄,石家庄,0311,,运河桥客运站,联盟路与红星街交叉口东100米路北临街,景点,旅行社,114.49442,38.078561
西环公园,河北,石家庄,石家庄,0311,,新石北路,玉村南路,景点,公园/广场,114.441424,38.00655
灰色博物馆,河北,石家庄,石家庄,0311,,中山东路,槐中路308号万达广场B1-8号商住楼00单元0103室,景点,博物馆,114.543063,38.027213
锦华国旅,河北,石家庄,藁城区,0311,138****5283,人民广场,廉州东路122号,景点,旅行社,114.856984,38.021734
辰光国旅,河北,石家庄,藁城区,0311,151****0882,廉州西路,廉州西路163号,景点,旅行社,114.837413,38.020913
天尚国旅,河北,石家庄,藁城区,0311,133****3899,藁城区中心城区,廉州东路031号,景点,旅行社,114.858561,38.021722
正大国旅,河北,石家庄,石家庄,0311,,长安区,吉利胡同与强镇街交叉口北50米,景点,旅行社,114.647832,38.060962
嘉年华国旅,河北,石家庄,晋州市,0311,84366166,晋州市中心城区,乐高幼儿园,景点,旅行社,115.062997,38.029197
河北和平国旅旅行社,河北,石家庄,晋州市,0311,155****7871;155****7671,晋州市中心城区,新世纪广场西北角,景点,旅行社,115.062403,38.026648
石门老街,河北,石家庄,石家庄,0311,66189067,中山西路,师范街,景点,观光街区,114.466153,38.039424
秀水公园,河北,石家庄,深泽县,0311,,深泽县其他,西环路东50米,景点,公园/广场,115.181458,38.171116
瑞慨国旅,河北,石家庄,石家庄,0311,,新石北路,育新商业街辣街1号楼9-2室,景点,旅行社,114.442738,38.011338
陶瓷水镇,河北,石家庄,井陉县,0311,82393999;137****1668,井陉县其他,秀林镇南横口村,景点,古村古镇,114.103044,37.999379
皮革城水上乐园,河北,石家庄,辛集市,0311,,辛集市其他,新皮革城二期东北角,景点,水上乐园,115.236185,37.947555
携程旅游,河北,石家庄,石家庄,0311,,中山东路,中山东路583号长安万达广场4023A,景点,旅行社,114.564891,38.044419
百团大战美穗子获救井陉・都城友好纪念馆,河北,石家庄,井陉县,0311,139****7822,井陉县其他,洪河漕,景点,纪念馆,113.88188,38.08254
春秋旅游,河北,石家庄,灵寿县,0311,,灵寿县其他,人民东路29-2号,景点,旅行社,114.382206,38.308986
锦绣大明川,河北,石家庄,灵寿县,0311,82600111;82600222,灵寿县其他,西阜高速五岳寨高速口,景点,更多景点/周边游,114.016999,38.585679
主恩堂,河北,石家庄,石家庄,0311,,中山西路,东华路十七号,景点,宗教,114.498873,38.04251
和平天下国旅,河北,石家庄,石家庄,0311,,大马庄园,谈固南大街西美五洲天地B1层永辉超市C0236036层,景点,旅行社,114.563451,38.021621
腾邦旅游,河北,石家庄,灵寿县,0311,,灵寿县其他,建设大街与古城路交叉路口向北约150米,景点,旅行社,114.395399,38.305659
孙家庄天主堂,河北,石家庄,灵寿县,0311,,灵寿县其他,孙家庄村,景点,宗教,114.288931,38.345744
九坤宫,河北,石家庄,石家庄,0311,,北国东尚,青园街109号,景点,历史建筑,114.517496,38.040896
河北省水上训练基地,河北,石家庄,元氏县,0311,,元氏县其他,北褚镇蟠龙湖风景区八一水库附近,景点,水上乐园,114.385421,37.805171
卧龙湾公园,河北,石家庄,石家庄,0311,,井陉矿区,贾庄镇朝阳街50正西方向60米,景点,公园/广场,114.04102,38.103381
居中园,河北,石家庄,石家庄,0311,,井陉矿区,中兴路南50米,景点,公园/广场,114.049775,38.075073
棋盘山,河北,石家庄,平山县,0311,,平山县其他,下口镇,景点,自然风光,113.645897,38.255165
亨途旅游,河北,石家庄,灵寿县,0311,,灵寿县其他,城东街与人民东路交叉路口往东南约200米,景点,旅行社,114.37771,38.307224
正定东城门,河北,石家庄,正定县,0311,,隆兴寺,龙盛华府南,景点,旅游项目/观光项目,114.586772,38.140122
香草园,河北,石家庄,鹿泉区,0311,,鹿泉区其他,白鹿泉乡亦禾观光园亦禾观光园内,景点,更多景点/周边游,114.282352,38.019007
维鳞公园,河北,石家庄,灵寿县,0311,,灵寿县其他,石湖金矿家属院东南,景点,公园/广场,114.380871,38.318974
正定岔河,河北,石家庄,石家庄,0311,,岔河,翠屏东路东100米,景点,更多景点/周边游,114.561188,38.116338
井冈山,河北,石家庄,平山县,0311,,平山县其他,西柏坡红色胜典景区内,景点,自然景观,113.956715,38.354937
蒙龙山,河北,石家庄,石家庄,0311,,省人民医院,兴凯路80号附近,景点,自然景观,114.473736,38.050286
珊瑚海,河北,石家庄,鹿泉区,0311,,鹿泉区其他,新宁街与北斗东路交叉路口西北侧,景点,更多景点/周边游,114.322214,38.091204
梦幻城儿童智慧成长乐园,河北,石家庄,深泽县,0311,,深泽县其他,天奕商厦(,景点,游乐场,115.219289,38.184199
柳仙谷+亦禾园,河北,石家庄,鹿泉区,0311,,鹿泉区其他,白鹿泉乡梁庄010乡道西100米,景点,更多景点/周边游,114.292996,38.024996
张村中街公园,河北,石家庄,藁城区,0311,,藁城区其他,234省道东100米,景点,公园/广场,114.953789,38.049359
秋山风景区-山门,河北,石家庄,灵寿县,0311,,灵寿县其他,X012,景点,更多景点/周边游,114.136525,38.509345
中兴广场,河北,石家庄,高邑县,0311,,高邑县中心城区,高邑镇中兴大街与刘秀路交汇处,景点,公园/广场,114.611072,37.612649
嘉年华旅行社,河北,石家庄,新乐市,0311,88679996,新乐市医院,东名街与长寿路交叉口南150米,景点,旅行社,114.669541,38.341921
河北元南旅游集团,河北,石家庄,赞皇县,0311,,嶂石岩,唐相北街,景点,旅行社,114.389531,37.666811
腾邦旅游,河北,石家庄,藁城区,0311,186****7498;186****0668,人民广场,富强大街3号,景点,旅行社,114.849628,38.018298
南智邱镇西小王烈士陵园,河北,石家庄,辛集市,0311,,辛集市其他,中山街,景点,烈士陵园,115.20494,37.804731
石家庄水上公园游乐场,河北,石家庄,石家庄,0311,135****0003,水上公园,泰华街水上公园内,景点,游乐场,114.457379,38.077063
天主堂,河北,石家庄,赵县,0311,,赵县其他,西后线,景点,宗教,114.706458,37.74265
寨湾公园,河北,石家庄,井陉县,0311,,井陉县其他,威州镇平安路,景点,公园/广场,114.156483,38.105727
中青国旅,河北,石家庄,赵县,0311,,赵县其他,皇冠路新寨店镇中学西侧约150米,景点,旅行社,114.719571,37.807864
文体广场,河北,石家庄,深泽县,0311,,深泽县其他,府前东路10正西方向70米,景点,公园/广场,115.204301,38.183162
常山广场,河北,石家庄,元氏县,0311,,常山路,常山路106-3号,景点,公园/广场,114.525557,37.764715
河北经贸大学-校史馆,河北,石家庄,石家庄,0311,,岔河,学府路47号,景点,博物馆,114.492602,38.137119
客堂,河北,石家庄,鹿泉区,0311,,鹿泉区其他,龙泉寺风景区龙泉寺内,景点,宗教,114.306723,38.004153
黄绮艺术馆,河北,石家庄,鹿泉区,0311,,鹿泉区其他,惠民路双凤山景区内,景点,美术馆,114.389742,38.015412
疏林草地,河北,石家庄,石家庄,0311,,长安公园,长安公园内,景点,自然景观,114.514246,38.049686
深泽湖水上公园,河北,石家庄,深泽县,0311,,深泽县其他,S233,景点,公园/广场,115.198821,38.161311
杏花峰,河北,石家庄,正定县,0311,,河北省园博园,天宁路河北省园博园,景点,更多景点/周边游,114.610083,38.142193
行唐县鳄鱼潭,河北,石家庄,行唐县,0311,,行唐县其他,牛王寨景区内西头,景点,更多景点/周边游,114.335297,38.544326
铁拐李,河北,石家庄,赵县,0311,,赵县其他,城南2公里处赵州桥景区内,景点,更多景点/周边游,114.770416,37.722276
松石文化特色园,河北,石家庄,石家庄,0311,,中山西路,裕华路与中华大街交口东北角,景点,文化公园,114.478088,38.036643
阳和楼,河北,石家庄,正定县,0311,,历史文化街,燕赵南大街270号,景点,历史建筑,114.57211,38.135412
市民广场,河北,石家庄,无极县,0311,,无极县其他,无极镇张村东侧无极民俗公园,景点,广场,114.94971,38.173281
康源金岁月温泉水都,河北,石家庄,深泽县,0311,,深泽县其他,石油大街278号,景点,温泉,115.188778,38.188846
携程旅游,河北,石家庄,正定县,0311,,正定县其他,南马路鲜虞财富新城,景点,旅行社,114.681477,38.263351
环游国旅,河北,石家庄,正定县,0311,,子龙广场,镇州北街与兴荣路交叉路口东南侧,景点,旅行社,114.575533,38.147183
悬崖秋千,河北,石家庄,鹿泉区,0311,,鹿泉区其他,吴家窑乡衡井线窦王岭附近窦王岭内,景点,更多景点/周边游,114.288867,37.94166
盈科旅游,河北,石家庄,藁城区,0311,151****8800,廉州西路,廉州西路219号,景点,旅行社,114.836185,38.021007
天主堂,河北,石家庄,元氏县,0311,,元氏县其他,红旗北大街与万年大道交叉路口往西南约140米,景点,宗教,114.472714,37.887744
骑者岭,河北,石家庄,元氏县,0311,,元氏县其他,田家庄村南,景点,更多景点/周边游,114.228734,37.793445
禅堂,河北,石家庄,正定县,0311,,历史文化街,临济路11号,景点,宗教,114.57335,38.136121
河北梧桐美术36号,河北,石家庄,石家庄,0311,,中华大街槐安路,中山西路36号,景点,美术馆,114.4855,38.043235
敬业集团发展史展览馆,河北,石家庄,平山县,0311,,平山县其他,南甸镇魏家院钢城大街敬业公寓,景点,展览馆,114.141263,38.371553
深泽县亨通旅行社有限公司,河北,石家庄,深泽县,0311,,深泽县其他,西苑街213东北90米,景点,旅行社,115.197649,38.187109
荣庆堂,河北,石家庄,正定县,0311,,子龙广场,荣国府内,景点,更多景点/周边游,114.578871,38.148351
去哪儿旅行,河北,石家庄,赞皇县,0311,84263636,嶂石岩,治平寺北街13号,景点,旅行社,114.400004,37.659464
衡阳艺术馆,河北,石家庄,鹿泉区,0311,,龙泉花园,龙泉花园,景点,美术馆,114.380119,38.010799
谦谦文化园,河北,石家庄,栾城区,0311,,栾城区中心城区,福美金街与宏远路交叉路口往西北约150米,景点,公园/广场,114.665166,37.899226
和平天下,河北,石家庄,石家庄,0311,150****7305,古韵广场,汇新路与汇文街交叉路口东北侧,景点,旅行社,114.451058,37.998903
三教禅院,河北,石家庄,石家庄,0311,,大马庄园,新元高速,景点,宗教,114.58371,38.006503
黄壁庄水库半岛景区,河北,石家庄,灵寿县,0311,,五岳寨,牛城沟出口,景点,现代建筑,114.296233,38.266156
正定县正定镇塔元庄村,河北,石家庄,正定县,0311,83505170,正定县其他,正定镇向阳路,景点,特色乡村,114.527794,38.154797
润保公园,河北,石家庄,石家庄,0311,,赵佗公园,太保路与友谊北大街交口东侧,景点,公园/广场,114.455628,38.105188
纵横国际旅行社,河北,石家庄,石家庄,0311,,中山西路,泰华街617号附近,景点,旅行社,114.463166,38.075556
人民广场-毛主席雕像,河北,石家庄,石家庄,0311,,北国东尚,长安公园内,景点,人文古迹,114.514743,38.043623
全国土地会议会址,河北,石家庄,平山县,0311,,平山县其他,西柏坡景区内,景点,人文古迹,113.941373,38.338383
常山水上乐园,河北,石家庄,元氏县,0311,,元氏县其他,红旗北大街东50米,景点,水上乐园,114.477885,37.823355
中国发票博物馆,河北,石家庄,石家庄,0311,,岔河,学府路47号,景点,博物馆,114.493196,38.137122
荷塘公园,河北,石家庄,正定县,0311,,正定县其他,南楼乡正行公路,景点,公园/广场,114.550588,38.257498
盆景园,河北,石家庄,平山县,0311,,平山县其他,天桂山景区内,景点,植物园,113.744387,38.259187
去哪儿旅行,河北,石家庄,藁城区,0311,,廉州西路,廉州西路温馨家园(世纪街)东北侧约140米,景点,旅行社,114.838051,38.020881
白毛女洞,河北,石家庄,平山县,0311,,平山县其他,天桂山景区内,景点,更多景点/周边游,113.745038,38.258148
瑞慨国际旅行社,河北,石家庄,石家庄,0311,,中山西路,裕华西路128号益友百货负一层北国超市旁,景点,旅行社,114.450403,38.034453
秦皇岛园,河北,石家庄,正定县,0311,,河北省园博园,天宁路河北省园博园,景点,更多景点/周边游,114.617385,38.145234
法华塔,河北,石家庄,鹿泉区,0311,,鹿泉区其他,龙泉寺风景区龙泉寺内,景点,历史建筑,114.311459,38.003935
体育公园,河北,石家庄,行唐县,0311,,行唐县其他,龙州镇香港路185号,景点,公园/广场,114.567585,38.437555
携程旅游,河北,石家庄,栾城区,0311,,栾城区中心城区,栾城镇金方城底商,景点,旅行社,114.647344,37.892744
小叶黄杨,河北,石家庄,鹿泉区,0311,,鹿泉区其他,白鹿泉乡亦禾观光园亦禾观光园内,景点,更多景点/周边游,114.285115,38.019698
海山公园-游乐场,河北,石家庄,鹿泉区,0311,,鹿泉区其他,北斗东路与海山北大街交叉口东北角海山公园内,景点,游乐场,114.329989,38.097009
步行街,河北,石家庄,辛集市,0311,,北国商圈,兴华路文化广场北侧约140米,景点,步行街,115.219099,37.924089
石桥,河北,石家庄,正定县,0311,,隆兴寺,中山东路109号隆兴寺内,景点,更多景点/周边游,114.582161,38.141501
空中巡游,河北,石家庄,石家庄,0311,,中山西路,水上公园,景点,游乐场,114.461274,38.077054
美人鱼,河北,石家庄,石家庄,0311,,中山西路,海悦天地,景点,游乐场,114.4739,38.03456
赵州桥-乾隆碑题字,河北,石家庄,赵县,0311,,赵县其他,赵州桥景区内,景点,人文古迹,114.769497,37.720277
朝阳森林公园,河北,石家庄,赵县,0311,,赵县其他,南环路,景点,森林公园,114.793116,37.737596
海外国际旅行社,河北,石家庄,元氏县,0311,,元氏县其他,槐阳大街信誉楼南行50米,景点,旅行社,114.536294,37.771794
文字阁,河北,石家庄,元氏县,0311,,元氏县其他,长春路,景点,人文古迹,114.519833,37.751033
燕赵广场,河北,石家庄,正定县,0311,,河北省园博园,天宁路河北省园博园,景点,公园/广场,114.614112,38.146812
春花园公园,河北,石家庄,石家庄,0311,,大马庄园,谈固南大街与槐安东路交叉口,景点,公园/广场,114.563298,38.023705
嘉年华国旅,河北,石家庄,平山县,0311,139****7958;19931119176,县标大街,冶河东路与县标北街交叉路口往西北约150米,景点,旅行社,114.217008,38.256528
天尚国旅,河北,石家庄,无极县,0311,152****8088;153****7617,无极县其他,西九线西郝庄村新兴街一巷30号,景点,旅行社,114.843894,38.083429
携程旅游,河北,石家庄,石家庄,0311,189****8596,中山西路,裕华西路66号,景点,旅行社,114.475479,38.034311
赞皇太子森林公园,河北,石家庄,赞皇县,0311,,嶂石岩,西龙门乡石臼山北街与小河东路交口东北角东南方向200米,景点,森林公园,114.408637,37.671857
黑龙江全境,河北,石家庄,栾城区,0311,,栾城区其他,南车西路,景点,人文古迹,114.527478,37.931193
龙母故里长岗,河北,石家庄,井陉县,0311,,井陉县其他,G307,景点,展览馆,114.125188,38.027291
牛肉板面北门旧址,河北,石家庄,正定县,0311,,正定盛世华安,本尚餐饮管理有限公司,景点,人文古迹,114.577438,38.158604
梁思成文物保护史迹展,河北,石家庄,正定县,0311,,隆兴寺,中山东路109号隆兴寺内,景点,更多景点/周边游,114.582973,38.144227
三华动力,河北,石家庄,石家庄,0311,177****6355,岔河,车站南大街滹沱河叶子广场,景点,游艇,114.524421,38.133761
文化广场,河北,石家庄,鹿泉区,0311,,鹿泉区其他,幸福路,景点,公园/广场,114.319911,37.937402
纯境旅途,河北,石家庄,石家庄,0311,,三元,慢城7号,景点,旅行社,114.442194,38.075329
林溪花海,河北,石家庄,平山县,0311,,平山县其他,大圣堂红崖谷风景区内,景点,更多景点/周边游,113.962138,38.208794
崇实,河北,石家庄,鹿泉区,0311,,鹿泉区其他,观景大街与灵隐路交叉口西行500米土门关驿道小镇内,景点,更多景点/周边游,114.288124,38.074154
玉皇顶,河北,石家庄,鹿泉区,0311,,鹿泉区其他,封庄村九里山,景点,宗教,114.307131,38.14908
凯撒国际旅行社,河北,石家庄,晋州市,0311,,晋州市其他,小椎市场,景点,旅行社,115.138645,38.071095
中山公园,河北,石家庄,灵寿县,0311,,灵寿县其他,北环西路与牌楼街交叉口东100米,景点,公园/广场,114.370372,38.314223
植物围场,河北,石家庄,鹿泉区,0311,,植物园,植物园街60号石家庄植物园内,景点,动植物园,114.384911,38.112631
芦苇荡,河北,石家庄,鹿泉区,0311,,鹿泉区其他,惠民路双凤山景区内,景点,更多景点/周边游,114.391451,38.015201
松树林,河北,石家庄,鹿泉区,0311,,鹿泉区其他,白鹿泉乡亦禾观光园亦禾观光园内,景点,更多景点/周边游,114.284275,38.017868
大梁江村灵慈阁,河北,石家庄,井陉县,0311,,井陉县其他,061县道附近,景点,古村古镇,113.973467,37.910183
府文庙,河北,石家庄,正定县,0311,,子龙广场,学门口街与中山东路交叉口北200米路西,景点,宗教,114.572759,38.143895
腾邦旅游,河北,石家庄,正定县,0311,139****2015,正定北国,府西街58号路东,景点,旅行社,114.568645,38.151076
苦荞片广惠寺店,河北,石家庄,正定县,0311,137****7447,历史文化街,正定镇广惠路20号,景点,宗教,114.571497,38.13228
河北华绪旅行社有限公司,河北,石家庄,石家庄,0311,85814986,北国东尚,青园街109号3层,景点,旅行社,114.517519,38.040499
仙人洞,河北,石家庄,平山县,0311,,平山县其他,北冶乡天桂山景区内,景点,自然景观,113.744501,38.258901
五峰山,河北,石家庄,鹿泉区,0311,,鹿泉区其他,上寨乡梁庄村西南,景点,自然景观,114.292271,37.920531
街边公园,河北,石家庄,行唐县,0311,,行唐县其他,永昌北路,景点,公园/广场,114.557092,38.445472
玉皇殿,河北,石家庄,藁城区,0311,,藁城区其他,槐中西路121号附近,景点,宗教,114.692939,37.985219
西方胜景,河北,石家庄,正定县,0311,,隆兴寺,中山东路109号隆兴寺内,景点,更多景点/周边游,114.582287,38.143187
金元帝国,河北,石家庄,井陉县,0311,,井陉县其他,吴家窑乡衡井线窦王岭附近窦王岭内,景点,更多景点/周边游,114.291545,37.942935
貂蝉故里,河北,石家庄,井陉县,0311,,井陉县其他,202省道东50米,景点,古村古镇,114.101031,37.940405
裕华万达广场室外步行街-北出入口,河北,石家庄,石家庄,0311,,万达广场,建华南大街136号,景点,步行街,114.543341,38.025057
石雕园,河北,石家庄,平山县,0311,,北国商城,柏坡东路与柏坡西路交叉口东南50米,景点,更多景点/周边游,114.200356,38.260059
禾田创意美术馆,河北,石家庄,赵县,0311,,影剧院,光明街与所里街交叉口西150米,景点,美术馆,114.776733,37.758303
台西湖,河北,石家庄,藁城区,0311,,藁城区其他,204省道滹沱河生态景区二号溢流堰,景点,自然景观,114.720591,38.094841
福美十号院东区中心湖公园,河北,石家庄,正定县,0311,,正定县其他,太行北大街西辅路,景点,公园/广场,114.640477,38.14474
上碑镇公园,河北,石家庄,行唐县,0311,,行唐县其他,320县道南50米,景点,公园/广场,114.457104,38.485074
世运旅行社,河北,石家庄,平山县,0311,82943471,平山县其他,富民北街平山汽车站,景点,旅行社,114.201227,38.260327
