名称,省份,真实城市,市县区,区号,电话,区域,地址,大分类,小分类,经度,纬度
郑州博物馆,河南,郑州,郑州,0371,67714993;67438090-8026,碧沙岗,嵩山南路168号,景点,博物馆,113.627373,34.745316
河南博物院,河南,郑州,郑州,0371,63511237;63511239,国贸360,农业路8号,景点,博物馆,113.672134,34.788223
黄河博物馆,河南,郑州,郑州,0371,69556704;69556715,北大学城,迎宾路402号,景点,博物馆,113.677765,34.871841
郑国车马坑遗址博物馆,河南,郑州,新郑市,0371,62672189,新郑市其他,新华路街道文化路1号,景点,博物馆,113.735802,34.385315
郑州科学技术馆,河南,郑州,郑州,0371,67970900,碧沙岗,嵩山南路32号,景点,科技馆,113.627014,34.745918
郑州市动物园,河南,郑州,郑州,0371,65738095,国贸360,花园路103号,景点,动物园,113.684731,34.788837
碧沙岗公园,河南,郑州,郑州,0371,67882871,碧沙岗,嵩山北路与建设东路交叉口东南角,景点,城市公园,113.63031,34.751549
青屏山公园,河南,郑州,新密市,0371,69860976,新密市其他,北文峰路,景点,城市公园,113.384048,34.550373
郑州市人民公园,河南,郑州,郑州,0371,66222219,火车站/二七广场,铭功路街道北二七路97号,景点,城市公园,113.66251,34.76123
嵩淮公园,河南,郑州,郑州,0371,,升龙广场,淮河路街道民安路66号,景点,城市公园,113.629585,34.730053
五一公园,河南,郑州,郑州,0371,66687406,碧沙岗,友爱路与文化宫路交叉口,景点,城市公园,113.61795,34.753624
紫荆山公园,河南,郑州,郑州,0371,65953180,人民路/紫荆山,金水路108号,景点,城市公园,113.687752,34.761917
官渡古战场,河南,郑州,中牟县,0371,,中牟县其他,城官渡桥村,景点,更多景点/周边游,114.04776,34.733036
黄河文化公园,河南,郑州,郑州,0371,68222228,黄河游览区,江山路黄河南岸1号,景点,自然风光,113.520363,34.950249
裴李岗遗址,河南,郑州,新郑市,0371,,新郑市其他,新村镇城西北约8公里裴李岗村西,景点,古代遗迹,113.656639,34.436398
商城遗址,河南,郑州,郑州,0371,66324705,人民路/紫荆山,城南路,景点,古代遗迹,113.687141,34.751522
少林寺景区,河南,郑州,登封市,0371,62745599,少林寺风景区,207国道嵩山少林风景区,景点,宗教,112.941399,34.506851
嵩山风景名胜区,河南,郑州,登封市,0371,62745000;62745599,登封市其他,207国道旁,景点,自然风光,112.948389,34.479273
升达艺术馆,河南,郑州,郑州,0371,66349138,人民路/紫荆山,城东路113号,景点,美术馆,113.690681,34.759403
郑州海洋馆,河南,郑州,郑州,0371,63567402;63567403,陈砦,国基路86号,景点,海洋馆,113.65799,34.82008
东风渠滨河公园,河南,郑州,郑州,0371,,省电视台,北林路街道东风路与政七街交汇处西北100米,景点,城市公园,113.689758,34.795979
绿荫公园,河南,郑州,郑州,0371,,东风路,东风路西段,景点,城市公园,113.642944,34.800682
禅宗少林音乐大典,河南,郑州,登封市,0371,62809111,登封市其他,"待仙沟景区内（距少林寺7公里,三皇寨10公里）",景点,旅游项目/观光项目,112.973511,34.47847
CBD广场,河南,郑州,郑州,0371,,郑东新区CBD,商务内环路中央公园1号国际商务会展中心,景点,广场,113.728668,34.769627
康百万庄园,河南,郑州,巩义市,0371,64322766;64324004,巩义市其他,康店镇314省道康北村,景点,历史建筑,112.950806,34.762974
月季公园,河南,郑州,郑州,0371,,月季公园,西站路80号,景点,动植物园,113.629318,34.766926
忆江南度假区・江南春温泉,河南,郑州,荥阳市,0371,85217777;85218888,黄河游览区,江山路北与沿黄快速通道交叉口西约6公里右转路北(荥阳市广武镇湖南中路)忆江南度假区・江南春温泉,景点,温泉,113.491142,34.913277
河南康辉国际旅行社,河南,郑州,郑州,0371,189****0537,国贸360,农业路东16号省汇中心A座13层,景点,旅行社,113.688343,34.786834
左照公园,河南,郑州,上街区,0371,,铝城公园,济源路街道金屏路与许昌路交叉路口西北侧（溪畔美域东南侧）,景点,城市公园,113.312401,34.801292
大象陶瓷博物馆,河南,郑州,郑州,0371,138****0628,人民路/紫荆山,顺河路36号,景点,博物馆,113.689346,34.760174
登封历史博物馆,河南,郑州,登封市,0371,,百货大楼/中天广场,庙前街1号,景点,博物馆,113.032562,34.458141
浮戏山雪花洞风景名胜区,河南,郑州,巩义市,0371,64184187;64184999,巩义市其他,新中镇浮戏山雪花洞风景名胜区,景点,自然风光,113.17012,34.659767
河南自然博物馆,河南,郑州,郑州,0371,68108999,郑东新区CBD,金水东路18号,景点,博物馆,113.751877,34.765785
夹津口镇森林公园,河南,郑州,巩义市,0371,,巩义市其他,巩登路,景点,森林公园,113.006531,34.527802
凌秀公园,河南,郑州,郑州,0371,,橄榄城,长江路,景点,城市公园,113.672325,34.708321
绿城公园,河南,郑州,郑州,0371,,帝湖,南环路,景点,公园/广场,113.606468,34.716576
汽车公园,河南,郑州,郑州,0371,65646819,经三路沿线,八一路,景点,公园/广场,113.705574,34.814899
任长霞纪念馆,河南,郑州,登封市,0371,62862618,百货大楼/中天广场,观石街7号,景点,博物馆,113.04081,34.464863
嵩岳公园,河南,郑州,郑州,0371,,长江中路沿线,老郑密路和丹青路交叉口东西两侧区域,景点,城市公园,113.627274,34.704472
万山森林公园生态保护区,河南,郑州,荥阳市,0371,,荥阳市其他,232省道,景点,自然风光,113.327194,34.700912
永泰寺,河南,郑州,登封市,0371,62749087,登封市其他,西北太室山西麓,景点,宗教,112.979172,34.519966
原日本驻郑州领事馆旧址,河南,郑州,郑州,0371,,火车站/二七广场,东三马路80号,景点,历史建筑,113.667679,34.742775
健康路夜市,河南,郑州,郑州,0371,,大石桥/体育场,健康路,景点,夜市,113.664223,34.773998
郑州绿化博览园,河南,郑州,中牟县,0371,69682333;69682288,人民医院,郑汴物流通道与人文路交叉口西南角,景点,植物园,113.9338,34.754143
锦江旅行社,河南,郑州,巩义市,0371,64370000,星月时代广场,新兴路,景点,旅行社,112.985176,34.754997
净馨公园,河南,郑州,郑州,0371,,长途客运总站,京广路街道碧云路与华中路交口西120米,景点,城市公园,113.663948,34.717083
郑州植物园,河南,郑州,郑州,0371,67888933,马寨镇,莲湖街道四环路与陇海西路交叉口东北角,景点,植物园,113.536598,34.735096
中原福塔,河南,郑州,郑州,0371,60609199,经开区,航海东路1206号,景点,现代建筑,113.728676,34.723293
嵩阳公园,河南,郑州,登封市,0371,62874842,嵩阳公园,嵩阳路,景点,城市公园,113.033691,34.470924
刘禹锡公园,河南,郑州,荥阳市,0371,,荥阳植物园,博文路,景点,纪念公园,113.417023,34.770077
九洲国际旅行社,河南,郑州,郑州,0371,65703883;65703875,国贸360,花园路56号郑花大厦10楼1003室,景点,旅行社,113.681711,34.778971
河南康辉国际旅行社,河南,郑州,郑州,0371,155****5572,新世界百货,紫荆山路与东里路交叉口（招商银行）人民银行家属院2号楼1601室（近城北路）,景点,旅行社,113.681392,34.757922
丰源旅行社,河南,郑州,郑州,0371,135****9366,金水区,经八路28号建发大厦五楼509,景点,旅行社,113.66954,34.765617
金辉国际旅行社,河南,郑州,郑州,0371,132****0986,建文新世界,文化路黄河路交叉口东50米路北中孚大厦4楼K座（文化路东侧）,景点,旅行社,113.668519,34.774895
古树苑,河南,郑州,郑州,0371,,惠济区,新城街道开元路与天河路交叉口向北300米,景点,自然风光,113.614068,34.868116
小楼清真寺,河南,郑州,郑州,0371,,火车站/二七广场,解放路与民主路交叉口28号,景点,宗教,113.663353,34.753208
中心广场,河南,郑州,郑州,0371,,工大新校区,枫杨办事处银屏路与银杏路交叉口西100米,景点,广场,113.55883,34.820538
康辉国际旅行社,河南,郑州,郑州,0371,86227080,升龙广场,政通路升龙世纪花园1号楼1704室（政通路西侧）,景点,旅行社,113.65942,34.72476
荥阳植物园,河南,郑州,荥阳市,0371,64931777,荥阳植物园,京城路街道京城路31号,景点,植物园,113.406265,34.770737
大海寺,河南,郑州,荥阳市,0371,,荥阳植物园,京城路,景点,宗教,113.41053,34.767574
三角公园,河南,郑州,郑州,0371,,火车站/二七广场,紫荆山路,景点,公园/广场,113.681374,34.728096
象棋公园,河南,郑州,荥阳市,0371,,荥阳植物园,京城路街道京城路27号,景点,城市公园,113.411652,34.77037
花园口旅游区,河南,郑州,郑州,0371,,黄河游览区,花园口镇,景点,现代建筑,113.664787,34.904373
成功广场,河南,郑州,荥阳市,0371,,荥阳植物园,京城南路31号,景点,广场,113.414902,34.772194
康辉国际旅行社旗舰店,河南,郑州,郑州,0371,65582598,金水路/省政府,花园路88号,景点,旅行社,113.681607,34.765547
巩义博物馆,河南,郑州,巩义市,0371,66551416,宋陵公园,杜甫路街道杜甫路82号,景点,博物馆,112.98838,34.740116
中州国际旅行社,河南,郑州,郑州,0371,155****7972,儿童公园/凯旋门,桐柏路与陇海路交叉口凯旋门大厦A座1901室,景点,旅行社,113.612604,34.735094
汉霸二王城,河南,郑州,荥阳市,0371,4009933990,荥阳市其他,东北广武山上,景点,历史建筑,113.4534,34.956627
河南杜甫故里,河南,郑州,巩义市,0371,56905566,巩义市其他,站街镇南瑶湾村,景点,名人故居,113.063332,34.794819
纪公庙,河南,郑州,郑州,0371,63591024,黄河游览区,314省道西150米,景点,宗教,113.530716,34.865631
二七广场,河南,郑州,郑州,0371,,火车站/二七广场,西大街21号,景点,广场,113.666451,34.751862
新郑博物馆,河南,郑州,新郑市,0371,62698808,轩辕故里,轩辕路西228号,景点,博物馆,113.722649,34.399811
虎牢关,河南,郑州,荥阳市,0371,64896976,荥阳市其他,汜水镇,景点,古代遗迹,113.205467,34.848766
金水河滨河公园,河南,郑州,郑州,0371,,宝龙城市广场/熙地港,金水路,景点,城市公园,113.727463,34.790302
郑州方特欢乐世界,河南,郑州,中牟县,0371,56928000;4001660006,刘集镇,郑东新区人文路与郑汴物流通道交叉口西北300米,景点,主题乐园,113.932404,34.7673
尖岗水库,河南,郑州,郑州,0371,,二七区,侯寨街道凤鸣北路,景点,现代建筑,113.578491,34.670719
文博森林园,河南,郑州,郑州,0371,,二七区,侯寨街道郑密公路（近绕城高速）,景点,森林公园,113.567504,34.665694
中国青年旅行社,河南,郑州,郑州,0371,155****6646,碧沙岗,建设西路187号1710室,景点,旅行社,113.625541,34.754481
香堤湾亲子温泉度假区,河南,郑州,荥阳市,0371,85213333;85216666,奥帕拉拉水公园,泽众路与桃贾路交叉口北500米路西,景点,温泉,113.450722,34.756687
郑风苑,河南,郑州,新郑市,0371,62677019,西亚斯大学,人民路中段,景点,城市公园,113.760902,34.390774
古树苑公园,河南,郑州,郑州,0371,,惠济区,天河路,景点,城市公园,113.61412,34.868892
百事通旅游,河南,郑州,郑州,0371,60192829,曼哈顿广场/英协路,英协路与福元路交叉口华悦时间广场,景点,旅行社,113.719005,34.757092
康辉国际旅行社,河南,郑州,郑州,0371,88885105,二七万达,大学路政通路交叉口向西300米升龙世纪花园一区603室,景点,旅行社,113.637794,34.726154
重阳观,河南,郑州,上街区,0371,,上街区,310国道,景点,宗教,113.266075,34.782246
中原影视城,河南,郑州,荥阳市,0371,137****1351,黄河游览区,广武镇樊河村,景点,影视基地,113.489899,34.92128
皇宫温泉,河南,郑州,郑州,0371,68818881,东建材,郑汴路与英协路交叉口南1000米路东,景点,温泉,113.720277,34.73959
九龙峡,河南,郑州,巩义市,0371,,巩义市其他,涉村镇东北部,景点,自然风光,113.106789,34.661091
竹林长寿山景区,河南,郑州,巩义市,0371,64461789,巩义市其他,竹林镇长寿山景区游客服务中心,景点,自然风光,113.123207,34.685535
凤凰山,河南,郑州,新密市,0371,69229110,新密市其他,米村镇尖山下寺沟村,景点,自然风光,113.228256,34.586552
九里山,河南,郑州,新密市,0371,69245333,新密市其他,超化镇草庙村,景点,自然风光,113.381874,34.384602
丰乐葵园,河南,郑州,郑州,0371,61220327;63773288,黄河游览区,江山路与黄河大堤交叉口东800米,景点,植物园,113.561417,34.918339
旅游百事通,河南,郑州,郑州,0371,53753238,陈砦,丰庆路国基路向北500米右拐联购超市负一楼,景点,旅行社,113.650803,34.825014
郑州大学体育学院-校史馆,河南,郑州,郑州,0371,63631500,省体中心/裕华广场,银河路2号体育中心南区,景点,博物馆,113.628273,34.827129
惠济关帝庙,河南,郑州,郑州,0371,,黄河游览区,黄河大堤路,景点,宗教,113.596458,34.902119
大河广场,河南,郑州,郑州,0371,,惠济区,开元路8号,景点,广场,113.61682,34.866531
东岳天齐庙,河南,郑州,郑州,0371,,北大学城,大河路与花园口立交交叉口南200米,景点,宗教,113.67894,34.878662
颧雀楼,河南,郑州,郑州,0371,,黄河游览区,西山路,景点,历史建筑,113.515442,34.910976
红光寺,河南,郑州,郑州,0371,,黄河游览区,大河路,景点,宗教,113.517077,34.870929
李诚故里,河南,郑州,郑州,0371,,康桥商务广场,城东路179号,景点,名人故居,113.691025,34.747635
清真女寺,河南,郑州,郑州,0371,,新世界百货,清真寺街130号,景点,宗教,113.67852,34.754917
清平里清真寺,河南,郑州,郑州,0371,66987062,火车站/二七广场,弓背街26号,景点,宗教,113.669205,34.747665
列子故里,河南,郑州,郑州,0371,,郑东新区,220国道,景点,古村古镇,113.82607,34.740264
商陶花海,河南,郑州,郑州,0371,,康桥商务广场,城东路226号,景点,植物园,113.690677,34.744187
中国旅行社,河南,郑州,郑州,0371,155****1950,西大街,紫荆山路与东大街交叉口向北100米路东,景点,旅行社,113.68129,34.752277
委公园,河南,郑州,郑州,0371,,西大街,管城街48号,景点,城市公园,113.676926,34.753422
大河锦绣温泉,河南,郑州,郑州,0371,63338188,经开区,第三大街166号大河国际饭店,景点,温泉,113.745583,34.730572
书院游园,河南,郑州,郑州,0371,,西大街,书院街5号院,景点,公园/广场,113.682579,34.745663
逸心公园,河南,郑州,郑州,0371,,富田太阳城,港湾路南50米,景点,城市公园,113.705444,34.715809
五州健康公园,河南,郑州,郑州,0371,,汽车东站,经北六路,景点,城市公园,113.750641,34.741585
青龙山魏长城遗址,河南,郑州,郑州,0371,,经开区,东三环高架与陇海快速路出口交叉口西南100米,景点,古代遗迹,113.784409,34.733456
紫薇园,河南,郑州,郑州,0371,,曼哈顿广场/英协路,商城东路与玉凤路交汇处东南角,景点,公园/广场,113.712639,34.752106
经纬广场,河南,郑州,郑州,0371,65951659,金水路/省政府,花园路街道纬四路20-1号,景点,广场,113.696365,34.76815
友谊旅行社有限公司,河南,郑州,郑州,0371,,火车站/二七广场,二七路与西里路交叉路口西北侧,景点,旅行社,113.666642,34.761062
职工国际旅行社,河南,郑州,郑州,0371,65335617,金水路/省政府,纬五路39号附1号金岸大厦,景点,旅行社,113.687525,34.771065
长城旅行社,河南,郑州,郑州,0371,65991708,人民路/紫荆山,紫荆山路与人民路交叉口紫荆山商务13层1318室,景点,旅行社,113.681693,34.762753
马庄清真寺,河南,郑州,郑州,0371,,东建材,百福街与商鼎路交叉路口往东南约50米,景点,宗教,113.737602,34.754513
红白花公园,河南,郑州,郑州,0371,,郑东新区CBD,商务内环路与众意西路交叉口东侧,景点,城市公园,113.722832,34.773823
青少年科技中心,河南,郑州,郑州,0371,63385119,国贸360,政七街13号,景点,科技馆,113.687815,34.782454
华夏旅行社,河南,郑州,郑州,0371,65931613;156****7613,人民路/紫荆山,紫荆山路56号华林新时代816室,景点,旅行社,113.681735,34.755401
中国旅行社总社河南有限公司,河南,郑州,郑州,0371,65598609;66938182,曼哈顿广场/英协路,纬五路和经一路交叉口东南角,景点,旅行社,113.697829,34.771725
文化公园,河南,郑州,郑州,0371,,正弘中心,文化路与文劳路交叉口向南90米路东,景点,文化公园,113.668121,34.804199
金水清真寺,河南,郑州,郑州,0371,,柳林刘庄,魏河南路附近,景点,宗教,113.682175,34.837788
豪门温泉酒店,河南,郑州,郑州,0371,60129933,东建材,十里铺街与永平路交叉口向西50米,景点,温泉,113.730011,34.737885
经八路街道文化中心,河南,郑州,郑州,0371,,建文新世界,纬三路经七路35号院东北侧,景点,展览馆,113.672028,34.769291
海悦旅行社,河南,郑州,郑州,0371,,花园茶城,花园路与金午一牛路,景点,旅行社,113.68534,34.819612
河南大学校友书画院,河南,郑州,郑州,0371,,丰业广场/千盛广场,天明路4号院,景点,美术馆,113.654938,34.781239
郑东新区湿地公园,河南,郑州,郑州,0371,,郑东新区CBD,商务外环路与商务东一街交汇处,景点,城市公园,113.727791,34.778179
海鑫艺术馆,河南,郑州,郑州,0371,56622222;65998530,金水路/省政府,纬二路与政一街交叉口东北角20米,景点,美术馆,113.686432,34.767739
土地庙,河南,郑州,郑州,0371,,高新区,中原西路,景点,宗教,113.571347,34.744233
牛砦清真寺,河南,郑州,郑州,0371,,冉屯路/五龙口,桐柏北路89-1号,景点,宗教,113.616104,34.76614
中原清真寺,河南,郑州,郑州,0371,,马寨镇,富民路,景点,宗教,113.547722,34.712013
石佛清真寺,河南,郑州,郑州,0371,138****4130,科学大道,科学大道62号,景点,宗教,113.57901,34.810528
憩园,河南,郑州,郑州,0371,,月季公园,农业路与朱屯东路交叉口西北角,景点,自然风光,113.626432,34.775737
五星广场,河南,郑州,郑州,0371,,科学大道,科学大道100号,景点,广场,113.535599,34.80904
西十里铺清真寺,河南,郑州,郑州,0371,67529016,月季公园,桐柏路西十里铺交汇处,景点,宗教,113.622444,34.768875
莲花公园,河南,郑州,郑州,0371,,瑞达路沿线,枫杨办事处莲花街与迎春街交叉口东北150米,景点,城市公园,113.568169,34.820263
科学公园,河南,郑州,郑州,0371,,科学大道,科学大道与檀香路交叉口旁,景点,城市公园,113.531181,34.80629
中岳书画院,河南,郑州,郑州,0371,,长城康桥华城,陇海路62号,景点,展览馆,113.633766,34.736092
旅游百事通,河南,郑州,郑州,0371,68591919,二七区,侯寨村市场街,景点,旅行社,113.590892,34.667842
嵩河山庄观光园,河南,郑州,郑州,0371,,二七区,G3001郑州绕城高速,景点,景点/周边游,113.527565,34.663425
花园街清真寺,河南,郑州,郑州,0371,,火车站/二七广场,德化街78号,景点,宗教,113.666048,34.749749
武英里清真寺,河南,郑州,郑州,0371,,长途客运总站,航海路与碧云路交叉口航海中路21号,景点,宗教,113.667015,34.720154
河南旅游车辆集散中心,河南,郑州,郑州,0371,,二七区,郑许公路,景点,旅行社,113.646223,34.694166
二七区文化艺术广场,河南,郑州,郑州,0371,,升龙广场,交通路8号,景点,广场,113.647652,34.730438
河南中国旅行社,河南,郑州,荥阳市,0371,,荥阳站,老贾峪路口向北一百米路东,景点,旅行社,113.386571,34.795014
郭小寨基督教堂,河南,郑州,郑州,0371,,二七区,G3001郑州绕城高速316省道出口附近,景点,宗教,113.565209,34.652489
马寨镇综合文化站,河南,郑州,郑州,0371,,马寨镇,光明路6号,景点,展览馆,113.524879,34.703247
农博园,河南,郑州,郑州,0371,68593277,二七区,侯寨尖岗村,景点,植物园,113.582065,34.685505
天成生态园,河南,郑州,郑州,0371,,二七区,侯寨街道河源西路南50米,景点,植物园,113.553995,34.642495
滨河公园,河南,郑州,郑州,0371,,长城康桥华城,兴华北街8号,景点,公园/广场,113.635246,34.743217
涵秀园,河南,郑州,郑州,0371,,郑铁体育中心,小赵寨街2号,景点,城市公园,113.659088,34.735332
五云山山地生态公园,河南,郑州,上街区,0371,,上街区,峡窝镇中原西路五云山大道166号,景点,公园/广场,113.284874,34.723286
火神庙,河南,郑州,荥阳市,0371,,荥阳市其他,314省道,景点,宗教,113.453438,34.894257
基督教会李福音堂,河南,郑州,荥阳市,0371,,建业购物广场,站南东路,景点,宗教,113.395592,34.797207
魏岗村文化广场,河南,郑州,上街区,0371,,上街区,011县道北100米,景点,公园/广场,113.284568,34.772439
宝塔寺,河南,郑州,荥阳市,0371,,建业购物广场,工业路与站南东路交叉口西北50米,景点,宗教,113.405357,34.796837
郑旅国际旅游集团,河南,郑州,上街区,0371,,上街区,丹江北路,景点,旅行社,113.288696,34.798653
老君堂文化广场,河南,郑州,荥阳市,0371,,荥阳市其他,G30连霍高速,景点,公园/广场,113.219376,34.82914
李商隐公园,河南,郑州,荥阳市,0371,,奥帕拉拉水公园,豫龙镇中原西路与商隐路交口北李商隐公园,景点,纪念公园,113.448334,34.754826
大悲寺,河南,郑州,荥阳市,0371,,荥阳市其他,314省道北100米,景点,宗教,113.253181,34.874958
神母祠,河南,郑州,荥阳市,0371,,荥阳市其他,成皋路,景点,宗教,113.257736,34.635429
兴国寺,河南,郑州,荥阳市,0371,135****2112,荥阳市其他,中原路与桃贾路交叉口南1.5公里兴国寺村,景点,宗教,113.463295,34.735863
洞林湖,河南,郑州,荥阳市,0371,,荥阳市其他,贾峪镇新田大道,景点,自然风光,113.480499,34.669643
二郎庙,河南,郑州,荥阳市,0371,,荥阳市其他,刘河镇龙溪路东100米,景点,宗教,113.237473,34.630535
荥阳莲花寺,河南,郑州,荥阳市,0371,,荥阳市其他,辘轳沟附近,景点,宗教,113.361633,34.67067
同心路清真寺,河南,郑州,荥阳市,0371,,荥阳市其他,014乡道,景点,宗教,113.349335,34.824017
武庄文化广场,河南,郑州,上街区,0371,,上街区,安阳路,景点,广场,113.27124,34.832867
老龙窝森林公园,河南,郑州,荥阳市,0371,,荥阳市其他,314省道,景点,森林公园,113.257835,34.895977
荥阳关帝庙,河南,郑州,荥阳市,0371,,荥阳市其他,关帝庙,景点,宗教,113.314018,34.851223
新田大道清真寺,河南,郑州,荥阳市,0371,,马寨镇,新田大道,景点,宗教,113.502579,34.71637
荥阳基督教堂,河南,郑州,荥阳市,0371,,建业购物广场,汜河路隆兴・御景阁西侧约100米,景点,宗教,113.412228,34.792709
广武路带状公园,河南,郑州,荥阳市,0371,,建业购物广场,广武路,景点,城市公园,113.399803,34.780533
木楼文化广场,河南,郑州,荥阳市,0371,,荥阳市其他,S314荥阳市王村镇第二小学南侧约190米,景点,公园/广场,113.309769,34.886799
楚河汉界古战场风景区,河南,郑州,荥阳市,0371,,荥阳市其他,朝阳五街,景点,古代遗迹,113.472137,34.949921
宝翔广场,河南,郑州,荥阳市,0371,,海龙时代广场,京城路街道索河路与荥泽大道交叉口西北150米,景点,广场,113.428024,34.787792
高山镇妥要村文化大院,河南,郑州,荥阳市,0371,,荥阳市其他,043乡道西50米,景点,展览馆,113.206837,34.773435
高山镇冢岗村文化大院,河南,郑州,荥阳市,0371,,荥阳市其他,冢岗村附近,景点,展览馆,113.228607,34.789909
荥阳烈士陵园,河南,郑州,荥阳市,0371,,荥阳市其他,乔楼镇荥贾路,景点,革命旧址,113.405386,34.760278
刘禹锡墓,河南,郑州,荥阳市,0371,,荥阳植物园,郑上路与310国道交叉口西南150米,景点,古代遗迹,113.41777,34.771511
中州桃花源风景名胜区,河南,郑州,新密市,0371,,新密市其他,S85郑少洛高速,景点,自然风光,113.205917,34.555756
基督教,河南,郑州,新密市,0371,,新密市其他,司家门郑登快速路,景点,宗教,113.489499,34.533202
神仙洞景区,河南,郑州,新密市,0371,69225888,新密市其他,尖山乡神仙洞村,景点,自然风光,113.274529,34.620785
天爷庙,河南,郑州,新密市,0371,,新密市其他,029县道附近,景点,宗教,113.469231,34.439484
真金广场,河南,郑州,新密市,0371,,新密市其他,周甘路与顺火路交叉口西50米,景点,公园/广场,113.425987,34.465935
羲皇公园,河南,郑州,新密市,0371,,新密市其他,030县道,景点,城市公园,113.462547,34.479645
清真寺,河南,郑州,新密市,0371,,新密市其他,017乡道北50米,景点,宗教,113.508186,34.454559
申氏宗祠,河南,郑州,新密市,0371,,新密市其他,004乡道附近,景点,宗教,113.494591,34.645004
葛沟村文化广场,河南,郑州,新密市,0371,,新密市其他,323省道东150米,景点,公园/广场,113.326172,34.446697
李湾游览区,河南,郑州,新密市,0371,,新密市其他,316省道南100米,景点,城市观光,113.237553,34.500803
老君庙,河南,郑州,新密市,0371,,新密市其他,321省道,景点,宗教,113.483002,34.522602
新密清真寺,河南,郑州,新密市,0371,,新密市其他,开阳路72号,景点,宗教,113.377296,34.517296
伏羲山旅行社,河南,郑州,新密市,0371,69881611;69881622,新密市政府,开阳路518号,景点,旅行社,113.37886,34.535503
东大寺,河南,郑州,新密市,0371,,新密市其他,S88郑尧高速,景点,宗教,113.607446,34.538432
老君洞,河南,郑州,新密市,0371,,新密市其他,S85郑少洛高速,景点,自然景观,113.20018,34.561291
后士郭村文化中心,河南,郑州,新密市,0371,,行政服务中心,西大街街道后士郭村文化活动中心,景点,展览馆,113.328903,34.533943
石河生态公园,河南,郑州,巩义市,0371,,巩义市其他,紫荆路街道河洛路与石河路交叉口东南100米,景点,城市公园,113.001999,34.759464
回郭镇人民政府文化服务中心,河南,郑州,巩义市,0371,,回郭镇,人民路回郭镇北寺村长城北路卫生室西侧约110米,景点,展览馆,112.862571,34.680411
孝义街道办事处文化站,河南,郑州,巩义市,0371,,巩义市其他,白沙路南50米巩义市图书馆西沟分馆附近,景点,展览馆,112.981117,34.77013
河洛镇古桥村文化大院,河南,郑州,巩义市,0371,,巩义市其他,沿黄快速通道北50米,景点,展览馆,113.003693,34.794014
桥沟老君庙,河南,郑州,巩义市,0371,,巩义市其他,310国道附近,景点,宗教,113.063072,34.726303
浅井村文化广场,河南,郑州,巩义市,0371,,巩义市其他,浅井村附近,景点,公园/广场,113.084793,34.613232
大王庙,河南,郑州,巩义市,0371,,巩义市其他,郑东新区237省道,景点,宗教,113.064133,34.831608
铁生沟冶铁遗址,河南,郑州,巩义市,0371,,巩义市其他,237省道南50米,景点,古代遗迹,113.041183,34.619392
永昭陵,河南,郑州,巩义市,0371,64571899,宋陵公园,杜甫路84号,景点,古代遗迹,112.985764,34.743736
立佛寺,河南,郑州,巩义市,0371,,巩义市其他,嵩洛路181号正西方向200米,景点,宗教,112.969078,34.751045
青龙禅寺,河南,郑州,巩义市,0371,,巩义市其他,310国道西100米,景点,宗教,113.000282,34.715176
滹沱村文化大院,河南,郑州,巩义市,0371,,巩义市其他,宋陵东街南50米,景点,展览馆,112.951378,34.670029
杨树沟游客服务中心,河南,郑州,巩义市,0371,,巩义市其他,龙溪路,景点,公园/广场,113.211983,34.654308
巩义关帝庙,河南,郑州,巩义市,0371,,巩义市其他,007乡道北50米,景点,宗教,113.130577,34.767998
米河镇支石村文化大院,河南,郑州,巩义市,0371,,巩义市其他,015乡道北50米,景点,展览馆,113.20092,34.750484
浮戏山风景名胜区,河南,郑州,巩义市,0371,,巩义市其他,米新路,景点,自然风光,113.195641,34.677902
桐乐园,河南,郑州,巩义市,0371,152****0563,体育馆,桐本路与陇海路交叉口朗曼假日广场1楼,景点,城市公园,112.992569,34.744682
杨树沟房车露营基地,河南,郑州,巩义市,0371,,巩义市其他,新中镇杨树沟风景区农家乐宾馆服务处杨树沟,景点,更多景点/周边游,113.212387,34.655029
宋陵永昌陵,河南,郑州,巩义市,0371,,巩义市其他,永安路与076乡道交叉口北150米,景点,古代遗迹,112.960419,34.661884
常香玉故里,河南,郑州,巩义市,0371,,巩义市其他,314省道,景点,名人故居,113.046921,34.81266
豫西抗日先遣支队司令部旧址,河南,郑州,巩义市,0371,,巩义市其他,237省道,景点,历史建筑,113.085655,34.609543
郑新路清真寺,河南,郑州,新郑市,0371,,新郑市其他,郑新路,景点,宗教,113.719075,34.556805
龙王清真寺,河南,郑州,新郑市,0371,,新郑市其他,人民路40号-72号,景点,宗教,113.860588,34.456879
古禅寺,河南,郑州,新郑市,0371,,新郑市其他,具茨山国家级森林公园管理委员会千户寨,景点,宗教,113.542854,34.337265
八千乡吕槐村文化大院,河南,郑州,新郑市,0371,,新郑市其他,八千乡中心学校附近,景点,展览馆,113.827545,34.378628
郭店镇文化站,河南,郑州,新郑市,0371,,新郑市其他,郑新快速通道五里口菜市场北侧,景点,展览馆,113.713524,34.525982
新郑市城关乡小占庄村文化大院,河南,郑州,新郑市,0371,,新郑市其他,G343,景点,展览馆,113.655037,34.393017
百合园生态园,河南,郑州,新郑市,0371,,新郑市其他,107国道与321省道交汇处,景点,动植物园,113.685701,34.547061
东岳庙,河南,郑州,新郑市,0371,,新郑市其他,X029与双鹤四街交叉路口往东北约170米,景点,宗教,113.839218,34.447556
海外旅游,河南,郑州,新郑市,0371,62589367,新郑机场,振兴路,景点,旅行社,113.829262,34.529872
郭店镇司洼村文化大院,河南,郑州,新郑市,0371,,新郑市其他,幸福路,景点,展览馆,113.671799,34.521236
观音堂,河南,郑州,新郑市,0371,,新郑市其他,双湖大道东段77号,景点,宗教,113.761308,34.611339
和庄镇坡刘村文化大院,河南,郑州,新郑市,0371,,新郑市其他,223省道,景点,展览馆,113.814148,34.399715
和庄镇杨家寨村文化大院,河南,郑州,新郑市,0371,,新郑市其他,S223,景点,展览馆,113.818016,34.419727
孟庄镇麻线张村文化大院,河南,郑州,新郑市,0371,,新郑市其他,三旺马小学东北侧约200米,景点,展览馆,113.781025,34.548325
新村镇郝家岗村文化大院,河南,郑州,新郑市,0371,,新郑市其他,107国道西150米,景点,展览馆,113.703568,34.461628
新郑清真寺,河南,郑州,新郑市,0371,,新郑市其他,三二三省道,景点,宗教,113.613766,34.391058
和庄镇郑庄村文化大院,河南,郑州,新郑市,0371,,新郑市其他,炎黄大道和庄镇郑庄小学东侧约270米,景点,展览馆,113.778481,34.374447
福寿园,河南,郑州,新郑市,0371,,龙湖广场/升达大学,龙湖镇梅山路与Y015交叉路口西南侧（龙湖百合花园）,景点,纪念公园,113.678436,34.610474
管城回族清真寺,河南,郑州,郑州,0371,,西大街,清真寺巷2号,景点,宗教,113.678871,34.752449
辛店镇许岗村文化大院,河南,郑州,新郑市,0371,,新郑市其他,许岗完全小学东侧约190米,景点,展览馆,113.626343,34.375015
辛店镇大槐树村文化大院,河南,郑州,新郑市,0371,,新郑市其他,具茨山国家级森林公园陈家沟附近,景点,展览馆,113.598228,34.328659
好想你木本生态园,河南,郑州,新郑市,0371,,新郑市其他,S1机场高速,景点,动植物园,113.818695,34.560394
郑韩故城,河南,郑州,新郑市,0371,,轩辕故里,新建路街道郑新路127-129号,景点,古代遗迹,113.728706,34.411007
皇帝古枣园,河南,郑州,新郑市,0371,159****5690,新郑市其他,004乡道西50米,景点,植物园,113.786509,34.552209
薛店镇观沟村便民服务中心,河南,郑州,新郑市,0371,,新郑机场,金河大道东50米,景点,展览馆,113.762085,34.487602
梨河镇综合文化站,河南,郑州,新郑市,0371,,新郑市其他,011乡道北50米,景点,展览馆,113.739571,34.3507
海洋世界,河南,郑州,登封市,0371,130****2727,百货大楼/中天广场,东关街登封市直属第一初级中学南侧约40米,景点,海洋馆,113.032944,34.457153
迎仙公园,河南,郑州,登封市,0371,,登封市其他,嵩阳街道中岳大街与阳城路交叉口路东,景点,城市公园,113.059975,34.456509
嵩山地质博物馆,河南,郑州,登封市,0371,6274897,登封市其他,少室路与北环路交叉口,景点,博物馆,113.029694,34.482426
革命烈士纪念馆,河南,郑州,登封市,0371,158****6288,登封市其他,少林街道中岳大街161号,景点,纪念馆,113.018745,34.461693
阮村文化广场,河南,郑州,登封市,0371,,登封市其他,344村道北50米,景点,公园/广场,112.848671,34.391273
登封中国国际旅行社,河南,郑州,登封市,0371,62877038,登封市其他,大禹路西段203号郑大体校对面,景点,旅行社,113.027351,34.468731
罗汉堂,河南,郑州,登封市,0371,,登封市其他,少林大道北100米,景点,宗教,113.079491,34.455238
阳城工业区文化站,河南,郑州,登封市,0371,,登封市其他,237省道,景点,展览馆,113.152954,34.385845
大路北文化游乐广场,河南,郑州,登封市,0371,,登封市其他,064乡道刘子沟,景点,公园/广场,113.209396,34.463863
登封基督教堂,河南,郑州,登封市,0371,,登封市其他,第一中心小学东北侧约140米,景点,宗教,113.252296,34.429428
西关清真寺,河南,郑州,登封市,0371,,登封一中/国际商贸城,少室路61号,景点,宗教,113.015518,34.453175
卢店镇杨岗村文化大院,河南,郑州,登封市,0371,,登封市其他,316省道附近,景点,展览馆,113.170685,34.468365
登封嵩山温泉养生苑,河南,郑州,登封市,0371,62811891,登封市其他,中岳区玉带路锦园西门,景点,温泉,113.095574,34.457724
清凉寺,河南,郑州,登封市,0371,,登封市其他,少林服务区,景点,宗教,112.932671,34.45171
凤凰岭生态园,河南,郑州,登封市,0371,,登封市其他,中岳街道颍河路东段,景点,植物园,113.095299,34.447807
南岳庙,河南,郑州,登封市,0371,,登封市其他,G207,景点,宗教,112.982536,34.371899
大禹园,河南,郑州,登封市,0371,,嵩山一号,嵩阳街道大禹路与守敬路交叉口路西,景点,城市公园,113.053085,34.466652
会善寺,河南,郑州,登封市,0371,83039899,登封市其他,G207号,景点,宗教,113.005157,34.491802
新中州旅游有限公司,河南,郑州,中牟县,0371,,祥瑞中心花园,东风路,景点,旅行社,114.014115,34.713823
中国厨房文化博物馆,河南,郑州,中牟县,0371,60862000,白沙镇,新安路东段10号,景点,博物馆,113.905388,34.699238
郑州市中牟县西关清真寺,河南,郑州,中牟县,0371,,中牟大厦,民族路管道三公司第三生活小区东北侧约80米,景点,宗教,114.022614,34.726341
八岗镇文化服务中心,河南,郑州,中牟县,0371,,中牟县其他,府前街6号,景点,展览馆,113.936356,34.592457
中牟烈士陵园,河南,郑州,中牟县,0371,,中牟大厦,府前路与城河街交叉路口往西北约50米,景点,烈士陵园,114.023239,34.723221
河南康辉国际旅行社,河南,郑州,中牟县,0371,62100018;62100959,中牟大厦,建设南路53号,景点,旅行社,114.017296,34.723785
万胜清真寺,河南,郑州,中牟县,0371,,中牟县其他,中牟服务区,景点,宗教,113.998642,34.840405
康清池水上乐园,河南,郑州,中牟县,0371,,百乐汇购物广场,保健门诊附近,景点,水上乐园,114.012291,34.736794
尚庄文化活动中心,河南,郑州,中牟县,0371,,潘安公园,东风路269号正南方向20米,景点,展览馆,114.024506,34.708607
高皇寺,河南,郑州,中牟县,0371,62356656,中牟县其他,三官庙办事处,景点,宗教,113.944908,34.537262
东关社区文化活动广场,河南,郑州,中牟县,0371,,中牟县其他,东关南街与青年东路交叉路口东北侧,景点,公园/广场,114.039345,34.722595
八岗镇河头陈村文化大院,河南,郑州,中牟县,0371,,中牟县其他,005乡道北50米,景点,展览馆,113.900276,34.616604
东湖,河南,郑州,中牟县,0371,,中牟县其他,郑开大道,景点,自然风光,114.14695,34.767349
闫家村文化活动中心,河南,郑州,中牟县,0371,,中牟县其他,百花路幼儿园分园东南侧约90米,景点,展览馆,114.019478,34.619781
河南康辉国际旅行社,河南,郑州,郑州,0371,66293757;66293758,西大街,东大街街道紫荆山东大街东城花园8019室（河南康辉国际旅行社有限责任公司）,景点,旅行社,113.681537,34.748197
巩义市鸿鑫旅行社,河南,郑州,巩义市,0371,64391000,星月时代广场,新华路234附1号3层,景点,旅行社,112.983834,34.751186
欧亚旅行社,河南,郑州,郑州,0371,,火车站/二七广场,火车站东广场中原大厦A座1楼,景点,旅行社,113.66228,34.74742
康辉旅行社,河南,郑州,巩义市,0371,64571234,星月时代广场,新兴路28号福鑫宾馆一楼大厅,景点,旅行社,112.985472,34.755532
百事通旅游公司,河南,郑州,郑州,0371,86660766,长城康桥华城,大学路4号院2号楼2单元16号,景点,旅行社,113.644222,34.737877
百事通旅游汝河路服务网点,河南,郑州,郑州,0371,68833995,儿童公园/凯旋门,汝河路8号,景点,旅行社,113.598614,34.732684
金阳光旅行社,河南,郑州,郑州,0371,55673313,龙子湖校区,龙子湖西路,景点,旅行社,113.79427,34.78769
御窑阁汝瓷艺术馆,河南,郑州,郑州,0371,159****8898;150****3963,金水路/省政府,政一街河南省直属机关第一医院政五街东南侧约120米,景点,美术馆,113.687117,34.767147
新铜雀湾温泉酒店,河南,郑州,郑州,0371,65675880,曼哈顿广场/英协路,金水路与英协路交叉口北100米路东,景点,温泉,113.718495,34.764533
万通国际旅行社,河南,郑州,郑州,0371,88881345;155****7977,新世界百货,人民路街道东里路紫荆山与紫东苑2号楼28楼D室户,景点,旅行社,113.682526,34.757496
利海旅游移动酒店,河南,郑州,中牟县,0371,60218333,祥瑞中心花园,雁鸣湖国家农业公园农耕年华,景点,旅行社,114.004676,34.714036
岳村镇矿山森林公园,河南,郑州,新密市,0371,,新密市其他,芦沟村附近,景点,森林公园,113.498993,34.552116
白爷庙,河南,郑州,郑州,0371,,帝湖,启福大道,景点,宗教,113.605522,34.708191
城外城博物馆,河南,郑州,郑州,0371,68953233;155****6448,帝湖,长江西路西三环交叉口南100米路西,景点,博物馆,113.612595,34.708065
黄淮艺术博物馆,河南,郑州,郑州,0371,,东建材,金水东路,景点,博物馆,113.747826,34.757504
群众艺术馆家属院,河南,郑州,郑州,0371,,中原区,伏牛路233号,景点,美术馆,113.605377,34.724538
稼祥商业广场,河南,郑州,新密市,0371,,迎客松购物广场,郑州曲梁产业集聚区大学南路维也纳酒店(大学南路店)西北侧约200米,景点,公园/广场,113.647537,34.522404
河南省中国青年旅行社裕鸿营业部,河南,郑州,郑州,0371,86086290,新世界百货,紫荆山路商城路裕鸿国际B座804,景点,旅行社,113.68263,34.753981
春秋阁景区,河南,郑州,巩义市,0371,,巩义市其他,芝田镇,景点,历史建筑,112.935738,34.714993
当代艺术馆,河南,郑州,郑州,0371,,裕达国贸,伊河路12号,景点,美术馆,113.625343,34.742882
二祖庵,河南,郑州,登封市,0371,,登封市其他,嵩山少室山下,景点,宗教,112.937355,34.489342
古荥汉代冶铁遗址,河南,郑州,郑州,0371,,黄河游览区,古须北路79号,景点,古代遗迹,113.534027,34.875572
京汉铁路工人大罢工史迹陈列馆,河南,郑州,郑州,0371,66966789;55090650,火车站/二七广场,钱塘路商业街82号,景点,陈列馆,113.666489,34.74609
康辉国际旅行社,河南,郑州,郑州,0371,55331815;55331817,儿童公园/凯旋门,陇海路与桐柏路交叉口向东50米升龙金中环财富中心A座3401室,景点,旅行社,113.613247,34.738007
青龙山后寺河风景区,河南,郑州,巩义市,0371,,巩义市其他,北山口镇东南部,景点,自然风光,113.027176,34.711082
世博会河南纪念馆,河南,郑州,郑州,0371,,郑东新区CBD,商务外环路8号世博大厦1层,景点,纪念馆,113.718262,34.772942
太室阙,河南,郑州,登封市,0371,62872569,登封市其他,颍河路,景点,古代遗迹,113.074303,34.45055
新通桥游园,河南,郑州,郑州,0371,,金水区,金水路与文化路交叉口,景点,城市公园,113.667938,34.764687
薛店镇薛集村文化大院,河南,郑州,新郑市,0371,,新郑机场,常牛路常刘中心社区西南侧约210米,景点,展览馆,113.796165,34.472248
永定陵,河南,郑州,巩义市,0371,,巩义市其他,蔡庄北1公里,景点,古代遗迹,112.980652,34.703178
竹园,河南,郑州,郑州,0371,,科学大道,翠竹街与银屏路交叉口西150米,景点,公园/广场,113.556679,34.817986
自然博物馆,河南,郑州,郑州,0371,,北大学城,文化路与英才街郑州师范学院西门院内,景点,博物馆,113.650398,34.861549
枫林旅行社,河南,郑州,郑州,0371,186****0517,国贸360,国际企业中心c座,景点,旅行社,113.67623,34.78615
回郭镇户外旅游百事通,河南,郑州,巩义市,0371,64250636,回郭镇,桥,景点,旅行社,112.865708,34.687328
启明广场,河南,郑州,郑州,0371,,经开区,明湖街道经济开发区明湖街道航海路与朝凤路南100米,景点,广场,113.732269,34.720306
票粉网,河南,郑州,郑州,0371,63380258;63380259,大石桥/体育场,商务外环18号,景点,旅行社,113.66671,34.771069
华海旅行社,河南,郑州,郑州,0371,189****8398,冉屯路/五龙口,秦岭路冉屯路晶华城三期,景点,旅行社,113.605963,34.780471
雁鸣湖恐龙谷凌云温泉,河南,郑州,中牟县,0371,62322777;62322555,雁鸣湖镇,雁鸣湖镇国家农业公园内,景点,温泉,114.080467,34.856651
宋哲宗永泰陵,河南,郑州,巩义市,0371,,巩义市其他,近郊人民东路,景点,古代遗迹,112.913879,34.652756
穴道墓,河南,郑州,新密市,0371,,新密市其他,未来大道,景点,古代遗迹,113.336266,34.514263
郑庄公冢,河南,郑州,新密市,0371,,新密市其他,尚庄村东南,景点,古代遗迹,113.627556,34.458817
河南中州国际旅行社,河南,郑州,郑州,0371,86165811,大石桥/体育场,大石桥街道国奥大厦1层,景点,旅行社,113.666519,34.76733
康辉国际旅行社,河南,郑州,郑州,0371,53363368,东风路,东风路与南阳路交叉口天旺广场,景点,旅行社,113.636292,34.795525
清水湾假日酒店,河南,郑州,郑州,0371,56763333;56773333,二七区,南三环行云路交叉口南100米路东（近万客来和锦荣轻纺城对面）,景点,温泉,113.648867,34.696777
中国旅行社,河南,郑州,郑州,0371,88888456,人民路/紫荆山,紫荆山路1号紫荆商务1118室,景点,旅行社,113.681702,34.762745
鸡冠山,河南,郑州,荥阳市,0371,,荥阳市其他,梅河口市西南方的吉乐乡,景点,自然风光,113.285789,34.626045
大风车3D科技艺术展览中心,河南,郑州,郑州,0371,66222219,火车站/二七广场,铭功路147号人民公园西门内,景点,科技馆,113.660599,34.762352
豫中旅国际旅行社,河南,郑州,郑州,0371,133****8613,二七万达,大学路航海路交叉口二七万达12B座1736室,景点,旅行社,113.643661,34.717979
河南中州国际旅行社,河南,郑州,郑州,0371,63320237;181****6209,碧沙岗,嵩山路与建设路交叉口天龙大厦10楼1002B室,景点,旅行社,113.627824,34.750224
河南旅游百事通旅行社方圆经纬店,河南,郑州,郑州,0371,56690707,碧沙岗,棉纺路与桐柏路交叉口向东200米方圆经纬,景点,旅行社,113.617676,34.747704
油画的世界,河南,郑州,郑州,0371,85512731,经开区,经南三路9号院,景点,展览馆,113.74079,34.71696
济钢温泉度假村,河南,郑州,郑州,0371,135****2112,人民路/紫荆山,紫金山路东明路,景点,温泉,113.683434,34.758205
榆林云岩寺,河南,郑州,郑州,0371,,经三路沿线,紫金山路,景点,宗教,113.689814,34.796021
咸阳唐家民居民俗博物馆,河南,郑州,郑州,0371,135****2112,经三路沿线,紫金山路东明路,景点,博物馆,113.689964,34.796204
宝鸡大唐秦王陵博物馆,河南,郑州,郑州,0371,135****2112,经三路沿线,紫金山路东明路,景点,博物馆,113.689965,34.796155
河南海外旅游有限公司红专路营业网点,河南,郑州,郑州,0371,158****1080,经三路沿线,丰产路街道红专路与政六街交叉口西南角荣华商务7楼720室,景点,旅行社,113.682553,34.781453
河南中国旅行社,河南,郑州,郑州,0371,88881677,升龙广场,大学路与政通路向西200米升龙国际商业中心A区美食街三楼,景点,旅行社,113.640491,34.725725
华海旅行社,河南,郑州,郑州,0371,132****1430,郑铁体育中心,大学北路桃园路丹尼斯,景点,旅行社,113.64375,34.739004
河南省中国旅行社有限公司,河南,郑州,郑州,0371,65811111,金水路/省政府,花园路1号省人民会堂大门口,景点,旅行社,113.682641,34.764581
郑风生态牡丹园,河南,郑州,中牟县,0371,65727711;65727377,白沙镇,前程办事处凤栖路,景点,植物园,113.90683,34.712872
大自然温泉酒店,河南,郑州,郑州,0371,69110000;67825555,陈寨/张家村,文化路与三全路交叉口北800米,景点,温泉,113.654142,34.839502
旅游百事通,河南,郑州,郑州,0371,63355558,人民路/紫荆山,紫荆山路与金水路交叉口紫荆山商务楼7楼701,景点,旅行社,113.682701,34.764151
中青国际旅行社,河南,郑州,郑州,0371,53376993;4009668119,大石桥/体育场,大石桥街道二七万达写字楼12A座11层1114室,景点,旅行社,113.654879,34.765149
海外旅游有限公司,河南,郑州,郑州,0371,56783788;56785037,西大街,文化路任寨北街交叉口文化嘉园商务楼16楼1603室,景点,旅行社,113.68174,34.755383
郑州南环公园,河南,郑州,郑州,0371,,二七区,南四环与大学南路交叉口东北角,景点,城市公园,113.647476,34.666557
河南海外旅行社,河南,郑州,郑州,0371,134****7383,冉屯路/五龙口,煤仓北街5号,景点,旅行社,113.616531,34.772476
裴李岗村李氏祠堂,河南,郑州,新郑市,0371,,新郑市其他,X029与Y008交叉口西南方向160米,景点,人文古迹,113.659391,34.435861
中国旅行社总社河南有限公司,河南,郑州,郑州,0371,155****3770,郑东新区CBD,黄河南路与熊耳河路交叉口,景点,旅行社,113.745113,34.769273
河南中青国际旅行社有限公司,河南,郑州,郑州,0371,55082702,曼哈顿广场/英协路,金水路226号14层1406号,景点,旅行社,113.718086,34.762876
青屏广场,河南,郑州,新密市,0371,,青屏广场,西大街与雪花街交叉口,景点,广场,113.367989,34.535427
河南郑旅国际旅游（集团）有限公司,河南,郑州,郑州,0371,67979768,国贸360,农业路经五路交叉口西20米路南,景点,旅行社,113.676894,34.786446
天宇旅游,河南,郑州,郑州,0371,65831999,金水路/省政府,紫荆山金水路交叉口河南饭店南门口,景点,旅行社,113.681374,34.764301
康辉国际旅行社,河南,郑州,郑州,0371,55331816,二七万达,大学路航海路交叉口二七万达2号院,景点,旅行社,113.643501,34.717724
行者无疆俱乐部-旅游百事通,河南,郑州,郑州,0371,63461848;180****6986,橄榄城,南三环与连云路交叉口东南角,景点,旅行社,113.671532,34.697762
火车东站西广场,河南,郑州,郑州,0371,,郑州东站,心怡路,景点,公园/广场,113.775047,34.75898
蓝色海岸国际温泉酒店,河南,郑州,中牟县,0371,60862999;60862998,白沙镇,白沙镇小雍庄,景点,温泉,113.855333,34.738208
美途旅游运营机构,河南,郑州,郑州,0371,53797727,新世界百货,紫荆山路商城路向北100米路东阳光铭座A座2203室,景点,旅行社,113.682377,34.755564
河南海外旅行社,河南,郑州,郑州,0371,63718128;135****7546,中原万达,中原中路万隆广场7层,景点,旅行社,113.59034,34.747747
中州国际旅行社,河南,郑州,郑州,0371,86112705,冉屯路/五龙口,桐柏北路与西站路交叉口116号5单元西户,景点,旅行社,113.615716,34.76773
海外国际旅行社,河南,郑州,郑州,0371,150****7550,火车站/二七广场,人民路天然商厦2楼,景点,旅行社,113.667092,34.753272
中青旅游,河南,郑州,郑州,0371,135****5916,碧沙岗,中原路嵩山路交叉口绿城广场管理处,景点,旅行社,113.62906,34.74576
河南和信国际旅行社,河南,郑州,郑州,0371,63367226,经三路沿线,经三路广电南路格林融熙国际7楼（近广电南路）,景点,旅行社,113.693055,34.805327
鑫德生态园,河南,郑州,荥阳市,0371,,海龙时代广场,索河东路,景点,植物园,113.41809,34.787441
鑫隆温泉酒店,河南,郑州,郑州,0371,86532222,长江中路沿线,兴华南街与南三环交叉口南100米路东,景点,温泉,113.633316,34.69733
源博旅行社,河南,郑州,郑州,0371,67613000;67100139,碧沙岗,建设路与百花路交叉口西北角鑫苑国际广场1号楼543室,景点,旅行社,113.623245,34.755608
康辉国际旅行社,河南,郑州,郑州,0371,63979969;180****6869,儿童公园/凯旋门,汝河路与伏牛路交叉口,景点,旅行社,113.610186,34.736756
中州国际旅行社,河南,郑州,郑州,0371,86601700,中原万达,中原路华山路中原万达广场写字楼B座一楼大厅,景点,旅行社,113.601041,34.747011
龙湖国际温泉酒店,河南,郑州,新郑市,0371,69975888,龙湖广场/升达大学,龙湖镇泰山路鸿鹄路交叉口东100米路北（紧邻阿勇美食）,景点,温泉,113.69739,34.6008
中青国际旅行社有限公司,河南,郑州,郑州,0371,189****9223,国贸360,农业路政七街省汇中心B座2603室,景点,旅行社,113.687703,34.786823
炎黄颂钧瓷艺术馆,河南,郑州,郑州,0371,,金水路/省政府,纬二路与政二街交叉口,景点,美术馆,113.684715,34.767788
鸿雁国际旅行社,河南,郑州,新密市,0371,151****2551;186****3232,新密市政府,溱水路与北密新路交叉口向东18米路南,景点,旅行社,113.397041,34.541706
旅视旅游,河南,郑州,郑州,0371,65938013;65938011,国贸360,花园路丰产路交叉口国贸A座806室,景点,旅行社,113.681534,34.784903
田园牧歌生态园,河南,郑州,巩义市,0371,138****2576,巩义市其他,孝义街道办西沟村白沙滩,景点,植物园,112.971411,34.77608
金凤凰青岛啤酒广场,河南,郑州,巩义市,0371,131****4938,巩义市其他,陇海路与大学路交叉口向西300米路北,景点,公园/广场,112.988617,34.771984
河南中青国际旅行社有限公司,河南,郑州,郑州,0371,88887181;133****1001,汽车东站,农业路与天明路交叉口向南200米路西,景点,旅行社,113.759066,34.748594
丰源旅行社,河南,郑州,郑州,0371,153****9786,曼哈顿广场/英协路,金水路与玉凤路交叉口西400米曼哈顿广场,景点,旅行社,113.707571,34.762086
康辉旅行社,河南,郑州,郑州,0371,181****8161,大石桥/体育场,文化路与优胜北路交叉口西北角,景点,旅行社,113.66593,34.76932
康辉国际旅行社,河南,郑州,郑州,0371,182****5524,帝湖,汝河路街道帝湖花园西王府,景点,旅行社,113.61964,34.718778
盛世天泉温泉酒店,河南,郑州,郑州,0371,66655066,郑东新区,金水东路与心怡路交叉口向北200米,景点,温泉,113.771075,34.773692
河南海外旅行社,河南,郑州,郑州,0371,134****7383;150****5481,冉屯路/五龙口,西湖春天小区38号楼3单元6楼165号,景点,旅行社,113.609795,34.783031
中州国际旅行社,河南,郑州,郑州,0371,55179518,二七万达,大学路航海路二七万达13号楼1917室,景点,旅行社,113.643518,34.717359
康辉旅行社,河南,郑州,郑州,0371,66293301;66293302,国贸360,农业路与花园路交叉口向西200米,景点,旅行社,113.676217,34.786065
康辉旅行社,河南,郑州,郑州,0371,66293301;66293302,体育公园,东风路与商鼎路交叉口恒天国际大厦D座403室,景点,旅行社,113.763211,34.756425
meebo野孩子主题公园,河南,郑州,中牟县,0371,,白沙镇,商都路与恒通路交叉口,景点,游乐场,113.894096,34.730606
中国青年旅行社郑州市裕鸿门市部,河南,郑州,郑州,0371,86151783,新世界百货,城东路街道紫荆山路57号裕鸿国际A座,景点,旅行社,113.682915,34.753485
中青国际旅行社,河南,郑州,郑州,0371,69118136;158****8771,升龙广场,政通路交通路升龙世纪花园2区5号楼2411室,景点,旅行社,113.643402,34.718304
郑州方特梦幻王国,河南,郑州,中牟县,0371,56928200,刘集镇,郑开大道与人文路交汇处南2公里,景点,主题乐园,113.925858,34.766876
河南中国旅行社,河南,郑州,郑州,0371,86556290,鑫苑鑫都汇,陇海中路庆丰街鑫苑现代城负一楼华润万家超市内,景点,旅行社,113.652121,34.736051
旺角温泉假日酒店,河南,郑州,郑州,0371,55099333,北大学城,香山路与金桥路交叉口,景点,温泉,113.667135,34.874611
新城公园一号,河南,郑州,郑州,0371,,儿童公园/凯旋门,绿东村街道工人路与汝河路交叉口向南100米路东,景点,公园/广场,113.61264,34.733185
儿童公园,河南,郑州,郑州,0371,,儿童公园/凯旋门,绿东村街道陇海西路与桐柏南路交汇处向西250米路南,景点,公园/广场,113.610794,34.734974
曲梁水库,河南,郑州,新密市,0371,,新密市其他,曲梁镇曲梁水库花园,景点,更多景点/周边游,113.601019,34.522029
纳帕美景庄园,河南,郑州,郑州,0371,,惠济区,老鸦陈街道北四环与西四环交会处,景点,更多景点/周边游,113.5717,34.862932
河南华人国际旅行社,河南,郑州,中牟县,0371,60210760,潘安公园,府前路与永乐路交叉口南100米,景点,旅行社,114.021857,34.713284
巩义青龙山,河南,郑州,巩义市,0371,,巩义市其他,大峪沟镇民权村,景点,自然风光,113.023443,34.688653
旅游百事通汝河路汝河小区门市部,河南,郑州,郑州,0371,68611278;153****6698,儿童公园/凯旋门,桐柏路与汝河路交叉口向西200米路南,景点,旅行社,113.611432,34.732402
冒险家,河南,郑州,郑州,0371,,火车站/二七广场,德化无限城6楼626-633室,景点,主题公园,113.665882,34.749902
草坪广场,河南,郑州,郑州,0371,63799936,黄河游览区,黄河南岸86号思念果岭国际社区,景点,更多景点/周边游,113.518847,34.912215
中森林语美墅,河南,郑州,荥阳市,0371,,荥阳市其他,荥泽大道201-41号正南方向130米,景点,展览馆,113.432747,34.777416
易谷河南文化艺术网商园,河南,郑州,郑州,0371,,省体中心/裕华广场,北三环南阳路向西路北,景点,创意园区,113.615555,34.812729
马渡乡村公园,河南,郑州,郑州,0371,,郑东新区,龙子湖办事处马渡村,景点,公园/广场,113.802521,34.869473
奥伦达部落五云山,河南,郑州,荥阳市,0371,67312222,荥阳市其他,城关乡中原西路五云山大道166号,景点,现代小镇,113.298866,34.751965
居易・世界观,河南,郑州,荥阳市,0371,64860333,奥帕拉拉水公园,豫龙镇中原西路与飞龙路交叉口南150米,景点,人文古迹,113.43788,34.747692
中国旅行社总社,河南,郑州,郑州,0371,66868881,儿童公园/凯旋门,王府井百货,景点,旅行社,113.607901,34.73272
鑫荣・中央金地服装街,河南,郑州,中牟县,0371,,豫康新城,郑港七路鑫荣・中央金地公寓东50米,景点,步行街,113.855547,34.562777
碧源月湖公园,河南,郑州,郑州,0371,86638888,北大学城,文化路与开元路交汇处,景点,城市公园,113.637817,34.873264
河南东方国旅,河南,郑州,中牟县,0371,152****8000;153****7755,白沙镇,恒通路与青年路交叉口旁,景点,旅行社,113.896208,34.740768
金地庄园温泉度假中心,河南,郑州,郑州,0371,,郑东新区,花园口镇申庄村黄河大堤北侧,景点,温泉,113.761153,34.889503
魏巍故里,河南,郑州,郑州,0371,,西大街,管城街7-7号西北方向39米,景点,古村古镇,113.677338,34.750523
将军寨,河南,郑州,巩义市,0371,,巩义市其他,郑州巩义公川村,景点,古村古镇,113.018959,34.55191
旅游百事通,河南,郑州,郑州,0371,133****7889,东建材,商鼎路与十里铺街交叉口向南200米路东,景点,旅行社,113.730153,34.753133
清江温泉,河南,郑州,郑州,0371,,普罗旺世/庙李,信基路与索凌路交汇处东南60米,景点,温泉,113.639494,34.815371
龙泉国际滑雪场,河南,郑州,新郑市,0371,150****0301,新郑市其他,龙泉湿地公园内,景点,滑雪场,113.604084,34.577502
塔林,河南,郑州,登封市,0371,62745599,少林寺风景区,少林寺,景点,古代遗迹,112.93766,34.503178
连天峰,河南,郑州,登封市,0371,,登封市其他,室山下嵩山少林景区三皇寨景区内,景点,自然景观,112.933449,34.470474
启母阙,河南,郑州,登封市,0371,,嵩山一号,太室路与少室路交叉口北50米嵩阳景区,景点,人文古迹,113.047862,34.473055
中佛殿,河南,郑州,登封市,0371,,登封市其他,市区西北约11公里处的太室山西麓永泰寺内,景点,宗教,112.979317,34.52026
密县城隍庙,河南,郑州,新密市,0371,,新密市其他,密县西街十字街西二十米处,景点,宗教,113.367767,34.513268
普贤殿,河南,郑州,登封市,0371,,少林寺风景区,西北15公里处的嵩山少室山下嵩山少林风景区少林寺内,景点,景点/周边游,112.940819,34.507717
恒泰生态园,河南,郑州,登封市,0371,69051999,登封市其他,中岳办事处东十里村,景点,植物园,113.094589,34.440933
达摩院,河南,郑州,登封市,0371,62878171,登封市其他,G207,景点,景点/周边游,112.980324,34.508301
大风车3d科技体验馆,河南,郑州,郑州,0371,66229168,大石桥/体育场,5D影院人民公园西门内,景点,科技馆,113.660576,34.762348
蓝天假日旅行社,河南,郑州,郑州,0371,,西大街,紫金山路72号4号楼4层4号,景点,旅行社,113.683173,34.748579
六祖堂,河南,郑州,登封市,0371,,少林寺风景区,207国道嵩山少林风景区少林寺内,景点,宗教,112.941154,34.506535
天一航空主题飞行基地,河南,郑州,郑州,0371,4009990925,中原区,科学大道与白松路交叉口北1公里,景点,更多景点/周边游,113.490466,34.815096
旅游百事通旅行社,河南,郑州,新郑市,0371,,炎黄广场,洧水路,景点,旅行社,113.744876,34.393145
旅游百事通no.3130,河南,郑州,郑州,0371,86038689,锦艺城/王府井,棉纺东路66号鑫苑国际城市花园商业步行街8号,景点,旅行社,113.636601,34.756061
永安陵,河南,郑州,巩义市,0371,,巩义市其他,永安南路,景点,古代遗迹,112.968147,34.662769
中原文化创意广场,河南,郑州,郑州,0371,,东建材,七里河北路与农业南路交叉口东北150米,景点,观光街区,113.757073,34.761544
宋神宗永裕陵,河南,郑州,巩义市,0371,,巩义市其他,（宋陵）,景点,古代遗迹,112.921593,34.648502
世界行旅行社,河南,郑州,郑州,0371,159****1751,建文新世界,任砦北街1号2号楼6单元10层156号,景点,旅行社,113.668388,34.770794
郑州樱桃沟水上乐园,河南,郑州,郑州,0371,136****1017,二七区,候寨乡樱桃沟村,景点,水上乐园,113.589424,34.621334
中国旅行社总社河南有限公司,河南,郑州,新密市,0371,56786958,新密市其他,兴华南路东半坡门市,景点,旅行社,113.581898,34.501333
康辉国际旅行社国贸广场营业部,河南,郑州,郑州,0371,66372318;66370115,国贸360,丰产路街道花园路农业路国贸新领地4号楼2单元1103室,景点,旅行社,113.682511,34.785301
河南康辉国际旅行社郑州文化路第二门市部,河南,郑州,郑州,0371,63861571;187****5406,国贸360,文化路街道丰产路与文化路交叉口东南角世纪城东塔12层B座,景点,旅行社,113.672351,34.781811
东运河游船观光,河南,郑州,郑州,0371,,郑东新区CBD,如意湖文化广场旁,景点,城市观光,113.725792,34.775314
鸿雁国际旅行社,河南,郑州,上街区,0371,,铝城公园,登封路14幢B30号,景点,旅行社,113.300809,34.811561
鸿雁国际旅行社,河南,郑州,新郑市,0371,,龙湖广场/升达大学,祥安路龙湖镇文化站附近,景点,旅行社,113.68616,34.604621
景区礼品服务街,河南,郑州,登封市,0371,,少林寺风景区,西北15公里处的嵩山少室山下嵩山少林风景区内,景点,步行街,112.952797,34.51466
凯瑞特国际旅游,河南,郑州,郑州,0371,,高新区,总部企业基地2期71号楼,景点,旅行社,113.56598,34.82027
旅游烹饪系,河南,郑州,郑州,0371,,龙子湖校区,周始路与知行路交叉口南150米,景点,旅行社,113.792881,34.794631
金城国际旅行社,河南,郑州,新密市,0371,,新密市政府,溱水路和新惠街的交叉口附近,景点,旅行社,113.397871,34.54175
天然宝艺术馆,河南,郑州,郑州,0371,,二七万达,嵩山南路249-8号,景点,美术馆,113.628487,34.714573
枫林国际旅行社,河南,郑州,郑州,0371,,沙门/汽配,花园路国基路居易摩根中心4号楼北单元1007室,景点,旅行社,113.682461,34.818519
林州市太行大峡谷旅行社有限公司,河南,郑州,郑州,0371,,经三路沿线,红专路与东明路交叉索克大厦312号大峡谷旅行社,景点,旅行社,113.699671,34.779571
大自然,河南,郑州,郑州,0371,,中原万达,秦岭路岗坡阳光新城东北角,景点,旅行社,113.607076,34.754996
中国旅行社,河南,郑州,登封市,0371,,登封市其他,中岳大街中段北100米,景点,旅行社,113.046027,34.458615
河南大宇旅行社,河南,郑州,郑州,0371,188****6015,碧沙岗,嵩山路建设路向西100米路南泰隆大厦1710室,景点,旅行社,113.625789,34.754522
康辉国际旅行社,河南,郑州,郑州,0371,,汽车东站,东风南路与商都路交叉口向南500米路西鑫苑世纪东城,景点,旅行社,113.760663,34.739238
月光天鹅湖艺术中心,河南,郑州,新密市,0371,62940111;62940222,新密市政府,东大街与农业路交叉口西南角金霖商厦5楼,景点,美术馆,113.38726,34.536194
猩猩馆,河南,郑州,郑州,0371,,国贸360,花园路103号,景点,动物园,113.685815,34.787965
旅游百事通,河南,郑州,郑州,0371,135****5950,帝湖,桐柏南路与宏河路交汇口向东100米路南,景点,旅行社,113.615408,34.724678
康辉旅行社,河南,郑州,郑州,0371,186****6733,大石桥/体育场,新郑龙湖店,景点,旅行社,113.6528,34.76719
康辉国际旅行社,河南,郑州,郑州,0371,63881116,大石桥/体育场,大石桥街道南阳路大石桥SOHO广场A座1409室（南阳路工商银行附近）,景点,旅行社,113.654803,34.76522
河南中州人文纪念园,河南,郑州,郑州,0371,,大石桥/体育场,南阳路315-4号,景点,纪念公园,113.653431,34.767061
康辉旅行社,河南,郑州,郑州,0371,56679955,财院/轻工业学院,东风路与园田路交叉口向东100米路北,景点,旅行社,113.653465,34.799549
河南康辉国际旅行社,河南,郑州,郑州,0371,159****3565,大石桥/体育场,金水路与二七路交叉口向西200米路南兴达通苑4楼122室,景点,旅行社,113.664327,34.763937
文博公园,河南,郑州,郑州,0371,,国贸360,农业路与文博东路交叉口东北角,景点,城市公园,113.674492,34.788342
郑州豫龙滑雪场,河南,郑州,荥阳市,0371,22057997,荥阳市其他,323省道张庄村（黄河彩虹谷内）,景点,滑雪场,113.443132,34.93386
金丝楠博物馆,河南,郑州,郑州,0371,,经开区,河南省郑州市经济开发区经开第三大街与经北一路交叉口向东50米,景点,博物馆,113.748858,34.723373
海外国际旅行社有限公司,河南,郑州,郑州,0371,88889990,东风路,南阳路226号富田大厦815室,景点,旅行社,113.635433,34.795063
中国国际旅行社,河南,郑州,郑州,0371,65852318,国贸360,农业路豫博大厦西塔16楼,景点,旅行社,113.683573,34.786153
华商温泉国际酒店,河南,郑州,新郑市,0371,62569727,龙湖广场/升达大学,龙湖镇107国道与双湖大道交叉口向南100米路东,景点,温泉,113.68396,34.607788
民族抗战英雄郭兰纪念馆,河南,郑州,新郑市,0371,132****6101,新郑市其他,八千乡楼刘村,景点,纪念馆,113.837135,34.334576
旅游百事通,河南,郑州,郑州,0371,151****1588,东风路,东风路与南阳路交叉口向西200米路北,景点,旅行社,113.631422,34.800352
郑州梵高星空错觉艺术馆,河南,郑州,郑州,0371,156****9334,大上海城,东太康路28号大上海城购物中心4楼,景点,展览馆,113.66959,34.755829
娘娘庙,河南,郑州,新郑市,0371,62651160,新郑市其他,中国河南省郑州市新郑市辛店镇刘弯村,景点,宗教,113.812805,34.592945
凯撒旅游,河南,郑州,郑州,0371,86565950;4006066666,万象城,民主路10号华润万象城1层,景点,旅行社,113.662262,34.754562
银基黄帝宫御温泉,河南,郑州,新密市,0371,56516820;4000178178,新密市其他,银基国际旅游度假区内,景点,温泉,113.549904,34.481838
雁鸣蟹岛亲子戏雪场,河南,郑州,中牟县,0371,185****3050,中牟县其他,雁鸣湖镇小店村雁鸣蟹岛西门,景点,滑雪场,114.075996,34.822227
西泰山村千稼集,河南,郑州,新郑市,0371,85901916;85901919,新郑市其他,会盟大道与泰山路交叉口西南角,景点,民俗文化村,113.640198,34.579342
乐游户外运动俱乐部,河南,郑州,郑州,0371,87533789,火车站/二七广场,紫荆山南路街道紫荆山路金城街棕榈泉18号楼1872室,景点,旅行社,113.680437,34.725021
滨河温泉假日酒店,河南,郑州,郑州,0371,85962666,经开区,南三环与经开区第十五大街交叉口向西200米路南,景点,温泉,113.789658,34.702549
滨黄河森林公园,河南,郑州,郑州,0371,,黄河游览区,黄河大堤南,景点,森林公园,113.561401,34.907673
天健湖公园,河南,郑州,郑州,0371,,中原区,沟赵乡枫香西街与七叶路交叉口路北,景点,城市公园,113.482742,34.816402
科教公园,河南,郑州,郑州,0371,,国家森林公园/北龙湖,中州大道杨金路131号公交车河村站,景点,公园/广场,113.745728,34.845119
凤河公园,河南,郑州,中牟县,0371,,白沙镇,南三环以北、故城南路以南、花马东街以西,景点,文化公园,113.895119,34.702507
郑新公园,河南,郑州,郑州,0371,,黄河科技大学城,南三环与新郑路交叉口南北两侧,景点,城市公园,113.689857,34.697811
西运河公园,河南,郑州,郑州,0371,,郑东新区CBD,渠北路以北、众意路以西的西运河两侧,景点,文化公园,113.717117,34.77956
锦和公园,河南,郑州,郑州,0371,,高新区,双桥办事处连霍高速与西四环交叉口西南角,景点,城市公园,113.525101,34.840469
纵横旅行社,河南,郑州,郑州,0371,53303662,火车站/二七广场,郑州大酒店12楼,景点,旅行社,113.662567,34.749152
康辉旅行社,河南,郑州,郑州,0371,67727888;159****1998,郑东新区,金水路与心怡路交叉口晖达新领地小区,景点,旅行社,113.772536,34.772535
青龙温泉大酒店,河南,郑州,巩义市,0371,64115588;158****8347,汽车站,北山口镇杜甫向南500米,景点,温泉,112.998253,34.732674
郑州市绿城广场,河南,郑州,郑州,0371,,郑州大学,中原路嵩山路口,景点,广场,113.630554,34.746262
青年公园,河南,郑州,新郑市,0371,,豫康新城,郑港办事处郑港十路与郑港九路中间,景点,公园/广场,113.843842,34.560297
京襄城遗址生态园,河南,郑州,荥阳市,0371,,荥阳市其他,商隐路西200米,景点,古代遗迹,113.443192,34.723579
上街人民广场,河南,郑州,上街区,0371,,铝城公园,中心路与廿峡线交叉口南150米,景点,广场,113.308594,34.801624
艺术中心艺术馆,河南,郑州,郑州,0371,69092262,郑东新区CBD,如意湖街道CBD商务内环1号,景点,美术馆,113.725151,34.770512
河南省书画院,河南,郑州,郑州,0371,66253143,大上海城,二七路55号,景点,美术馆,113.667206,34.757851
华夏美术馆,河南,郑州,郑州,0371,65865573,人民路/紫荆山,经五路1号附近,景点,美术馆,113.677475,34.764656
文化馆,河南,郑州,新密市,0371,69822466,新密市政府,溱水路-郑州新密市溱水路,景点,展览馆,113.38694,34.542629
云南丽江和西双版纳五日游,河南,郑州,郑州,0371,135****2112,新世界百货,东里路,景点,旅行社,113.682342,34.758245
山水假日旅行社,河南,郑州,荥阳市,0371,64984777,荥阳市其他,新田大道,景点,旅行社,113.447008,34.673338
天主堂,河南,郑州,郑州,0371,66229744,西大街,铭功路51号,景点,宗教,113.659798,34.754238
莲花山旅游开发有限公司,河南,郑州,郑州,0371,56726661,经三路沿线,经三路26号思达数码大厦14楼,景点,旅行社,113.692005,34.780573
世纪行旅行社有限公司,河南,郑州,郑州,0371,65582330,曼哈顿广场/英协路,金水路与英协路交口盛润白宫14楼,景点,旅行社,113.719375,34.761555
峻极宫,河南,郑州,登封市,0371,62850819,登封市其他,嵩阳景区,景点,宗教,113.040466,34.499825
北京酷旅,河南,郑州,郑州,0371,150****7001,新世界百货,紫荆山路5号院人民银行家属院1号楼18层1803,景点,旅行社,113.681731,34.758733
永厚陵,河南,郑州,巩义市,0371,,宋陵公园,新华路,景点,古代遗迹,112.978844,34.745361
山水温泉,河南,郑州,郑州,0371,63707777;88886599,东风路,东风路与天明路交叉口南100米路东,景点,温泉,113.644455,34.79755
郑州李湾水库,河南,郑州,新密市,0371,,新密市其他,牛店镇,景点,现代建筑,113.217667,34.504459
渔夫堂,河南,郑州,新郑市,0371,,西亚斯大学,渔夫子路,景点,宗教,113.766685,34.394257
郑州幽盛寺,河南,郑州,新郑市,0371,,新郑市其他,具茨山国家级森林公园323省道,景点,宗教,113.526054,34.354552
巩义市石河道公园,河南,郑州,巩义市,0371,,丹尼斯商场,新兴路,景点,公园/广场,113.002037,34.759727
郑州楚楼水库,河南,郑州,荥阳市,0371,,荥阳市其他,万山路,景点,现代建筑,113.374442,34.76579
郑州曹马沟水库,河南,郑州,新密市,0371,,新密市其他,刘寨镇振东路,景点,自然景观,113.570309,34.483309
郑州罗垌水库,河南,郑州,新郑市,0371,,龙湖广场/升达大学,泰山路鸿鹄路龙泊圣地,景点,现代建筑,113.700317,34.596786
千玺塔,河南,郑州,郑州,0371,,曼哈顿广场/英协路,如意湖街道商务内环路3号楼,景点,现代建筑,113.722214,34.768974
嵩阳美容中心,河南,郑州,登封市,0371,,嵩阳公园,嵩阳街道嵩阳路200号,景点,美术馆,113.031792,34.463287
旅游百事通,河南,郑州,中牟县,0371,150****0505,中牟县其他,经开区祥云办事处祥符卢家联华超市,景点,旅行社,113.839263,34.638533
托马斯票务,河南,郑州,郑州,0371,177****1836,金水区,金水路二七路交叉口向西100米,景点,旅行社,113.664909,34.764102
思念果岭悦温泉,河南,郑州,郑州,0371,63626666;56029755,黄河游览区,黄河南岸86号思念果岭国际社区,景点,温泉,113.515961,34.913162
汉江水会温泉酒店,河南,郑州,郑州,0371,56689999,帝湖,嵩山路与汉江路交叉口西300米,景点,温泉,113.623207,34.714615
汉阙,河南,郑州,新郑市,0371,,轩辕故里,轩辕路黄帝故里景区内,景点,人文古迹,113.727379,34.399845
长寿山-森林公园,河南,郑州,巩义市,0371,,巩义市其他,012乡道东100米,景点,森林公园,113.142342,34.697739
良库工舍,河南,郑州,郑州,0371,,惠济区,长兴路街道南阳路北三环交叉口路北向西过涵洞200米向右拐,景点,创意园区,113.615593,34.813637
极限广告设备郑州展示中心,河南,郑州,郑州,0371,187****2980,东建材,商都路5号中力国际广告材料市场C区9排,景点,展览馆,113.73452,34.743942
中牟雁鸣蟹岛,河南,郑州,中牟县,0371,56529966,中牟县其他,雁鸣湖镇小店村,景点,更多景点/周边游,114.080681,34.824833
郑氏兄弟调味品门市部,河南,郑州,新郑市,0371,63202386,西亚斯大学,渔夫子路264号附近,景点,旅行社,113.765236,34.387544
孝义街道办事处南地村文化大院,河南,郑州,巩义市,0371,,巩义市其他,南地街巩义市孝义白沙小学东侧约210米,景点,展览馆,112.98381,34.770916
石船,河南,郑州,登封市,0371,150****6692,登封市其他,太室路与少室路交叉口北50米嵩阳景区内,景点,更多景点/周边游,113.040421,34.49992
金水河源旅游度假区,河南,郑州,郑州,0371,65598888,二七区,西胡同村,景点,更多景点/周边游,113.603424,34.638733
淘宝城美丽小铺,河南,郑州,巩义市,0371,188****2977,星月时代广场,新兴路与建设路交叉路口往西约100米,景点,步行街,112.987068,34.755428
曹记夜市,河南,郑州,郑州,0371,,正弘中心,文博西路与科源路交叉口东30米路北,景点,夜市,113.670776,34.794544
伏羲大峡谷,河南,郑州,新密市,0371,69226658,新密市其他,尖山管委钟沟村,景点,自然风光,113.197144,34.608063
茶店文化广场,河南,郑州,巩义市,0371,64184617;156****9027,巩义市其他,新米路伟业装饰,景点,公园/广场,113.213776,34.689068
旅游百事通,河南,郑州,郑州,0371,55667228,裕达国贸,凌云路与商城东路交叉口旁,景点,旅行社,113.617269,34.747619
中国青年旅行社,河南,郑州,郑州,0371,68210096,金水区,沙口路东风路铁道东风花园1号楼2单元1303室,景点,旅行社,113.628833,34.794303
锦艺城海洋馆,河南,郑州,郑州,0371,67690888,锦艺城/王府井,棉纺路与秦岭路锦艺城购物中心C区负1楼,景点,海洋馆,113.606628,34.762878
康辉旅游,河南,郑州,郑州,0371,150****2397,富田太阳城,未来路855号2号楼1-2层15号,景点,旅行社,113.706484,34.723364
大唐国旅,河南,郑州,中牟县,0371,135****7312,刘集镇,象湖南路与芦医庙大街交叉路口往东约100米,景点,旅行社,113.852526,34.771859
河南省海外旅游有限公司,河南,郑州,郑州,0371,55395159,熙地港/王府井,东风东路如意西路建业总部港ab座之间,景点,旅行社,113.731837,34.787437
传奇国际旅行社,河南,郑州,荥阳市,0371,150****1197,荥阳市其他,洞林路54号,景点,旅行社,113.451887,34.673959
中港国旅,河南,郑州,郑州,0371,,长江中路沿线,长江路与大学路交叉口向东500米路南,景点,旅行社,113.647664,34.709624
银基国际旅游度假区,河南,郑州,新密市,0371,67006800;4000178178,新密市其他,刘寨镇大鸿路1号银基国际旅游度假区,景点,主题乐园,113.552704,34.476532
桥头夜市,河南,郑州,新密市,0371,69962218,新密市政府,新华路街道南密新路618号,景点,夜市,113.400703,34.536839
河南省中国旅行社集团,河南,郑州,郑州,0371,,汽车东站,商都路与中兴南路交汇处建正・东方中心A座17层1702室,景点,旅行社,113.777452,34.744962
马渡水上乐园,河南,郑州,郑州,0371,,金水区,兴达路马渡村鸿苑路与北四环交叉口路北,景点,水上乐园,113.805931,34.861221
民族文化广场,河南,郑州,郑州,0371,,新世界百货,东大街与管城街交叉口东100米,景点,广场,113.677452,34.750469
大玉米58楼城市观光厅,河南,郑州,郑州,0371,68895858,郑东新区CBD,郑东新区CBD如意湖畔大玉米楼58层,景点,高空观景,113.727318,34.770992
织机洞,河南,郑州,荥阳市,0371,,荥阳市其他,S232,景点,古代遗迹,113.330322,34.643051
竹林寺,河南,郑州,荥阳市,0371,151****2688,荥阳市其他,锦川西路附近,景点,宗教,113.241051,34.781116
秀水洗浴,河南,郑州,郑州,0371,68282222,火车站/二七广场,陇海路与京广路交汇处东100米路北,景点,更多景点/周边游,113.658824,34.736834
大熊山仙人谷,河南,郑州,登封市,0371,62925666,登封市其他,徐庄镇柳泉村,景点,自然风光,113.143471,34.290375
郑州商城游园,河南,郑州,郑州,0371,,西大街,北顺城街与商城路交叉口北100米,景点,公园/广场,113.671974,34.755524
万达金街,河南,郑州,郑州,0371,,正弘中心,文化路街道花园路与农科路交叉口向西500米万达中心金街2-203室,景点,步行街,113.677177,34.792561
邙山生态园区,河南,郑州,郑州,0371,,黄河游览区,邙岭大道东50米,景点,动植物园,113.530327,34.926731
河南新月广场,河南,郑州,郑州,0371,66216788,南三环汽配大世界,文治路金岱工程机械园南50米,景点,公园/广场,113.720596,34.6926
郑州金海岸旅行社,河南,郑州,新密市,0371,,青屏广场,嵩山大道与气象街交叉口向东9,景点,旅行社,113.376577,34.531714
中信国旅,河南,郑州,中牟县,0371,,豫康新城,郑港七路郑港六街爱购超市2楼,景点,旅行社,113.863237,34.564686
长城艺术馆,河南,郑州,郑州,0371,,凤凰城/上悦城,郑汴路127号-5号楼附近,景点,美术馆,113.715485,34.746288
金鸡报晓,河南,郑州,郑州,0371,,火车站/二七广场,一马路郑州邮政大楼东侧约50米,景点,更多景点/周边游,113.664361,34.745181
旅行之家,河南,郑州,郑州,0371,,火车站/二七广场,上元街与钱塘商业街交叉口东南50米敦睦路服装中心,景点,旅行社,113.666904,34.746634
石渠阁美术馆,河南,郑州,郑州,0371,,郑东新区CBD,商务东三街天下收藏文化街B1层,景点,美术馆,113.734351,34.772941
璀璨假期,河南,郑州,郑州,0371,,农科路酒吧街,农业路东16号省汇中心A座21层,景点,旅行社,113.688334,34.786819
大里村,河南,郑州,郑州,0371,,郑州大学新校区,枫杨办事处,景点,古村古镇,113.55558,34.811298
中州盆景园,河南,郑州,郑州,0371,,西元国际广场,工农路27号附近,景点,植物园,113.587547,34.769665
走天涯旅行社,河南,郑州,巩义市,0371,156****1286,巩义市其他,邮电局向西100米,景点,旅行社,112.94603,34.698338
岛屿假期,河南,郑州,郑州,0371,,曼哈顿广场/英协路,金水路288号曼哈顿商业广场A区2层,景点,旅行社,113.70493,34.762239
郑州昌明奶牛科普乐园,河南,郑州,荥阳市,0371,138****1035,荥阳市其他,高村乡全中河阴石榴采摘园南（314省道）,景点,特色乡村,113.356209,34.925961
河南中州盆景文化园,河南,郑州,郑州,0371,157****6576,二七区,宏西路西150米,景点,文化公园,113.529762,34.653851
河南大唐国际旅行社,河南,郑州,荥阳市,0371,,荥阳市其他,三公路与汜河路交叉口,景点,旅行社,113.418004,34.792854
大世界画廊,河南,郑州,郑州,0371,,陈砦,园田路,景点,展览馆,113.653209,34.819051
福田佛堂,河南,郑州,荥阳市,0371,151****7717;155****6616,荥阳站,河阴路与汜河路交叉口往东100米,景点,景点/周边游,113.390526,34.794624
胡抗美艺术馆,河南,郑州,郑州,0371,,龙子湖校区,中兴路北段,景点,美术馆,113.775658,34.772739
郑州市东方翰典文化博物馆,河南,郑州,郑州,0371,66711666,省电视台,福彩路2附近,景点,博物馆,113.698914,34.807976
富禧生态园,河南,郑州,郑州,0371,,中原区,沟赵乡枣陈村门楼,景点,动植物园,113.463029,34.831609
大明展示,河南,郑州,郑州,0371,66883299;132****6388,东建材,中立国际广告材料市场C区5排3号,景点,展览馆,113.733749,34.743969
讲堂,河南,郑州,登封市,0371,,登封市其他,太室路与少室路交叉口北50米嵩阳景区嵩阳书院内,景点,宗教,113.033813,34.480774
陶瓷一条街,河南,郑州,郑州,0371,,普罗旺世/庙李,金杯路与信基路交叉口东150米,景点,步行街,113.630803,34.815228
关虎屯商业街,河南,郑州,郑州,0371,,国贸360,文化路街道经五路19号,景点,步行街,113.679459,34.783581
三磨社区健身广场,河南,郑州,郑州,0371,,中原万达,中原中路177号附近,景点,公园/广场,113.604736,34.746918
未来艺术馆,河南,郑州,郑州,0371,139****7429;186****9761,东建材,东健村北大门向西30米联通西隔壁,景点,美术馆,113.723511,34.74625
博盛国际玻璃艺术馆,河南,郑州,郑州,0371,139****3978,康桥商务广场,裕丰国际酒店用品城a区1030号,景点,美术馆,113.69933,34.741179
李子秋艺术馆,河南,郑州,郑州,0371,,东建材,金领时代附081号,景点,美术馆,113.755211,34.759331
糖果时光展示中心,河南,郑州,郑州,0371,,瑞达路沿线,宏兴街22号附近,景点,展览馆,113.575088,34.789648
善缘佛堂,河南,郑州,新郑市,0371,,新郑市其他,康田路,景点,景点/周边游,113.689323,34.32724
河南新华展览中心,河南,郑州,郑州,0371,,经开区,经北二路35号,景点,展览馆,113.745255,34.72504
中方圆建机展厅,河南,郑州,荥阳市,0371,,荥阳市其他,郑上路北150米附近,景点,展览馆,113.339005,34.804272
百鸟乐岛,河南,郑州,郑州,0371,,火车站/二七广场,陇海东路锦荣商贸城,景点,更多景点/周边游,113.669394,34.741304
康辉国际旅行社有限责任公司,河南,郑州,郑州,0371,130****7713,黄河科技大学城,黄河科技学院南校区,景点,旅行社,113.674664,34.686724
君悦苑花园夜市,河南,郑州,巩义市,0371,158****0337,巩义市其他,石河路东100米,景点,夜市,112.98861,34.772152
探路者嵩顶滑雪度假区,河南,郑州,巩义市,0371,188****7905,巩义市其他,夹津口镇卧龙村,景点,滑雪场,113.003311,34.531368
紫薇生态园,河南,郑州,新郑市,0371,139****7266,新郑机场,008县道东50米,景点,更多景点/周边游,113.808868,34.518639
溱洧苑生态园,河南,郑州,新密市,0371,139****7466,新密市其他,曲梁镇牛角湾村附近,景点,更多景点/周边游,113.602936,34.553867
狼城岗文化健身广场,河南,郑州,中牟县,0371,,中牟县其他,狼城岗派出所旁正东方向100米,景点,公园/广场,114.191414,34.861874
巩义市大峪沟镇二中少年军校,河南,郑州,巩义市,0371,,巩义市其他,G310,景点,展览馆,113.098793,34.711651
郑州纺织工业博物馆,河南,郑州,郑州,0371,,锦艺城/王府井,棉纺西路,景点,博物馆,113.617699,34.760536
郑州雕塑公园,河南,郑州,郑州,0371,,高新区,石佛镇西三环与化工路交叉口西北角,景点,城市公园,113.590111,34.782955
郑州航空港清真寺,河南,郑州,新郑市,0371,,新郑机场,新港大道18号,景点,宗教,113.82872,34.520878
图片展,河南,郑州,巩义市,0371,,巩义市其他,康百万庄园景区主宅区七院内,景点,人文古迹,112.949577,34.762985
同城旅游,河南,郑州,郑州,0371,,宝龙城市广场/熙地港,天赋路20-24号,景点,旅行社,113.746988,34.783946
烈士陵园,河南,郑州,新密市,0371,,新密市其他,开阳路,景点,烈士陵园,113.3777,34.51183
刘氏宗祠,河南,郑州,登封市,0371,,登封市其他,大冶镇064乡道西施村家属楼西南250米,景点,人文古迹,113.220016,34.440521
黄帝陵,河南,郑州,郑州,0371,,金水路/省政府,花园路8号,景点,古代遗迹,113.68282,34.76932
常寨村抗日烈士纪念碑,河南,郑州,登封市,0371,,登封市其他,文颖线,景点,纪念公园,112.796569,34.417978
小院啤酒花园,河南,郑州,荥阳市,0371,64995333,荥阳市其他,贾峪镇032县道贾峪名苑西北,景点,公园/广场,113.441803,34.674183
老梁夜市,河南,郑州,新密市,0371,136****1099,新密市其他,周甘路华夏铝材旁,景点,夜市,113.494667,34.443287
柴荣墓,河南,郑州,新郑市,0371,,新郑市其他,郭店镇陵后村村民委员会西南,景点,古代遗迹,113.702667,34.561077
后士郭汉墓,河南,郑州,新密市,0371,,行政服务中心,西大街街道后士郭村文化活动中心西南,景点,古代遗迹,113.327347,34.531773
苏秦墓,河南,郑州,巩义市,0371,,巩义市其他,058县道附近,景点,古代遗迹,112.866035,34.63953
新密市神雕文彩艺术工作室,河南,郑州,新密市,0371,135****7725,客运中心站,新华路街道南密新路259号两千家洗车对面,景点,美术馆,113.395515,34.522655
雍乐画廊,河南,郑州,郑州,0371,,郑东新区CBD,天下收藏文化街南区三楼,景点,美术馆,113.734359,34.770624
聋艺艺术馆,河南,郑州,郑州,0371,,凤凰城市广场,未来路凤凰茶城豫茶大厦15楼,景点,美术馆,113.706322,34.742165
华豫斋艺术馆,河南,郑州,郑州,0371,,郑东新区CBD,九如东路2-4号附近,景点,美术馆,113.734357,34.772947
三境堂,河南,郑州,登封市,0371,,嵩阳公园,七星街嵩阳公园东南侧,景点,宗教,113.035011,34.470318
宣衡收藏会馆,河南,郑州,郑州,0371,,郑东新区CBD,九如路天下收藏文化街北区三层北头,景点,展览馆,113.73435,34.772942
樱花园,河南,郑州,郑州,0371,,郑州大学新校区,厚德大道与泊月路交叉口东北150米,景点,植物园,113.535172,34.813423
艺苑名人书画展销中心,河南,郑州,荥阳市,0371,,海龙时代广场,三公路与康泰路交叉口东150米附近,景点,展览馆,113.416757,34.781877
茅台酒文化展览馆,河南,郑州,郑州,0371,63386199,郑州东站,榆林南路,景点,展览馆,113.769829,34.753838
佩婷画廊,河南,郑州,郑州,0371,139****9489,丰业广场/千盛广场,丰产路附近,景点,美术馆,113.656753,34.783583
国岭雕刻艺术,河南,郑州,荥阳市,0371,138****9505;189****4236,荥阳图书馆,兴华路附近,景点,美术馆,113.377029,34.78392
新郑市和庄镇综合文化站,河南,郑州,新郑市,0371,,新郑市其他,神州路1号东南方向140米,景点,展览馆,113.790932,34.389393
工业路街道综合文化站,河南,郑州,上街区,0371,,上街区,工业路138号东立交桥转盘东200米东南方向170米,景点,展览馆,113.31273,34.817184
新郑市新村镇新村村文化大院,河南,郑州,新郑市,0371,,新村镇,育才路,景点,展览馆,113.721489,34.429241
明山庙村文化广场,河南,郑州,中牟县,0371,,中牟县其他,223省道东50米,景点,公园/广场,114.029877,34.755608
健康新时代洛阳白马寺,河南,郑州,荥阳市,0371,185****5297,荥阳站,汜河路与通站路交叉口东南100米,景点,景点/周边游,113.381783,34.793755
登封市文化馆三级馆拆迁过渡馆,河南,郑州,登封市,0371,,嵩阳公园,嵩山路113号附近,景点,展览馆,113.037628,34.473526
白沙文化中心,河南,郑州,中牟县,0371,137****2801,白沙镇,郑东新区白沙村郑东新区,景点,展览馆,113.897934,34.735184
文化路街道办事处综合文化站,河南,郑州,郑州,0371,,农科路酒吧街,东风路25号正南方向30米,景点,展览馆,113.685234,34.793961
福地洞天,河南,郑州,郑州,0371,,富田太阳城,航海东路1206号,景点,景点/周边游,113.728569,34.724018
新郑市新华路街道办事处文化站,河南,郑州,新郑市,0371,,庆都生活广场,洧水路475号附近,景点,展览馆,113.748604,34.391922
康辉旅游航空售票,河南,郑州,郑州,0371,132****0048,康桥商务广场,城东路94号(商城路和城东路交叉口)华亿大厦1楼,景点,旅行社,113.691742,34.751514
梅村文化广场,河南,郑州,登封市,0371,,登封市其他,梅村卫生室附近文颖线,景点,公园/广场,112.968697,34.409164
桐淮小学城市学校少年宫,河南,郑州,郑州,0371,,儿童公园/凯旋门,文化宫路168号,景点,展览馆,113.616623,34.730689
郑州电力职业技术学院文化广场,河南,郑州,中牟县,0371,,水岸鑫城,商都大街,景点,公园/广场,113.990601,34.721752
新密市刘寨镇文化服务中心,河南,郑州,新密市,0371,,新密市其他,附近X028号,景点,展览馆,113.541664,34.496243
少林寺武术馆-纪念品展厅,河南,郑州,登封市,0371,,少林寺风景区,西北15公里处的嵩山少室山下嵩山少林风景区少林寺武术馆内,景点,展览馆,112.94838,34.510605
三泉湖景区,河南,郑州,新密市,0371,69226789,新密市其他,尖山村,景点,自然风光,113.234901,34.595058
中岳庙,河南,郑州,登封市,0371,62850819;62745000,登封市其他,少林大道与郑少洛高速交叉口西3公里,景点,历史建筑,113.07415,34.457924
嵩阳书院,河南,郑州,登封市,0371,62870409;62830518,登封市其他,太室路与少室路交叉口北50米,景点,历史建筑,113.033592,34.48035
丽都温泉,河南,郑州,中牟县,0371,85390111;150****4333,中牟县其他,官渡东路,景点,温泉,114.038261,34.718166
嵩淮游园,河南,郑州,郑州,0371,,升龙广场,民安路,景点,城市公园,113.630015,34.729895
郑州彤润牡丹园,河南,郑州,新密市,0371,188****2084,新密市其他,S321与幸福路交叉路口往东南约240米,景点,植物园,113.508957,34.526436
长江公园,河南,郑州,郑州,0371,,帝湖,航海西路街道桐柏南路,景点,公园/广场,113.613373,34.711361
巩义盘龙山,河南,郑州,巩义市,0371,,巩义市其他,涉村镇东北部,景点,自然风光,113.100098,34.636425
学梓公园,河南,郑州,郑州,0371,,正弘中心,信息学院路,景点,城市公园,113.662064,34.805138
树木园水世界,河南,郑州,郑州,0371,,二七区,316省道郑州树木园斜对面,景点,水上乐园,113.568798,34.66543
中国青年旅行社,河南,郑州,郑州,0371,130****4035,新世界百货,城东路街道紫荆山路60号,景点,旅行社,113.681293,34.752302
炎黄国际旅行社,河南,郑州,中牟县,0371,,豫康新城,北关汽车站西200米公路局西侧,景点,旅行社,113.867375,34.567941
百事通国际旅行社有限公司巩义分公司,河南,郑州,巩义市,0371,85619522,宋陵公园,新华路138号附近,景点,旅行社,112.984082,34.749362
康辉旅游,河南,郑州,郑州,0371,,金水路/省政府,纬二路19号,景点,旅行社,113.683038,34.767743
海途国际旅游有限公司,河南,郑州,郑州,0371,88882607,东风路,南阳路226号9楼902号,景点,旅行社,113.635313,34.794943
五星水库,河南,郑州,新密市,0371,,新密市其他,卢沟村五星水库,景点,现代建筑,113.516487,34.538338
户外旅游,河南,郑州,中牟县,0371,135****2595,中牟县其他,郑尉路未来星贝艺术幼儿园北侧,景点,旅行社,113.847214,34.637244
龙湖公园,河南,郑州,郑州,0371,,国家森林公园/北龙湖,龙湖街道龙湖金融中心（龙源十三街隧道西）,景点,公园/广场,113.734726,34.814194
三山森林溪谷温泉,河南,郑州,荥阳市,0371,69001333,荥阳市其他,刘河镇分水岭村三山森林溪谷温泉,景点,温泉,113.314529,34.708408
中国旅行社总社河南有限公司,河南,郑州,郑州,0371,60994133,郑东新区CBD,如意湖街道格拉姆商务大厦B栋19F1920室,景点,旅行社,113.730774,34.778144
弦歌雅乐艺术馆,河南,郑州,郑州,0371,135****8915,经开区,经北五路远大理想城,景点,美术馆,113.737691,34.729583
凌云温泉雁鸣轩,河南,郑州,中牟县,0371,,雁鸣湖镇,香漫湖路4号,景点,温泉,114.087288,34.853302
千稼集生态乐园,河南,郑州,新郑市,0371,85912022;85901916,新郑市其他,龙湖镇西泰山千稼集景区,景点,游乐场,113.636658,34.579414
康辉国际旅行社,河南,郑州,新郑市,0371,55555187,华南城/高坡岩,康桥溪桂园,景点,旅行社,113.722641,34.604071
龙子湖公园,河南,郑州,郑州,0371,,龙子湖校区,龙子湖北路龙子湖高校园区,景点,城市公园,113.804955,34.787376
偃月古城,河南,郑州,巩义市,0371,69591555,巩义市其他,河洛镇寺弯村石窟寺南侧,景点,古村古镇,113.02951,34.805637
旅游百事通,河南,郑州,新郑市,0371,,龙湖广场/升达大学,文昌路与祥安路口西北角,景点,旅行社,113.687551,34.604351
长寿山风情古镇,河南,郑州,巩义市,0371,64461789,巩义市其他,竹林镇长寿山景区内,景点,古村古镇,113.138329,34.695137
沐风温泉,河南,郑州,郑州,0371,55555755,省体中心/裕华广场,三全路129号国瑞静香园8A号楼02号,景点,温泉,113.64037,34.829651
河南军安广场,河南,郑州,郑州,0371,60157683,农科路酒吧街,丰产路街道林科路与中州大道交叉口先帅之星下,景点,公园/广场,113.705752,34.788352
昌建博泰郑州国际汽车公园,河南,郑州,中牟县,0371,66220999,白沙镇,南三环与鹏程大道交会处西北角,景点,公园/广场,113.887428,34.700413
九如路与天韵街富力公主湾国际展销中心,河南,郑州,郑州,0371,,宝龙城市广场/熙地港,九如路与天韵街交叉口东150米,景点,展览馆,113.740051,34.779427
北京朝阳园,河南,郑州,中牟县,0371,,人民医院,刘集镇郑开大道与人文路交汇向南2000米中国绿化博览园内,景点,公园/广场,113.932457,34.751427
融园,河南,郑州,荥阳市,0371,,荥阳市人民医院,索河路220号附近,景点,公园/广场,113.39312,34.78738
铁路职工之家,河南,郑州,巩义市,0371,,火车站,交通路与新兴路交叉口北150米,景点,展览馆,112.97934,34.756466
菲斯提尔湖畔,河南,郑州,郑州,0371,,郑东新区,赵兰庄向北两公里普兰斯薰衣草庄园内,景点,更多景点/周边游,113.714735,34.900027
枕烟庭,河南,郑州,登封市,0371,,登封市其他,嵩山国家风景名胜区中岳景区中国嵩山卢崖瀑布风景区内,景点,人文古迹,113.078059,34.486099
豫商家园,河南,郑州,巩义市,0371,,巩义市其他,百万庄园主宅区三号院,景点,更多景点/周边游,112.951378,34.763088
南粤林苑,河南,郑州,中牟县,0371,,人民医院,郑开大道与人文路交汇向南2000米中国绿化博览园内,景点,公园/广场,113.935677,34.755589
吉林苑,河南,郑州,中牟县,0371,,人民医院,郑开大道与人文路交汇向南2000米中国绿化博览园内,景点,自然景观,113.935387,34.756275
康桥.艺墅公园,河南,郑州,中牟县,0371,,中牟县其他,广成街康桥公学幼儿园南侧约210米,景点,公园/广场,113.969269,34.781746
老街坊展示中心,河南,郑州,登封市,0371,,百货大楼/中天广场,少林大道与嵩阳路交叉口向南200米路东,景点,展览馆,113.031189,34.453179
商都遗址公园,河南,郑州,郑州,0371,,康桥商务广场,东大街与城东路交口西侧150米路南,景点,古代遗迹,113.687454,34.745441
红石林景区,河南,郑州,新密市,0371,69226789,新密市其他,米村镇月寨村,景点,自然风光,113.258324,34.59026
银基冰雪世界,河南,郑州,新密市,0371,4000178178,新密市其他,郑尧高速轩辕丘出口西南5公里处,景点,主题乐园,113.554749,34.479305
去哪儿旅行,河南,郑州,郑州,0371,55332227,冉屯路/五龙口,电厂路46号华强二期北门二楼2-46号,景点,旅行社,113.603329,34.790397
少林寺菩提院,河南,郑州,登封市,0371,137****0888,登封市其他,中岳街道少林大道东段1589号,景点,宗教,113.096397,34.452312
芝士旅行,河南,郑州,郑州,0371,4006268341,郑东新区CBD,商务东三街2层2048,景点,旅行社,113.734098,34.770658
郑州方特旅游度假区,河南,郑州,中牟县,0371,56928000;4001660006,刘集镇,郑开大道与人文路交汇处,景点,主题乐园,113.928726,34.766773
天祥博物馆,河南,郑州,郑州,0371,,工大新校区,东史马村任家大院,景点,博物馆,113.560966,34.829758
索须河湿地公园,河南,郑州,荥阳市,0371,,荥阳市其他,乔楼镇悦来西路与塔山路南100米路西,景点,城市公园,113.387779,34.723553
绿谷公园,河南,郑州,郑州,0371,,中原区,西湖花园西,景点,城市公园,113.592134,34.809118
同乐公园,河南,郑州,郑州,0371,,经开区,经北三路与经开第五大街交叉口西100米,景点,公园/广场,113.752655,34.727497
旅游百事通,河南,郑州,郑州,0371,86211366;86664951,康桥商务广场,陇海东路与未来路交叉口向西50米路北,景点,旅行社,113.702309,34.73954
尚岗杨遗址公园,河南,郑州,郑州,0371,,经开区,明湖街道机场高速及十七里河以东、航海路体育场以南、经南五路以北,景点,城市公园,113.729446,34.714638
洞林寺,河南,郑州,荥阳市,0371,,荥阳市其他,贾峪镇044乡道东100米,景点,宗教,113.494499,34.676102
浮戏古寨,河南,郑州,巩义市,0371,64184999,巩义市其他,新中镇浮戏山雪花洞风景区,景点,古代遗迹,113.195877,34.677731
郑州晨明生态园,河南,郑州,中牟县,0371,173****3516;4001582566,中牟县其他,郑庵镇台前村宏业路,景点,更多景点/周边游,113.944862,34.620979
翰墨林艺术馆,河南,郑州,上街区,0371,,上街区,峡窝镇丹江路与钟灵路文化小镇街道往西路北20号,景点,美术馆,113.275169,34.801849
中信国旅,河南,郑州,上街区,0371,157****7357,铝城公园,淮阳路22号,景点,旅行社,113.300644,34.799834
儿童居,河南,郑州,巩义市,0371,,巩义市其他,康百万庄园主宅区内,景点,景点/周边游,112.94957,34.763348
江南文化艺术园,河南,郑州,上街区,0371,68968222,铝城公园,许昌路与金屏路交叉路口往西约200米,景点,美术馆,113.306053,34.799413
巩义市新华路街道文化服务中心,河南,郑州,巩义市,0371,,丹尼斯商场,货场路北50米,景点,展览馆,112.988838,34.761948
康乐园,河南,郑州,郑州,0371,,黄河科技大学城,开拓路与砺志路交叉口北150米,景点,公园/广场,113.672295,34.688717
中牟县象棋协会活动中心,河南,郑州,中牟县,0371,,潘安公园,明德路与永乐路交叉口北150米,景点,展览馆,114.022911,34.714664
郑州高新区职工文化活动中心,河南,郑州,郑州,0371,156****3881,高新区,玉兰街16号附近,景点,展览馆,113.566864,34.804874
中力广告创意产业园C区,河南,郑州,郑州,0371,,东建材,祭城路街道中力大道与宏伟街交叉口西南150米,景点,创意园区,113.734222,34.744354
新龙源展示,河南,郑州,郑州,0371,158****6646,凤凰城/上悦城,凤凰台街道玉凤路八号中原广告市场C区7-2号,景点,展览馆,113.711868,34.751438
大自然文化园,河南,郑州,登封市,0371,,登封一中/国际商贸城,颍河路登封文化城,景点,文化公园,113.020021,34.447901
轩辕湖公园,河南,郑州,新郑市,0371,,新村镇,新村镇中华路老年活动中心往西200米,景点,城市公园,113.748039,34.421848
凯旋城文化娱乐中心,河南,郑州,新郑市,0371,,新村镇,中兴大道06号,景点,展览馆,113.72261,34.422287
极速风车,河南,郑州,郑州,0371,,富田太阳城,石化路1号世纪欢乐园,景点,游乐场,113.715271,34.732178
陈天然故居,河南,郑州,巩义市,0371,,巩义市其他,豫联工业园区005乡道,景点,名人故居,113.12619,34.790863
沙窝森林公园,河南,郑州,中牟县,0371,56569706;56569717,中牟县其他,雁鸣湖镇朱固村南,景点,森林公园,114.10006,34.827724
伏羲古镇,河南,郑州,新密市,0371,,新密市其他,尖山风景区五虎沟村村委会,景点,古村古镇,113.326462,34.599731
象湖生态湿地公园,河南,郑州,中牟县,0371,,刘集镇,豫兴办事处郑开大道,景点,公园/广场,113.874748,34.779583
郑州公教医院旧址,河南,郑州,郑州,0371,,火车站/二七广场,解放路82-1号附近,景点,古代遗迹,113.658186,34.753926
望水国际温泉酒店,河南,郑州,郑州,0371,55306789,白沙镇,祥瑞街100号,景点,温泉,113.85096,34.701145
棋盘山公园,河南,郑州,登封市,0371,,客运总站,嵩阳街道颍河路龙玺湾北,景点,公园/广场,113.050278,34.443813
百盛名苑展示中心,河南,郑州,荥阳市,0371,64985777,荥阳站,万山路汜河路交叉口东10米路南,景点,展览馆,113.385689,34.794689
酒店用品特色商业街,河南,郑州,郑州,0371,,康桥商务广场,陇海东路与货站北街交叉口东约160米,景点,步行街,113.699673,34.740803
郑州市根雕壁画院,河南,郑州,郑州,0371,,儿童公园/凯旋门,嵩山南路66号,景点,美术馆,113.627724,34.744381
国龙绿城・怡园展示中心,河南,郑州,郑州,0371,,宝龙城市广场/熙地港,地润路绿城百合公寓-秋月苑,景点,展览馆,113.718508,34.788228
秦岭路街道办事处综合文化站,河南,郑州,郑州,0371,,西元国际广场,六厂前街59号附近,景点,展览馆,113.606247,34.761005
回郭镇综合文化站,河南,郑州,巩义市,0371,,回郭镇,世纪园,景点,展览馆,112.862457,34.68026
登封旅游咨询,河南,郑州,登封市,0371,,嵩阳公园,嵩阳路北段西侧嵩阳公园西门对面,景点,旅行社,113.032234,34.470715
河南省海外旅游有限公司,河南,郑州,郑州,0371,55669880,省电视台,花园路,景点,旅行社,113.682604,34.80062
诗情画玉,河南,郑州,郑州,0371,55685146,北大学城,迎宾路大河龙城商业街,景点,美术馆,113.665813,34.871613
河南省科技馆新馆,河南,郑州,中牟县,0371,,刘集镇,郑开大道与杨桥大道交叉口东北侧,景点,科技馆,113.867348,34.776485
刘寨镇综合文化站,河南,郑州,新密市,0371,,新密市其他,附近X028号,景点,展览馆,113.544861,34.495411
华中书画艺术院,河南,郑州,郑州,0371,,长江中路沿线,嵩山路立交桥中原百姓广场,景点,美术馆,113.631489,34.700789
郑州市雕塑壁画院,河南,郑州,郑州,0371,67948690,碧沙岗,中原西路街道百花路21号,景点,美术馆,113.624604,34.753944
郑州国际会展中心展览中心E区,河南,郑州,郑州,0371,,郑东新区CBD,郑东新区商务内环路中央公园1号郑州国际会展中心附近,景点,展览馆,113.730743,34.772316
河南省中国旅行社集团有限公司郑州陇海东路门市部,河南,郑州,郑州,0371,86548001,康桥商务广场,紫荆山南路105号方圆创世大厦A座14层12号,景点,旅行社,113.683031,34.740931
海盗船,河南,郑州,郑州,0371,,农科路酒吧街,地润路与众意西路交叉口向东30米,景点,游乐场,113.68605,34.788528
中岳庙-游客服务中心,河南,郑州,登封市,0371,,登封市其他,少林大道东段818号,景点,公园/广场,113.073891,34.45546
河南和信国际旅行社,河南,郑州,郑州,0371,,国贸360,农业路东16号省汇中心B座702室,景点,旅行社,113.687679,34.786738
体育嘉苑金街,河南,郑州,郑州,0371,,大石桥/体育场,月牙石酒店南70米,景点,观光街区,113.660667,34.771656
新华路街道办事处小高庄社区文化活动中心,河南,郑州,新郑市,0371,,新郑金苑小区,金华街新郑市新华路小学南侧约200米,景点,展览馆,113.746407,34.388058
高台古院,河南,郑州,新郑市,0371,,新郑市其他,郑州园博园,景点,人文古迹,113.869492,34.455971
非遗城非物质文化遗产展馆,河南,郑州,郑州,0371,,郑东新区CBD,九如东路2-3号楼附近,景点,展览馆,113.734335,34.772546
蓝堡湾贵人街,河南,郑州,郑州,0371,55679111,正弘中心,文博东路葛文英口腔诊所旁,景点,观光街区,113.673027,34.796471
河南省郑州文博城易源斋国学文化馆,河南,郑州,郑州,0371,,经开区,经开第八大街188号附近,景点,展览馆,113.768143,34.733791
内宅伙房,河南,郑州,巩义市,0371,,巩义市其他,康百万庄园内,景点,更多景点/周边游,112.949127,34.763203
延边春天国际旅行社有限公司河南分公司,河南,郑州,郑州,0371,,郑东新区CBD,商务外环路12号绿地世纪峰会11层,景点,旅行社,113.719757,34.776829
中区十四街,河南,郑州,郑州,0371,,火车站/二七广场,乔家门路30号附近,景点,观光街区,113.668282,34.74242
荥阳市青少年及大学生服务中心,河南,郑州,荥阳市,0371,,海龙时代广场,康泰路与荥泽大道交叉口西南150米荥阳市教育体育局附近,景点,展览馆,113.429024,34.781441
少林寺武僧禅院,河南,郑州,登封市,0371,137****8101,登封市其他,环山路北50米,景点,宗教,112.990819,34.493739
雕塑绘画,河南,郑州,巩义市,0371,,巩义市其他,康百万庄园主宅区内,景点,美术馆,112.949265,34.763088
登封窑,河南,郑州,登封市,0371,62750886,登封市其他,207国道与郑登快速路交叉口向南100米路东,景点,博物馆,113.002289,34.416286
八桂绿园,河南,郑州,中牟县,0371,,人民医院,郑开大道与人文路交汇向南2000米中国绿化博览园内,景点,植物园,113.935577,34.757797
孝南村文化活动中心,河南,郑州,巩义市,0371,,火车站,孝义路与腾飞路交叉口西150米,景点,展览馆,112.973511,34.758625
树穴精灵,河南,郑州,郑州,0371,,陈砦,国基路86号郑州海洋馆加勒比小镇内,景点,更多景点/周边游,113.658286,34.819842
梦之旅中牟文化展览馆,河南,郑州,中牟县,0371,,人民医院,广惠街街道广惠街四牟园学苑路与映旭街交叉口西南200米,景点,陈列馆,113.949799,34.71542
郑州市雕塑艺术馆,河南,郑州,郑州,0371,67652045,高新区,西三环,景点,美术馆,113.586488,34.765428
和润书画中国艺术馆,河南,郑州,郑州,0371,132****0018,郑州东站,商鼎路心怡路升龙广场2号楼1单元604室,景点,美术馆,113.77079,34.757584
河南省中国旅行社集团,河南,郑州,郑州,0371,,东风路,丰乐路跃进路交叉口丹尼斯超市三楼入口处,景点,旅行社,113.642016,34.791706
中国旅行社总社河南有限公司,河南,郑州,中牟县,0371,,县政府,广惠街与牟山路交叉口东北50米,景点,旅行社,113.97464,34.722129
郑州市农业科技博览园,河南,郑州,郑州,0371,,黄河游览区,师桐路,景点,展览馆,113.54006,34.862576
天下第一枣,河南,郑州,中牟县,0371,,人民医院,郑开大道与人文路交汇向南2000米中国绿化博览园内,景点,景点/周边游,113.936722,34.7537
淮北文化活动服务站,河南,郑州,上街区,0371,,上街区,绿化街温馨家园,景点,展览馆,113.309814,34.812721
郑州国际会展中心展览中心A区,河南,郑州,郑州,0371,68089988,郑东新区CBD,如意湖街道会展路与商务东五街交叉口西北150米,景点,展览馆,113.730125,34.770634
淇堡乐园,河南,郑州,郑州,0371,,管城回族区,小刘村刘东小学西200米路南,景点,游乐场,113.677472,34.646041
观音寺镇唐庄村文化大院,河南,郑州,新郑市,0371,,新郑市其他,唐庄村委会西南方向80米,景点,展览馆,113.676476,34.318214
贵宾室,河南,郑州,巩义市,0371,,巩义市其他,康百万庄园景区内栈房区,景点,更多景点/周边游,112.950325,34.763405
中国天文博物院,河南,郑州,登封市,0371,,登封市其他,城东南12公里的告城镇周公庙观星台内,景点,博物馆,113.147148,34.400898
东街,河南,郑州,郑州,0371,,金水区,商城东路东街,景点,观光街区,113.720526,34.753156
科迪食文化广场,河南,郑州,巩义市,0371,,巩义东区,嵩山路皇家花园,景点,公园/广场,113.019562,34.758999
赵口闸门,河南,郑州,中牟县,0371,,中牟县其他,黄河附近,景点,观光街区,113.971725,34.899574
登封国旅散客接待部,河南,郑州,登封市,0371,,少林寺风景区,西北15公里处的嵩山少室山下嵩山少林风景区内,景点,旅行社,112.953354,34.5149
荥阳市文学艺术活动中心,河南,郑州,荥阳市,0371,,荥阳图书馆,广场东街001号,景点,展览馆,113.380554,34.785381
风景林,河南,郑州,巩义市,0371,,宋陵公园,杜甫路84号永昭陵内,景点,自然景观,112.987114,34.741356
河南旅游集团有限公司,河南,郑州,郑州,0371,159****3257,富田太阳城,未来路815号附近,景点,旅行社,113.705924,34.730124
旅游百事通经开区第五大街服务网点,河南,郑州,郑州,0371,,经开区,航海路第五大街交叉口国安经贸大厦6层,景点,旅行社,113.754761,34.721348
阳光商业街D区,河南,郑州,郑州,0371,,省电视台,阳光新城,景点,步行街,113.704597,34.79845
泳池桑拿・水上乐园,河南,郑州,郑州,0371,65331168;130****0808,南三环汽配大世界,鼎元街宽广洁具批发市场2号楼3-4-5号,景点,水上乐园,113.720329,34.698364
郑东新区规划展览馆,河南,郑州,郑州,0371,,郑东新区CBD,商务外环路24号,景点,陈列馆,113.736196,34.773267
中原国画院,河南,郑州,新密市,0371,,新密市政府,溱水路新密市金宝贝幼儿园(新密市食品药品监督管理局南)西侧约150米,景点,美术馆,113.387058,34.542368
爱的情商乐园,河南,郑州,登封市,0371,,登封一中/国际商贸城,少林大道1323号,景点,主题公园,113.021042,34.455589
大河啤酒夜市广场,河南,郑州,郑州,0371,65952222,经三路沿线,政七街4号附1号,景点,广场,113.687584,34.777134
河南省聚宝楼玉文化展示中心,河南,郑州,新密市,0371,,新密市其他,开阳路与014乡道交叉口南300米,景点,展览馆,113.375757,34.554146
张凌超艺术馆,河南,郑州,荥阳市,0371,,荥阳植物园,禹锡路与金山大道交叉口东北150米,景点,美术馆,113.413252,34.769272
北斗星城科技展示中心,河南,郑州,郑州,0371,,863软件园,高新技产业开发区翠竹街与金梭路交叉口向西五十米路北国家863产业园南门西,景点,展览馆,113.561804,34.816875
藏经阁,河南,郑州,登封市,0371,,登封市其他,太室路与少室路交叉口北50米嵩阳景区大法王寺内,景点,更多景点/周边游,113.026996,34.505006
贵金天地展示中心,河南,郑州,新郑市,0371,,人民路,人民路中信银行东100米,景点,展览馆,113.761513,34.39587
生命之源,河南,郑州,中牟县,0371,,人民医院,郑开大道与人文路交汇向南2000米中国绿化博览园内,景点,更多景点/周边游,113.928444,34.756763
瓷器展,河南,郑州,巩义市,0371,,巩义市其他,西3公里处康店镇康百万庄园主宅区内,景点,更多景点/周边游,112.949248,34.763508
文职居室,河南,郑州,巩义市,0371,,巩义市其他,西3公里处康店镇康百万庄园主宅区内,景点,更多景点/周边游,112.949533,34.763343
崇本堂,河南,郑州,郑州,0371,,东建材,商都路5号满圆红F4层,景点,宗教,113.738167,34.747863
新恒丰艺术馆,河南,郑州,郑州,0371,,郑东新区CBD,天下收藏文化街北区3层3082号,景点,美术馆,113.733964,34.774514
北大清真寺,河南,郑州,郑州,0371,,火车站/二七广场,清真寺街，星月小区附近,景点,宗教,113.678862,34.755233
宋太宗永熙陵,河南,郑州,巩义市,0371,,回郭镇,西村镇滹沱村东北,景点,古代遗迹,112.950714,34.670959
巩义窑址,河南,郑州,巩义市,0371,,巩义市其他,G310,景点,古代遗迹,113.04277,34.745991
马寨镇杨寨商业步行街,河南,郑州,郑州,0371,132****3546,马寨镇,同兴街185号,景点,步行街,113.526666,34.709036
北京凯撒国际旅行社有限责任公司郑州分公司,河南,郑州,郑州,0371,86580808,曼哈顿广场/英协路,金水路226号楷林国际A座13层1316室,景点,旅行社,113.717925,34.763175
红色文化博物馆,河南,郑州,新郑市,0371,152****2939,新郑市其他,会盟大道与泰山路交叉口千稼集,景点,博物馆,113.640758,34.58087
中原英烈纪念馆,河南,郑州,郑州,0371,69389738,帝湖,郑州烈士陵园北区,景点,纪念馆,113.62262,34.707836
寻木馆,河南,郑州,郑州,0371,,汽车东站,农业南路与福禄东路交叉口西南50米,景点,博物馆,113.756138,34.749028
E美旅业,河南,郑州,郑州,0371,,经三路沿线,黄河路和中州大道交叉口金成时代广场9号楼,景点,旅行社,113.708649,34.777239
超化寺,河南,郑州,新密市,0371,187****7799,新密市其他,王超路,景点,宗教,113.397362,34.452408
反弹蹦床公园,河南,郑州,郑州,0371,66666882,宝龙城市广场/熙地港,农业东路与九如路交叉口宝龙城市广场B区2楼,景点,更多景点/周边游,113.739453,34.781563
东虢湖,河南,郑州,上街区,0371,,上街区,工业路街道蓝天路附近,景点,城市观光,113.287739,34.831772
西泰山欢乐园,河南,郑州,新郑市,0371,,新郑市其他,会盟大道和马武路的交叉口附近,景点,游乐场,113.646065,34.584115
千米一观,河南,郑州,新密市,0371,,新密市其他,大方山,景点,更多景点/周边游,113.197639,34.563007
爱丽丝公园,河南,郑州,郑州,0371,,普罗旺世/庙李,国基路一八中学旁边,景点,公园/广场,113.635445,34.820995
任家古宅,河南,郑州,郑州,0371,,工大新校区,白桦街与雪松路交叉口东150米路南,景点,历史建筑,113.560692,34.829933
山海美术馆,河南,郑州,郑州,0371,,经开区,经开第七大街151号,景点,美术馆,113.76143,34.72459
金沙湖草坪部,河南,郑州,郑州,0371,55970073,经开区,经南八路鼎峰彩钢附近,景点,更多景点/周边游,113.769745,34.696295
A+沉浸式娱乐馆,河南,郑州,郑州,0371,56652666,火车站/二七广场,二七广场无限城购物中心负一楼东侧B132号,景点,展览馆,113.666126,34.749328
河南省当代艺术馆,河南,郑州,新密市,0371,66720567;186****9977,新密市其他,圣水峪1号,景点,美术馆,113.514252,34.614269
星空书画艺术馆,河南,郑州,登封市,0371,155****7188,嵩阳公园,嵩山路113号,景点,美术馆,113.037521,34.473515
帝景公园,河南,郑州,新郑市,0371,,华南城/高坡岩,中华路与107连接线交汇处,景点,公园/广场,113.74892,34.59016
梅山崖,河南,郑州,新密市,0371,,市博物馆,育才街鲁班喜悦往西50米,景点,人文古迹,113.384666,34.544888
魏唐石刻,河南,郑州,郑州,0371,139****4450,经开区,文博城西九楼1F-19室,景点,人文古迹,113.763651,34.734381
绿地千玺广场58楼观光游览,河南,郑州,郑州,0371,68895858,郑东新区CBD,会展路绿地千禧广场负1楼,景点,高空观景,113.727188,34.771175
小画童美术馆,河南,郑州,郑州,0371,186****2766;135****2754,冉屯路/五龙口,天悦龙庭1号楼临街门面,景点,美术馆,113.60527,34.777042
猛犸跳伞俱乐部,河南,郑州,上街区,0371,139****4358,上街区,通航机场（河南省航空运动管理中心）,景点,更多景点/周边游,113.276886,34.837185
草食区,河南,郑州,郑州,0371,,农科路酒吧街,花园路103号正北方向10米,景点,动物园,113.684906,34.791397
迎客厅,河南,郑州,巩义市,0371,,巩义市其他,区西3公里处康店镇康百万庄园栈房区内,景点,更多景点/周边游,112.950478,34.76339
途牛旅游,河南,郑州,郑州,0371,,汽车东站,管城郑东商业中心B区,景点,旅行社,113.759748,34.742164
石泉寺,河南,郑州,荥阳市,0371,180****6305,荥阳市其他,石棚村南口,景点,宗教,113.407504,34.668219
祭伯城遗址,河南,郑州,郑州,0371,,宝龙城市广场/熙地港,天时路2号,景点,古代遗迹,113.750738,34.779313
生命与健康科学馆,河南,郑州,郑州,0371,136****1894,黄河游览区,江山路黄河南岸188号,景点,科技馆,113.535722,34.932507
孤柏渡黄河塬休闲旅游区,河南,郑州,荥阳市,0371,85097111,荥阳市其他,连霍高速郑州虎牢关出口北4公里古柏渡飞黄旅游区北50米,景点,主题乐园,113.239065,34.893469
储物,河南,郑州,巩义市,0371,,巩义市其他,康百万庄园栈房区内,景点,人文古迹,112.950785,34.763555
2018第14届中国郑州五金机电展览会,河南,郑州,郑州,0371,,郑东新区CBD,会展路郑州国际会展中心,景点,展览馆,113.730681,34.771771
107沙场,河南,郑州,新郑市,0371,,新郑市其他,乔庄村,景点,更多景点/周边游,113.713627,34.38331
河南华通汽车旅游有限公司,河南,郑州,郑州,0371,,升龙广场,嵩山南路7号10号办公楼,景点,旅行社,113.628403,34.731121
商代亳都都城内城北城遗址,河南,郑州,郑州,0371,,人民路/紫荆山,人民路与金水路交叉口西南角,景点,古代遗迹,113.679708,34.763588
好想你金鹭鸵鸟游乐园,河南,郑州,新郑市,0371,66873298,新郑市其他,新孟路中段谢新线好想你金鹭鸵鸟园,景点,动物园,113.820854,34.55592
河南建业新生活旅游服务有限公司,河南,郑州,郑州,0371,,郑州东站,郑东新区商鼎路升龙广场3号楼2单元27层,景点,旅行社,113.770251,34.756291
天悦滨河广场,河南,郑州,郑州,0371,,陈寨/张家村,杭州路南50米,景点,公园/广场,113.647835,34.839237
风雅广场,河南,郑州,郑州,0371,,龙子湖校区,金水东路180号,景点,公园/广场,113.822514,34.781984
足球公园,河南,郑州,郑州,0371,,二七区,侯寨街道侯张线东100米,景点,公园/广场,113.584165,34.616318
郑州市金水区山清水秀温泉酒店,河南,郑州,郑州,0371,55552888,国贸360,农业路1附,景点,温泉,113.679268,34.787037
小天才公园,河南,郑州,郑州,0371,186****8616,工大新校区,雪松路与金菊街交叉口家庭茂3楼,景点,公园/广场,113.555893,34.820183
昌平广场,河南,郑州,新密市,0371,,新密市其他,016乡道西50米,景点,公园/广场,113.296783,34.561985
元正置业广场,河南,郑州,荥阳市,0371,,荥阳站,万山路6号附近,景点,公园/广场,113.382117,34.792703
三峡环坝旅游发展集团,河南,郑州,郑州,0371,,金水区,经七路43-11号,景点,旅行社,113.672405,34.768185
去哪儿旅行社,河南,郑州,郑州,0371,60999091;150****5760,瑞达路沿线,科学大道瑞达路正弘高新数码港西悦城LOFT3单元14层278室,景点,旅行社,113.566688,34.806738
星工场绘画艺术馆,河南,郑州,中牟县,0371,158****0580,人民医院,东润朗郡北门16号楼,景点,美术馆,113.961143,34.722533
荒岛艺术馆,河南,郑州,新郑市,0371,62568773,升达大学/中原工学院,文昌路学府花园,景点,美术馆,113.688713,34.603344
盈科旅游,河南,郑州,郑州,0371,185****7707,高新区,谦祥万和城D区,景点,旅行社,113.540829,34.83497
芒砀山,河南,郑州,郑州,0371,61369099,金水路/省政府,人民会堂院内花园路1-1号,景点,旅行社,113.683049,34.764936
海南海景旅居展示中心,河南,郑州,郑州,0371,,宝龙城市广场/熙地港,九如东路永威翰林居西侧约50米,景点,展览馆,113.742872,34.778222
双鹤梦幻乐园,河南,郑州,新郑市,0371,177****9797,新郑市其他,八千乡航空港区双鹤湖公园生物科技四街南桥北100米路东,景点,游乐场,113.865019,34.401029
河南非遗体验馆,河南,郑州,郑州,0371,152****2958,二七区,樱花路,景点,陈列馆,113.589098,34.613329
少林寺演武厅功夫表演团,河南,郑州,登封市,0371,131****2888,少林寺风景区,嵩山少林风景区内,景点,旅游项目/观光项目,112.947673,34.510643
长安古寨,河南,郑州,郑州,0371,61285558,二七区,侯寨线上李河村建业足球公园北行米路西,景点,仿古建筑,113.582115,34.618454
途牛旅游,河南,郑州,郑州,0371,,管城回族区,管城南曹乡齐小王庄村,景点,旅行社,113.754078,34.668751
途牛旅游,河南,郑州,郑州,0371,,人民路/紫荆山,经五路2号河南广播大厦配楼临街门面房南,景点,旅行社,113.677856,34.767857
艾尔特艺术馆,河南,郑州,荥阳市,0371,155****5800,荥阳市其他,荥泽大道碧桂园龙城商业街麦当劳二楼,景点,美术馆,113.326319,34.771209
宏光.百花里,河南,郑州,郑州,0371,,曼哈顿广场/英协路,黑庄路,景点,步行街,113.717766,34.766777
郑州森格展览展示,河南,郑州,郑州,0371,,东建材,化庄社区1号楼,景点,展览馆,113.733986,34.740673
郑州市金水区丰产路街道办事处豫财社区青少年活动中心,河南,郑州,郑州,0371,,经三路沿线,政七街13号院2号楼,景点,展览馆,113.688063,34.782133
袋鼠馆,河南,郑州,郑州,0371,,国贸360,政七街,景点,动物园,113.686673,34.787383
旅游百事通,河南,郑州,郑州,0371,,管城回族区,管城安徐庄,景点,旅行社,113.760841,34.667827
朱屯基督教堂,河南,郑州,郑州,0371,,月季公园,桐柏路与煤仓北街交叉口,景点,宗教,113.619981,34.772423
大河行船,河南,郑州,巩义市,0371,,巩义市其他,康百万庄园景区栈房区内,景点,景点/周边游,112.950591,34.763791
伏羲山旅游区,河南,郑州,新密市,0371,69226789,新密市其他,米村镇月寨村,景点,自然风光,113.226997,34.596699
苗圃教会,河南,郑州,郑州,0371,,火车站/二七广场,苗圃街9号,景点,宗教,113.666719,34.730379
瑞光创意工厂,河南,郑州,郑州,0371,,医学院,瑞光路,景点,创意园区,113.638549,34.762975
古考场院,河南,郑州,登封市,0371,,登封市其他,太室路与少室路交叉口北50米嵩阳景区嵩阳书院内,景点,更多景点/周边游,113.033363,34.480255
刘寨街道文化服务中心,河南,郑州,郑州,0371,,东风路,东风路西24号西北50米,景点,展览馆,113.637521,34.797121
巩义市新华路街道社区综合文化服务中心,河南,郑州,巩义市,0371,,丹尼斯商场,桐本路165-29号,景点,展览馆,112.992432,34.757915
途牛旅游,河南,郑州,郑州,0371,,中原万达,中原路与秦岭路交汇处万达广场地下一层2379B1F0037号铺,景点,旅行社,113.603199,34.746093
中信国旅,河南,郑州,郑州,0371,185****2807,新世界百货,城北路紫荆山路8号,景点,旅行社,113.682736,34.755756
郑州建业・华谊兄弟电影小镇,河南,郑州,中牟县,0371,62169000;4000001931,中牟县其他,郑开大道与文创路交叉口南200米路东,景点,影视基地,113.998531,34.774137
司令布,河南,郑州,中牟县,0371,,人民医院,宝峰街与文博路交叉路口往北约50米,景点,更多景点/周边游,113.963723,34.713343
中国旅行社集团有限公司瑞达路服务网点,河南,郑州,郑州,0371,,科学大道,科学大道66号丹尼斯2层,景点,旅行社,113.565745,34.806905
中信广场展示中心,河南,郑州,郑州,0371,67635111,中原万达,中原路西三环交汇处向东300米路北,景点,展览馆,113.589384,34.747764
巩义市烈士陵园,河南,郑州,巩义市,0371,69585016;135****9166,巩义市其他,310国道东100米,景点,烈士陵园,113.000212,34.712821
木器,河南,郑州,巩义市,0371,,巩义市其他,康百万庄园景区主宅区四院内,景点,人文古迹,112.949283,34.763343
管城回族区文化馆,河南,郑州,郑州,0371,136****2060,康桥商务广场,货站街98号二里岗办事处,景点,展览馆,113.697232,34.737652
龙山寨,河南,郑州,荥阳市,0371,,荥阳市其他,口子村,景点,更多景点/周边游,113.206223,34.857227
乘龙展厅,河南,郑州,新郑市,0371,,新郑市其他,龙湖镇小刘桥世贸汽车城,景点,展览馆,113.671771,34.631325
河南永安国际旅行社,河南,郑州,登封市,0371,150****6788,登封市其他,南一环与菜园路交叉口向西50米路南,景点,旅行社,113.039898,34.443948
中国创意谷,河南,郑州,郑州,0371,,陈寨/张家村,国基路60号,景点,创意园区,113.672008,34.819846
十八城记,河南,郑州,郑州,0371,,火车站/二七广场,德化街10号,景点,展览馆,113.666395,34.750615
二七历史文化展览馆,河南,郑州,郑州,0371,,火车站/二七广场,德化街68号,景点,博物馆,113.666611,34.751381
万创御府展示中心,河南,郑州,新密市,0371,,行政服务中心,未来大道新密市第二高中新校区东南侧约250米,景点,展览馆,113.337273,34.530506
印象国旅,河南,郑州,郑州,0371,63838779,碧沙岗,友爱路2号,景点,旅行社,113.626964,34.752864
郑州工程技术学院综合展厅,河南,郑州,郑州,0371,,北大学城,励志路与明是路交叉口南100米,景点,展览馆,113.651635,34.864025
雁鸣湖镇游客服务中心,河南,郑州,中牟县,0371,62320859,雁鸣湖镇,雁鸣大道,景点,公园/广场,114.064713,34.84383
山羊公园,河南,郑州,郑州,0371,177****5866,科学大道,木兰里2号新合鑫睿达广场,景点,公园/广场,113.54982,34.804783
天悦旅行社,河南,郑州,郑州,0371,,东风路,吴家庄南阳路101号盛地大厦13层,景点,旅行社,113.636803,34.794125
郑州文化馆,河南,郑州,郑州,0371,67883613,碧沙岗,嵩山南路66号,景点,展览馆,113.627296,34.744646
崖柏展厅艺术生活美学馆,河南,郑州,郑州,0371,,经开区,经北六路长盛广场东北侧约210米,景点,美术馆,113.765618,34.733488
永安国旅,河南,郑州,登封市,0371,62803399,嵩山一号,崇福路崇高路小学西北侧约240米,景点,旅行社,113.046018,34.463418
百客街,河南,郑州,登封市,0371,,百货大楼/中天广场,东关街大厦豪邸西南侧约130米,景点,步行街,113.037224,34.456534
广进PAMA国际名品街,河南,郑州,郑州,0371,,曼哈顿广场/英协路,英协路与民航路交叉口,景点,观光街区,113.719954,34.765744
世袭・人物,河南,郑州,巩义市,0371,,巩义市其他,西3公里处康店镇康百万庄园主宅区内,景点,博物馆,112.949279,34.763359
大孟文化服务中心,河南,郑州,中牟县,0371,,中牟县其他,和兴街普罗旺世理想国,景点,展览馆,114.033981,34.780711
大河文化博览园,河南,郑州,郑州,0371,,柳林刘庄,花园北路与杓袁交叉口附近,景点,展览馆,113.678588,34.850703
河南中旅,河南,郑州,郑州,0371,,二七万达,大学南路160号附近,景点,旅行社,113.642674,34.711504
金银库,河南,郑州,巩义市,0371,,巩义市其他,康百万庄园景区栈房区内,景点,更多景点/周边游,112.95028,34.763514
郑州领杰书画院,河南,郑州,新郑市,0371,,新郑机场,岳庄街育英幼儿园西南侧,景点,美术馆,113.802994,34.495822
三水轩画廊,河南,郑州,郑州,0371,,国贸360,经五路与红旗路交又口中原古玩城二楼4排1号,景点,美术馆,113.678312,34.777752
郑州园博园A区游客服务,河南,郑州,新郑市,0371,,新郑市其他,梁州大道与苑陵路交汇处,景点,公园/广场,113.85936,34.464091
商超百货一条街,河南,郑州,郑州,0371,,橄榄城,连云路交叉口向南500米,景点,步行街,113.670984,34.706184
京城路街道综合文化服务中心,河南,郑州,荥阳市,0371,,建业购物广场,康泰路隆兴郡临天下,景点,展览馆,113.412615,34.781835
范家门景区,河南,郑州,登封市,0371,62788888,登封市其他,唐庄镇范家门村13号,景点,自然风光,113.105594,34.556504
河南中州国旅,河南,郑州,郑州,0371,130****0000;56099909,管城回族区,豫一路郑州二十九中学北侧,景点,旅行社,113.758418,34.667657
荟途旅行社,河南,郑州,郑州,0371,,橡树玫瑰城,管城橡树玫瑰城西区,景点,旅行社,113.709566,34.708053
鸿雁国旅业务咨询,河南,郑州,登封市,0371,156****0509,登封市其他,G343与迎君大道交叉路口往西北约170米,景点,旅行社,112.812783,34.396923
静修院,河南,郑州,登封市,0371,,登封市其他,会善中路东一巷7号,景点,宗教,113.010239,34.461212
弄堂艺术工作室,河南,郑州,郑州,0371,,医学院,二环支路瑞光路瑞光创意工厂,景点,美术馆,113.638705,34.763405
对八户外旅游,河南,郑州,新密市,0371,158****4880,新密市其他,圆通快递西,景点,旅行社,113.317743,34.455053
武夷山大世界,河南,郑州,郑州,0371,183****5550,凤凰城市广场,未来路青年路凤凰茶城二楼C-15室,景点,景点/周边游,113.704956,34.740993
中青国际旅行社,河南,郑州,新郑市,0371,153****3155,华南城/高坡岩,华南城一号交易广场东五门领城公园12商106号,景点,旅行社,113.730981,34.606931
大熊山摘星楼风景区,河南,郑州,登封市,0371,56510567,登封市其他,徐庄镇王保庄村,景点,自然风光,113.111832,34.280201
大唐国际旅行社,河南,郑州,新密市,0371,,青屏广场,长乐路176号附近,景点,旅行社,113.365909,34.538843
走天涯旅行社,河南,郑州,巩义市,0371,138****2496,巩义市其他,036乡道与237省道交叉口西南50米,景点,旅行社,113.061621,34.612781
走天涯旅行社,河南,郑州,巩义市,0371,155****6965,巩义市其他,永安路179号,景点,旅行社,112.961271,34.647171
爱乐园,河南,郑州,新密市,0371,,新密市政府,青屏街街道东大街17号花样年华假日酒店2层,景点,主题公园,113.390923,34.535645
魔幻艺术体验馆,河南,郑州,郑州,0371,135****1066;158****8685,火车站/二七广场,二七路230号郑州华联商厦3楼南区,景点,展览馆,113.665984,34.753312
走天涯旅行社,河南,郑州,巩义市,0371,136****1766,回郭镇,人民路676号,景点,旅行社,112.866424,34.680014
旅游百事通,河南,郑州,巩义市,0371,156****6288,回郭镇,门市部,景点,旅行社,112.872229,34.680149
中青国际旅行社,河南,郑州,巩义市,0371,185****9656,回郭镇,北寺花苑1楼,景点,旅行社,112.861241,34.678961
藏葡萄树,河南,郑州,巩义市,0371,,巩义市其他,康百万庄园景区主宅区二院内,景点,景点/周边游,112.949662,34.763311
森林公园,河南,郑州,郑州,0371,,国家森林公园/北龙湖,中州大道北三环立交桥,景点,森林公园,113.705093,34.804543
卢店镇新型社区展示中心,河南,郑州,登封市,0371,,登封市其他,-237省道西50米,景点,展览馆,113.155864,34.456852
自动化焊割设备展示中心,河南,郑州,郑州,0371,,马寨镇,东方路,景点,展览馆,113.531446,34.713741
古井,河南,郑州,登封市,0371,,登封市其他,太室路与嵩阳路交叉路口往东北约100米嵩阳书院,景点,景点/周边游,113.03344,34.479702
团练,河南,郑州,巩义市,0371,,巩义市其他,巩义市区西3公里处康店镇康百万庄园主宅区内,景点,人文古迹,112.949143,34.763075
仟禧厚街,河南,郑州,郑州,0371,,瑞达路沿线,郑州高新技术产业开发区中原国家广告产业园1号楼,景点,观光街区,113.574936,34.807129
途牛旅游,河南,郑州,郑州,0371,,帝湖,嵩山路长江路北京华联三楼,景点,旅行社,113.62744,34.709424
旅游百事通,河南,郑州,郑州,0371,150****7619,儿童公园/凯旋门,伏牛路4号,景点,旅行社,113.60711,34.729609
新龙源展览展示,河南,郑州,郑州,0371,,东建材,通泰路,景点,展览馆,113.732574,34.740463
FUTURE ZOO未来动物城,河南,郑州,郑州,0371,139****9083,正弘中心,花园路东风路正弘城,景点,动植物园,113.68089,34.795251
河南旅游集团有限公司,河南,郑州,郑州,0371,137****7902,火车站/二七广场,紫荆山路58号,景点,旅行社,113.681838,34.753746
华夏温泉商务酒店,河南,郑州,新郑市,0371,,新郑市其他,世贸机动车检测站对面,景点,温泉,113.671707,34.628527
栖棠博物馆,河南,郑州,郑州,0371,60943618,惠济区,南阳路与北三环交叉口向西300米路北,景点,博物馆,113.615662,34.813026
唐岗水库,河南,郑州,荥阳市,0371,,荥阳市其他,广武镇,景点,现代建筑,113.413532,34.885132
途牛旅游,河南,郑州,郑州,0371,136****2378,富田太阳城,航海路中州大道交汇处东北角万科龙堂2楼,景点,旅行社,113.718793,34.721513
浙江孺子牛旅行有限公司,河南,郑州,郑州,0371,,经三路沿线,银丰商务A座708D,景点,旅行社,113.693102,34.786292
中文旅游,河南,郑州,郑州,0371,,二七万达,兴华南街汉江路东50米路南,景点,旅行社,113.633665,34.715155
华人国际旅游集团,河南,郑州,郑州,0371,86631681,升龙广场,政通路与人和路交叉口东北角升龙商业广场活力街区F3层,景点,旅行社,113.643165,34.725073
万通国际旅行社,河南,郑州,郑州,0371,,升龙广场,升龙商业广场活力1街2楼,景点,旅行社,113.641362,34.725342
新郑盈科国际旅行社,河南,郑州,新郑市,0371,131****9391,新村镇,郑州工业应用技术学院(西校区)大学生创业孵化园705室,景点,旅行社,113.710892,34.429493
新郑双鹤湖国家湿地公园,河南,郑州,新郑市,0371,,炎黄广场,鹤首路,景点,城市公园,113.74057,34.395561
携程旅游,河南,郑州,郑州,0371,66637775,裕达国贸,伊河路与工人路交叉口向西200米路南3号楼门面3楼附20室,景点,旅行社,113.617876,34.742386
豆豆壳青少年爱眼中心,河南,郑州,郑州,0371,,郑州大学新校区,石楠路高新・锦华苑,景点,展览馆,113.551666,34.823978
河南中州国际旅行社,河南,郑州,郑州,0371,185****2816,升龙广场,大学中路9号,景点,旅行社,113.644537,34.724297
郑州牟山湿地公园,河南,郑州,中牟县,0371,,中牟县其他,物流大道,景点,城市公园,114.021825,34.763721
蝶湖公园,河南,郑州,郑州,0371,66786968,经开区,潮河街道潮河北环路,景点,公园/广场,113.777588,34.684624
郑州翔鹏旅行社,河南,郑州,荥阳市,0371,64600080,荥阳汽车站,河阴路原荥阳二中斜对面黑马照相馆北隔壁,景点,旅行社,113.394722,34.782379
河南中州国际旅行社,河南,郑州,郑州,0371,180****8618,火车站/二七广场,大学路渔果市集一楼进口处,景点,旅行社,113.644282,34.748332
携程旅游,河南,郑州,郑州,0371,156****8006,儿童公园/凯旋门,汝河路72号西耿河家园2号楼2单元临街商铺,景点,旅行社,113.622494,34.732788
融创文旅体验中心,河南,郑州,郑州,0371,,宝龙城市广场/熙地港,九如路农业东路向北路东,景点,更多景点/周边游,113.740848,34.783698
七里河公园,河南,郑州,郑州,0371,,东建材,祭城路街道客文一街与七里河围和处,景点,公园/广场,113.752586,34.7579
华夏旺族 共享艺术馆,河南,郑州,郑州,0371,180****2206,经开区,经南六路阅南公馆南门1号底商,景点,美术馆,113.749312,34.707582
青年国际旅行社,河南,郑州,荥阳市,0371,150****2611,荥阳汽车站,郑上路与万山路交叉口向南100米路西,景点,旅行社,113.384803,34.780593
瓦屋李民俗小吃街,河南,郑州,郑州,0371,177****1201,高新区,科学大道美景菩提西侧约70米,景点,步行街,113.570914,34.807114
华夏旺族教育共享艺术馆,河南,郑州,郑州,0371,19913883296,陈砦,四月天小学北门对面,景点,美术馆,113.654557,34.820907
凌云园,河南,郑州,郑州,0371,,冉屯路/五龙口,五龙口南路与农业路交汇处东北角,景点,公园/广场,113.624692,34.77811
河南省中国旅行社,河南,郑州,荥阳市,0371,69005666,荥阳植物园,繁荣街与百合路交叉口向南100米路西,景点,旅行社,113.414088,34.776538
塔山旅游度假区,河南,郑州,荥阳市,0371,65329888;66315999,荥阳市其他,崔庙镇古城社区,景点,自然景观,113.401087,34.648697
中岳旅行社,河南,郑州,登封市,0371,150****5220,嵩阳公园,滨河路汉庭酒店(书院店)东侧约70米,景点,旅行社,113.04196,34.464861
旅游百事通,河南,郑州,郑州,0371,,锦艺城/王府井,建设路工人路交叉口往南200米路东,景点,旅行社,113.614713,34.756043
龙湖城市湿地公园,河南,郑州,新郑市,0371,,新郑市其他,祥云路,景点,城市公园,113.712769,34.632797
碧桂园IEC国际展销中心,河南,郑州,郑州,0371,67919699,体育公园,东风南路创业路西南角绿地中心北塔,景点,展览馆,113.768116,34.759308
乱石坡油菜花区,河南,郑州,新密市,0371,138****5892,新密市其他,袁庄乡乱石坡村,景点,植物园,113.433762,34.59816
携程旅游,河南,郑州,郑州,0371,180****7799,碧沙岗,建设路街道文化宫路69号,景点,旅行社,113.616674,34.753954
高铁公园,河南,郑州,郑州,0371,,龙子湖校区,东三环与相济路交叉口,景点,公园/广场,113.779808,34.790184
荥阳滨河公园,河南,郑州,荥阳市,0371,,荥阳市其他,索河路与商隐路交汇处东北侧,景点,城市公园,113.450409,34.788826
康辉旅游,河南,郑州,郑州,0371,130****5595,二七万达,大学南路8号万达广场(郑州二七店)B1,景点,旅行社,113.643416,34.717419
中国旅行社河南有限公司,河南,郑州,郑州,0371,133****7133,升龙广场,淮河路街道航海中路升龙二七中心A座6层611号,景点,旅行社,113.632425,34.720885
中青国际旅行社,河南,郑州,郑州,0371,135****6852,曼哈顿广场/英协路,未来路与金水路交叉口曼哈顿商业广场A区2层,景点,旅行社,113.703315,34.748345
神农山庄,河南,郑州,郑州,0371,55888126;131****1101,二七区,樱桃沟景区侯张线与018乡道交叉口向南600米,景点,更多景点/周边游,113.599042,34.613946
永安国旅,河南,郑州,荥阳市,0371,64905678,荥阳市其他,234国道,景点,旅行社,113.372232,34.891262
河南环之球旅行社,河南,郑州,郑州,0371,150****9712;132****2269,黄河游览区,大河路69号,景点,旅行社,113.541272,34.879087
中青国际旅行社,河南,郑州,荥阳市,0371,137****8985,荥阳市其他,S314,景点,旅行社,113.440842,34.894632
迷影仙境主题造型,河南,郑州,登封市,0371,156****3299,登封市其他,日_街西5巷东北70米,景点,更多景点/周边游,113.048641,34.458981
悦观国际旅行社,河南,郑州,郑州,0371,,冉屯路/五龙口,桐柏路街道桐柏路西十里铺路交叉口鑫苑都市公寓二楼,景点,旅行社,113.615335,34.769965
郑州自由行旅游,河南,郑州,新郑市,0371,137****9779,龙湖广场/升达大学,龙湖镇北卡风情,景点,旅行社,113.686023,34.609123
康辉旅游,河南,郑州,郑州,0371,,曼哈顿广场/英协路,未来路福元路交叉口向东四百米路北,景点,旅行社,113.708151,34.757731
携程旅行,河南,郑州,郑州,0371,86546855,人民路/紫荆山,花园路街道紫荆山路与花园路交叉口东北50米,景点,旅行社,113.682491,34.764401
中州国际旅行社,河南,郑州,上街区,0371,,廿峡线,汝南路周艳红私家童装南侧,景点,旅行社,113.292132,34.805692
郭威墓,河南,郑州,新郑市,0371,,新郑市其他,后陈,景点,古代遗迹,113.733162,34.505451
后周皇陵,河南,郑州,新郑市,0371,,新郑市其他,郭店镇陵上村,景点,古代遗迹,113.702614,34.560926
景德镇大师作品展,河南,郑州,郑州,0371,,国贸360,农业路与文化路交叉口东约40米,景点,展览馆,113.666939,34.787359
懿陵,河南,郑州,新郑市,0371,,新郑市其他,郭家店村,景点,古代遗迹,113.706827,34.561344
顺陵,河南,郑州,新郑市,0371,,新郑市其他,郭家店村,景点,古代遗迹,113.706902,34.561932
以色列国家馆,河南,郑州,郑州,0371,,经开区,经开第九大街与经北一路交叉路口往东南约50米,景点,展览馆,113.77224,34.724888
书香天下国学艺术馆,河南,郑州,郑州,0371,86082931,东建材,千宁街与兴荣街交叉路口往南约60米,景点,美术馆,113.741921,34.757241
安泰汤泉,河南,郑州,郑州,0371,86558777,儿童公园/凯旋门,华山路与汝河路交叉口,景点,温泉,113.60025,34.732361
恋爱博物馆,河南,郑州,郑州,0371,166****7323,火车站/二七广场,二七路230号郑州华联商厦3楼南区,景点,展览馆,113.665821,34.753291
史沟水库,河南,郑州,新密市,0371,,新密市其他,上史沟,景点,现代建筑,113.560719,34.461659
中青旅游?,河南,郑州,郑州,0371,186****4578,月季公园,神驰路锦绣汇悦儿童成长中心一楼,景点,旅行社,113.621885,34.760025
郑州金融岛,河南,郑州,郑州,0371,,国家森林公园/北龙湖,龙湖街道龙湖公园,景点,创意园区,113.73385,34.812776
福慧国际旅行社,河南,郑州,郑州,0371,,曼哈顿广场/英协路,未来路339号,景点,旅行社,113.703721,34.759221
河南中州国际旅行社,河南,郑州,郑州,0371,166****6876,福都生活广场,紫辰路与城东南路紫楠花园门面房南2号,景点,旅行社,113.690542,34.710175
携程旅游,河南,郑州,郑州,0371,,碧沙岗,互助路1号,景点,旅行社,113.626991,34.750041
人和寨村,河南,郑州,新郑市,0371,,新郑市其他,辛店镇,景点,古村古镇,113.650424,34.427614
郑州汉石雕博物馆,河南,郑州,中牟县,0371,,九龙镇,九龙镇工业园区附近,景点,博物馆,113.850576,34.679354
康泰路步行街,河南,郑州,荥阳市,0371,,建业购物广场,塔山路与康泰路交叉口东南100米,景点,步行街,113.395093,34.782746
游乐场,河南,郑州,郑州,0371,,人民路/紫荆山,紫荆山路1号紫荆山百货5层,景点,游乐场,113.681422,34.76251
大雁塔,河南,郑州,郑州,0371,,黄河游览区,大观景区,景点,人文古迹,113.513531,34.910649
康辉旅游,河南,郑州,郑州,0371,156****9217,亚星锦和广场,刘砦社区6号院五号楼1层6-003室,景点,旅行社,113.625753,34.681932
中心广场,河南,郑州,中牟县,0371,,人民医院,北内环路,景点,公园/广场,113.93068,34.758621
石方院,河南,郑州,巩义市,0371,,巩义市其他,北山口镇青龙禅寺,景点,景点/周边游,112.999523,34.713993
施恩堂,河南,郑州,新郑市,0371,,新郑市其他,商登高速,景点,宗教,113.870669,34.436189
祥和丽景安置房展示中心,河南,郑州,新密市,0371,,行政服务中心,政通路西50米,景点,展览馆,113.351107,34.527887
希望美术馆,河南,郑州,巩义市,0371,,巩义东区,德厚街与锦里路交叉路口东侧,景点,美术馆,113.017689,34.746149
四院五院,河南,郑州,巩义市,0371,,巩义市其他,康店镇康百万庄园景区主宅区四院前院和五院前院内,景点,更多景点/周边游,112.949328,34.763288
老董夜市-西门,河南,郑州,新密市,0371,,青屏广场,周楼街63附近,景点,夜市,113.375029,34.539139
义Q仁里,河南,郑州,巩义市,0371,,巩义市其他,康店镇康百万庄园景区栈房区内,景点,更多景点/周边游,112.950296,34.763721
龙源温泉,河南,郑州,中牟县,0371,158****1692,中牟县其他,万滩村,景点,温泉,113.943475,34.863321
江山楼,河南,郑州,郑州,0371,,黄河游览区,江山路西150米,景点,更多景点/周边游,113.576309,34.875439
李氏宗祠,河南,郑州,荥阳市,0371,,黄河游览区,江南路与沿黄快速通道交叉路口往东南约150米,景点,人文古迹,113.493984,34.905063
申沟文化广场,河南,郑州,新密市,0371,,新密市其他,超化镇超大公路西段正东方向120米,景点,公园/广场,113.433876,34.448286
大树美术馆,河南,郑州,新郑市,0371,155****4211,新郑市其他,祥云路浩创梧桐郡底商,景点,美术馆,113.717114,34.625694
秦豫美术馆,河南,郑州,新密市,0371,156****0777,客运中心站,新华路街道嵩山大道111号,景点,美术馆,113.403261,34.531951
九龙圣母殿,河南,郑州,登封市,0371,,登封市其他,中岳街道杨中线,景点,景点/周边游,113.105532,34.483258
携程旅游,河南,郑州,郑州,0371,,宝龙城市广场/熙地港,地德街与地坤街交汇处王府井百货B1层东华门53,景点,旅行社,113.718041,34.784001
紫竹院,河南,郑州,荥阳市,0371,,黄河游览区,广武镇伴山东路风铃寨(中原影视城北)风铃寨内,景点,更多景点/周边游,113.491786,34.921732
三皇寨-仙人洞,河南,郑州,登封市,0371,,登封市其他,西北15公里处的嵩山少室山下嵩山少林景区三皇寨景区内,景点,更多景点/周边游,112.934574,34.466544
